GPGSA,A,3,15,21,29,06,16,22,18,,,,,,2.4,1.2,2.0*31
$GPRMC,222249.000,A,3758.6076,N,11952.7887,W,4.08,53.26,301013,,*22
$GPGGA,222250.000,3758.6081,N,11952.7876,W,1,08,1.0,1406.0,M,-23.2,M,,0000*59
$GPGSA,A,3,15,21,29,26,06,16,22,18,,,,,2.0,1.0,1.7*37
$GPRMC,222250.000,A,3758.6081,N,11952.7876,W,3.95,56.59,301013,,*22
$GPGGA,222251.000,3758.6090,N,11952.7866,W,1,08,1.0,1406.4,M,-23.2,M,,0000*5D
$GPGSA,A,3,15,21,29,26,06,16,22,18,,,,,2.0,1.0,1.7*37
$GPGSV,3,1,10,18,73,248,31,21,70,001,28,15,44,084,36,22,36,236,29*70
$GPGSV,3,2,10,29,35,147,27,06,27,313,38,16,24,289,33,26,18,045,29*7F
$GPGSV,3,3,10,27,16,317,34,03,06,319,*76
$GPRMC,222251.000,A,3758.6090,N,11952.7866,W,4.12,50.91,301013,,*28
$GPGGA,222252.000,3758.6098,N,11952.7855,W,1,08,1.0,1406.5,M,-23.2,M,,0000*57
$GPGSA,A,3,15,21,29,26,06,16,22,18,,,,,2.0,1.0,1.7*37
$GPRMC,222252.000,A,3758.6098,N,11952.7855,W,4.03,51.55,301013,,*2A
$GPGGA,222253.000,3758.6104,N,11952.7846,W,1,08,1.0,1406.6,M,-23.2,M,,0000*53
$GPGSA,A,3,15,21,29,26,06,16,22,18,,,,,2.0,1.0,1.7*37
$GPRMC,222253.000,A,3758.6104,N,11952.7846,W,3.85,51.97,301013,,*2A
$GPGGA,222254.000,3758.6111,N,11952.7835,W,1,08,1.0,1406.6,M,-23.2,M,,0000*54
$GPGSA,A,3,15,21,29,26,06,16,22,18,,,,,2.0,1.0,1.7*37
$GPRMC,222254.000,A,3758.6111,N,11952.7835,W,4.15,50.70,301013,,*2B
$GPGGA,222255.000,3758.6118,N,11952.7824,W,1,08,1.0,1407.0,M,-23.2,M,,0000*5B
$GPGSA,A,3,15,21,29,26,06,16,22,18,,,,,2.0,1.0,1.7*37
$GPRMC,222255.000,A,3758.6118,N,11952.7824,W,4.11,52.15,301013,,*26
$GPGGA,222256.000,3758.6124,N,11952.7813,W,1,08,1.0,1407.4,M,-23.2,M,,0000*57
$GPGSA,A,3,15,21,29,26,06,16,22,18,,,,,2.0,1.0,1.7*37
$GPGSV,3,1,10,18,73,248,31,21,70,001,29,15,44,084,36,22,36,236,27*7F
$GPGSV,3,2,10,29,35,147,23,06,27,313,38,16,24,289,33,26,18,045,31*72
$GPGSV,3,3,10,27,16,317,35,03,06,319,*77
$GPRMC,222256.000,A,3758.6124,N,11952.7813,W,3.98,55.26,301013,,*2F
$GPGGA,222257.000,3758.6130,N,11952.7802,W,1,08,1.0,1407.7,M,-23.2,M,,0000*50
$GPGSA,A,3,15,21,29,26,06,16,22,18,,,,,2.0,1.0,1.7*37
$GPRMC,222257.000,A,3758.6130,N,11952.7802,W,4.13,56.13,301013,,*2A
$GPGGA,222258.000,3758.6137,N,11952.7790,W,1,08,1.0,1407.8,M,-23.2,M,,0000*53
$GPGSA,A,3,15,21,29,26,06,16,22,18,,,,,2.0,1.0,1.7*37
$GPRMC,222258.000,A,3758.6137,N,11952.7790,W,4.12,56.20,301013,,*27
$GPGGA,222259.000,3758.6144,N,11952.7779,W,1,08,1.0,1408.0,M,-23.2,M,,0000*56
$GPGSA,A,3,15,21,29,26,06,16,22,18,,,,,2.0,1.0,1.7*37
$GPRMC,222259.000,A,3758.6144,N,11952.7779,W,4.33,52.36,301013,,*25
$GPGGA,222300.000,3758.6151,N,11952.7767,W,1,08,1.0,1408.3,M,-23.2,M,,0000*53
$GPGSA,A,3,15,21,29,26,06,16,22,18,,,,,2.0,1.0,1.7*37
$GPRMC,222300.000,A,3758.6151,N,11952.7767,W,4.46,51.44,301013,,*27
$GPGGA,222301.000,3758.6159,N,11952.7754,W,1,08,1.0,1408.4,M,-23.2,M,,0000*5D
$GPGSA,A,3,15,21,29,26,06,16,22,18,,,,,2.0,1.0,1.7*37
$GPGSV,3,1,10,18,73,248,31,21,70,001,28,15,44,084,37,22,36,236,28*70
$GPGSV,3,2,10,29,35,147,27,06,27,313,39,16,24,289,33,26,18,045,32*74
$GPGSV,3,3,10,27,16,317,39,03,06,319,*7B
$GPRMC,222301.000,A,3758.6159,N,11952.7754,W,4.40,53.85,301013,,*27
$GPGGA,222302.000,3758.6174,N,11952.7743,W,1,08,1.0,1410.0,M,-23.2,M,,0000*5A
$GPGSA,A,3,15,21,29,26,06,16,22,18,,,,,2.0,1.0,1.7*37
$GPRMC,222302.000,A,3758.6174,N,11952.7743,W,4.44,53.68,301013,,*2A
$GPGGA,222303.000,3758.6187,N,11952.7731,W,1,08,1.0,1411.1,M,-23.2,M,,0000*52
$GPGSA,A,3,15,21,29,26,06,16,22,18,,,,,2.0,1.0,1.7*37
$GPRMC,222303.000,A,3758.6187,N,11952.7731,W,4.44,54.33,301013,,*2B
$GPGGA,222304.000,3758.6199,N,11952.7719,W,1,08,1.0,1412.1,M,-23.2,M,,0000*53
$GPGSA,A,3,15,21,29,26,06,16,22,18,,,,,2.0,1.0,1.7*37
$GPRMC,222304.000,A,3758.6199,N,11952.7719,W,4.49,54.22,301013,,*24
$GPGGA,222305.000,3758.6210,N,11952.7707,W,1,08,1.0,1412.9,M,-23.2,M,,0000*57
$GPGSA,A,3,15,21,29,26,06,16,22,18,,,,,2.0,1.0,1.7*37
$GPRMC,222305.000,A,3758.6210,N,11952.7707,W,4.47,54.83,301013,,*2D
$GPGGA,222306.000,3758.6220,N,11952.7694,W,1,08,1.0,1413.7,M,-23.2,M,,0000*53
$GPGSA,A,3,15,21,29,26,06,16,22,18,,,,,2.0,1.0,1.7*37
$GPGSV,3,1,10,18,73,248,31,21,70,001,24,15,44,084,37,22,36,236,28*7C
$GPGSV,3,2,10,29,35,147,31,06,27,313,39,16,24,289,34,26,18,045,33*75
$GPGSV,3,3,10,27,16,317,40,03,06,319,*75
$GPRMC,222306.000,A,3758.6220,N,11952.7694,W,4.50,54.77,301013,,*2B
$GPGGA,222307.000,3758.6230,N,11952.7681,W,1,07,1.1,1414.4,M,-23.2,M,,0000*5D
$GPGSA,A,3,15,21,29,26,06,22,18,,,,,,2.1,1.1,1.8*3F
$GPRMC,222307.000,A,3758.6230,N,11952.7681,W,4.49,56.11,301013,,*25
$GPGGA,222308.000,3758.6239,N,11952.7668,W,1,08,1.0,1414.9,M,-23.2,M,,0000*5F
$GPGSA,A,3,15,21,29,26,06,16,22,18,,,,,2.0,1.0,1.7*37
$GPRMC,222308.000,A,3758.6239,N,11952.7668,W,4.53,56.05,301013,,*2A
$GPGGA,222309.000,3758.6247,N,11952.7656,W,1,08,1.0,1415.6,M,-23.2,M,,0000*54
$GPGSA,A,3,15,21,29,26,06,16,22,18,,,,,2.0,1.0,1.7*37
$GPRMC,222309.000,A,3758.6247,N,11952.7656,W,4.37,57.24,301013,,*2F
$GPGGA,222310.000,3758.6255,N,11952.7644,W,1,08,1.0,1416.2,M,-23.2,M,,0000*5B
$GPGSA,A,3,15,21,29,26,06,16,22,18,,,,,2.0,1.0,1.7*37
$GPRMC,222310.000,A,3758.6255,N,11952.7644,W,4.38,58.06,301013,,*27
$GPGGA,222311.000,3758.6263,N,11952.7632,W,1,08,1.0,1416.9,M,-23.2,M,,0000*55
$GPGSA,A,3,15,21,29,26,06,16,22,18,,,,,2.0,1.0,1.7*37
$GPGSV,3,1,10,18,74,248,32,21,70,001,24,15,44,084,27,22,36,237,29*79
$GPGSV,3,2,10,29,34,148,32,06,27,313,40,16,24,289,40,26,18,045,32*74
$GPGSV,3,3,10,27,16,317,40,03,07,319,*74
$GPRMC,222311.000,A,3758.6263,N,11952.7632,W,4.39,58.61,301013,,*22
$GPGGA,222312.000,3758.6271,N,11952.7618,W,1,08,1.0,1417.8,M,-23.2,M,,0000*5D
$GPGSA,A,3,15,21,29,26,06,16,22,18,,,,,2.0,1.0,1.7*37
$GPRMC,222312.000,A,3758.6271,N,11952.7618,W,4.47,58.48,301013,,*28
$GPGGA,222313.000,3758.6278,N,11952.7605,W,1,08,1.0,1418.3,M,-23.2,M,,0000*5D
$GPGSA,A,3,15,21,29,26,06,16,22,18,,,,,2.0,1.0,1.7*37
$GPRMC,222313.000,A,3758.6278,N,11952.7605,W,4.43,57.76,301013,,*2A
$GPGGA,222314.000,3758.6286,N,11952.7592,W,1,08,1.0,1418.8,M,-23.2,M,,0000*5D
$GPGSA,A,3,15,21,29,26,06,16,22,18,,,,,2.0,1.0,1.7*37
$GPRMC,222314.000,A,3758.6286,N,11952.7592,W,4.46,56.85,301013,,*29
$GPGGA,222315.000,3758.6294,N,11952.7579,W,1,08,1.0,1419.4,M,-23.2,M,,0000*57
$GPGSA,A,3,15,21,29,26,06,16,22,18,,,,,2.0,1.0,1.7*37
$GPRMC,222315.000,A,3758.6294,N,11952.7579,W,4.50,57.52,301013,,*22
$GPGGA,222316.000,3758.6301,N,11952.7567,W,1,07,1.1,1419.8,M,-23.2,M,,0000*54
$GPGSA,A,3,15,29,26,06,16,22,18,,,,,,2.5,1.1,2.3*37
$GPGSV,3,1,10,18,74,248,33,21,70,001,,15,44,084,31,22,36,237,30*71
$GPGSV,3,2,10,29,34,148,33,06,27,313,40,16,24,289,40,26,18,045,32*75
$GPGSV,3,3,10,27,16,317,40,03,07,319,*74
$GPRMC,222316.000,A,3758.6301,N,11952.7567,W,4.46,58.38,301013,,*27
$GPGGA,222317.000,3758.6308,N,11952.7554,W,1,06,1.3,1420.2,M,-23.2,M,,0000*5F
$GPGSA,A,3,15,29,26,06,16,18,,,,,,,2.7,1.3,2.4*30
$GPRMC,222317.000,A,3758.6308,N,11952.7554,W,4.44,58.72,301013,,*23
$GPGGA,222318.000,3758.6314,N,11952.7541,W,1,08,1.0,1420.5,M,-23.2,M,,0000*53
$GPGSA,A,3,15,22,29,26,06,16,21,18,,,,,2.0,1.0,1.7*37
$GPRMC,222318.000,A,3758.6314,N,11952.7541,W,4.49,58.72,301013,,*28
$GPGGA,222319.000,3758.6319,N,11952.7528,W,1,08,1.0,1420.3,M,-23.2,M,,0000*56
$GPGSA,A,3,15,22,29,26,06,16,21,18,,,,,2.0,1.0,1.7*37
$GPRMC,222319.000,A,3758.6319,N,11952.7528,W,4.48,59.82,301013,,*24
$GPGGA,222320.000,3758.6324,N,11952.7515,W,1,08,1.0,1420.0,M,-23.2,M,,0000*5F
$GPGSA,A,3,15,22,29,26,06,16,21,18,,,,,2.0,1.0,1.7*37
$GPRMC,222320.000,A,3758.6324,N,11952.7515,W,4.46,58.74,301013,,*28
$GPGGA,222321.000,3758.6330,N,11952.7502,W,1,08,1.0,1419.9,M,-23.2,M,,0000*5E
$GPGSA,A,3,15,22,29,26,06,16,21,18,,,,,2.0,1.0,1.7*37
$GPGSV,3,1,10,18,74,248,33,21,70,001,26,15,44,084,33,22,36,237,33*74
$GPGSV,3,2,10,29,34,148,33,06,27,313,41,16,24,289,40,26,18,045,32*74
$GPGSV,3,3,10,27,16,317,41,03,07,319,*75
$GPRMC,222321.000,A,3758.6330,N,11952.7502,W,4.62,56.93,301013,,*2B
$GPGGA,222322.000,3758.6335,N,11952.7489,W,1,08,1.0,1419.7,M,-23.2,M,,0000*54
$GPGSA,A,3,15,22,29,26,06,16,21,18,,,,,2.0,1.0,1.7*37
$GPRMC,222322.000,A,3758.6335,N,11952.7489,W,4.46,58.45,301013,,*2C
$GPGGA,222323.000,3758.6343,N,11952.7475,W,1,08,1.0,1420.0,M,-23.2,M,,0000*5A
$GPGSA,A,3,15,22,29,26,06,16,21,18,,,,,2.0,1.0,1.7*37
$GPRMC,222323.000,A,3758.6343,N,11952.7475,W,4.45,58.15,301013,,*29
$GPGGA,222324.000,3758.6351,N,11952.7462,W,1,08,1.0,1420.4,M,-23.2,M,,0000*5C
$GPGSA,A,3,15,22,29,26,06,16,21,18,,,,,2.0,1.0,1.7*37
$GPRMC,222324.000,A,3758.6351,N,11952.7462,W,4.50,58.07,301013,,*2C
$GPGGA,222325.000,3758.6358,N,11952.7449,W,1,08,1.0,1420.8,M,-23.2,M,,0000*51
$GPGSA,A,3,15,22,29,26,06,16,21,18,,,,,2.0,1.0,1.7*37
$GPRMC,222325.000,A,3758.6358,N,11952.7449,W,4.47,57.94,301013,,*2E
$GPGGA,222326.000,3758.6364,N,11952.7437,W,1,08,1.0,1420.8,M,-23.2,M,,0000*54
$GPGSA,A,3,15,22,29,26,06,16,21,18,,,,,2.0,1.0,1.7*37
$GPGSV,3,1,10,18,74,248,33,21,70,001,26,15,44,084,31,22,36,237,33*76
$GPGSV,3,2,10,29,34,148,33,06,27,313,41,16,24,289,39,26,18,045,32*7A
$GPGSV,3,3,10,27,16,317,41,03,07,319,*75
$GPRMC,222326.000,A,3758.6364,N,11952.7437,W,4.47,58.79,301013,,*27
$GPGGA,222327.000,3758.6370,N,11952.7425,W,1,08,1.0,1420.9,M,-23.2,M,,0000*52
$GPGSA,A,3,15,22,29,26,06,16,21,18,,,,,2.0,1.0,1.7*37
$GPRMC,222327.000,A,3758.6370,N,11952.7425,W,4.44,59.88,301013,,*2C
$GPGGA,222328.000,3758.6376,N,11952.7412,W,1,07,1.1,1421.0,M,-23.2,M,,0000*59
$GPGSA,A,3,22,29,26,06,16,21,18,,,,,,2.0,1.1,1.7*32
$GPRMC,222328.000,A,3758.6376,N,11952.7412,W,4.47,60.67,301013,,*29
$GPGGA,222329.000,3758.6381,N,11952.7399,W,1,08,1.0,1420.9,M,-23.2,M,,0000*52
$GPGSA,A,3,15,22,29,26,06,16,21,18,,,,,2.0,1.0,1.7*37
$GPRMC,222329.000,A,3758.6381,N,11952.7399,W,4.41,60.48,301013,,*2F
$GPGGA,222330.000,3758.6387,N,11952.7385,W,1,08,1.0,1420.8,M,-23.2,M,,0000*50
$GPGSA,A,3,15,22,29,26,06,16,21,18,,,,,2.0,1.0,1.7*37
$GPRMC,222330.000,A,3758.6387,N,11952.7385,W,4.51,61.12,301013,,*23
$GPGGA,222331.000,3758.6392,N,11952.7372,W,1,08,1.0,1420.6,M,-23.2,M,,0000*53
$GPGSA,A,3,15,22,29,26,06,16,21,18,,,,,2.0,1.0,1.7*37
$GPGSV,3,1,10,18,74,248,34,21,70,001,25,15,44,084,25,22,36,237,34*70
$GPGSV,3,2,10,29,34,148,32,06,27,313,42,16,24,289,40,26,18,045,32*76
$GPGSV,3,3,10,27,16,317,41,03,07,319,*75
$GPRMC,222331.000,A,3758.6392,N,11952.7372,W,4.39,60.16,301013,,*25
$GPGGA,222332.000,3758.6398,N,11952.7359,W,1,09,1.0,1420.6,M,-23.2,M,,0000*52
$GPGSA,A,3,15,22,29,26,06,16,27,21,18,,,,1.9,1.0,1.6*39
$GPRMC,222332.000,A,3758.6398,N,11952.7359,W,4.53,61.72,301013,,*2A
$GPGGA,222333.000,3758.6403,N,11952.7345,W,1,09,1.0,1420.6,M,-23.2,M,,0000*5B
$GPGSA,A,3,15,22,29,26,06,16,27,21,18,,,,1.9,1.0,1.6*39
$GPRMC,222333.000,A,3758.6403,N,11952.7345,W,4.57,62.39,301013,,*2B
$GPGGA,222334.000,3758.6409,N,11952.7329,W,1,09,1.0,1420.7,M,-23.2,M,,0000*5D
$GPGSA,A,3,15,22,29,26,06,16,27,21,18,,,,1.9,1.0,1.6*39
$GPRMC,222334.000,A,3758.6409,N,11952.7329,W,4.64,64.33,301013,,*20
$GPGGA,222335.000,3758.6414,N,11952.7315,W,1,09,1.0,1420.5,M,-23.2,M,,0000*5D
$GPGSA,A,3,15,22,29,26,06,16,27,21,18,,,,1.9,1.0,1.6*39
$GPRMC,222335.000,A,3758.6414,N,11952.7315,W,4.43,66.40,301013,,*21
$GPGGA,222336.000,3758.6419,N,11952.7300,W,1,09,1.0,1420.5,M,-23.2,M,,0000*57
$GPGSA,A,3,15,22,29,26,06,16,27,21,18,,,,1.9,1.0,1.6*39
$GPGSV,3,1,10,18,74,249,34,21,70,002,25,15,44,084,34,22,36,237,25*72
$GPGSV,3,2,10,29,34,148,31,06,27,313,42,16,24,289,40,26,18,045,33*74
$GPGSV,3,3,10,27,17,317,41,03,07,319,*74
$GPRMC,222336.000,A,3758.6419,N,11952.7300,W,4.55,66.48,301013,,*24
$GPGGA,222337.000,3758.6424,N,11952.7285,W,1,09,1.0,1420.3,M,-23.2,M,,0000*52
$GPGSA,A,3,15,22,29,26,06,16,27,21,18,,,,1.9,1.0,1.6*39
$GPRMC,222337.000,A,3758.6424,N,11952.7285,W,4.51,67.27,301013,,*2B
$GPGGA,222338.000,3758.6428,N,11952.7271,W,1,09,1.0,1420.4,M,-23.2,M,,0000*5D
$GPGSA,A,3,15,22,29,26,06,16,27,21,18,,,,1.9,1.0,1.6*39
$GPRMC,222338.000,A,3758.6428,N,11952.7271,W,4.48,66.76,301013,,*2E
$GPGGA,222339.000,3758.6433,N,11952.7255,W,1,09,1.0,1420.3,M,-23.2,M,,0000*57
$GPGSA,A,3,15,22,29,26,06,16,27,21,18,,,,1.9,1.0,1.6*39
$GPRMC,222339.000,A,3758.6433,N,11952.7255,W,4.77,66.72,301013,,*2B
$GPGGA,222340.000,3758.6438,N,11952.7240,W,1,09,1.0,1420.2,M,-23.2,M,,0000*57
$GPGSA,A,3,15,22,29,26,06,16,27,21,18,,,,1.9,1.0,1.6*39
$GPRMC,222340.000,A,3758.6438,N,11952.7240,W,4.61,66.64,301013,,*2A
$GPGGA,222341.000,3758.6443,N,11952.7225,W,1,09,1.0,1420.0,M,-23.2,M,,0000*5B
$GPGSA,A,3,15,22,29,26,06,16,27,21,18,,,,1.9,1.0,1.6*39
$GPGSV,3,1,10,18,74,249,34,21,70,002,26,15,44,084,34,22,36,237,26*72
$GPGSV,3,2,10,29,34,148,32,06,27,313,41,16,24,289,39,26,18,045,33*7A
$GPGSV,3,3,10,27,17,317,41,03,07,319,*74
$GPRMC,222341.000,A,3758.6443,N,11952.7225,W,4.54,66.22,301013,,*20
$GPGGA,222342.000,3758.6448,N,11952.7210,W,1,09,1.0,1419.8,M,-23.2,M,,0000*57
$GPGSA,A,3,15,22,29,26,06,16,27,21,18,,,,1.9,1.0,1.6*39
$GPRMC,222342.000,A,3758.6448,N,11952.7210,W,4.56,66.19,301013,,*24
$GPGGA,222343.000,3758.6455,N,11952.7195,W,1,09,1.0,1420.3,M,-23.2,M,,0000*55
$GPGSA,A,3,15,22,29,26,06,16,27,21,18,,,,1.9,1.0,1.6*39
$GPRMC,222343.000,A,3758.6455,N,11952.7195,W,4.60,66.46,301013,,*28
$GPGGA,222344.000,3758.6462,N,11952.7180,W,1,09,1.0,1420.7,M,-23.2,M,,0000*56
$GPGSA,A,3,15,22,29,26,06,16,27,21,18,,,,1.9,1.0,1.6*39
$GPRMC,222344.000,A,3758.6462,N,11952.7180,W,4.59,67.86,301013,,*28
$GPGGA,222345.000,3758.6469,N,11952.7164,W,1,09,1.0,1421.1,M,-23.2,M,,0000*51
$GPGSA,A,3,15,22,29,26,06,16,27,21,18,,,,1.9,1.0,1.6*39
$GPRMC,222345.000,A,3758.6469,N,11952.7164,W,4.60,69.75,301013,,*20
$GPGGA,222346.000,3758.6475,N,11952.7148,W,1,09,1.0,1421.4,M,-23.2,M,,0000*54
$GPGSA,A,3,15,22,29,26,06,16,27,21,18,,,,1.9,1.0,1.6*39
$GPGSV,3,1,10,18,74,249,33,21,70,002,32,15,44,084,34,22,36,237,27*71
$GPGSV,3,2,10,29,34,148,33,06,27,313,41,16,24,288,38,26,18,045,28*71
$GPGSV,3,3,10,27,17,317,41,03,07,319,*74
$GPRMC,222346.000,A,3758.6475,N,11952.7148,W,4.58,70.15,301013,,*25
$GPGGA,222347.000,3758.6481,N,11952.7132,W,1,09,1.0,1421.8,M,-23.2,M,,0000*5F
$GPGSA,A,3,15,22,29,26,06,16,27,21,18,,,,1.9,1.0,1.6*39
$GPRMC,222347.000,A,3758.6481,N,11952.7132,W,4.57,70.19,301013,,*21
$GPGGA,222348.000,3758.6487,N,11952.7116,W,1,09,1.0,1422.1,M,-23.2,M,,0000*5A
$GPGSA,A,3,15,22,29,26,06,16,27,21,18,,,,1.9,1.0,1.6*39
$GPRMC,222348.000,A,3758.6487,N,11952.7116,W,4.60,69.36,301013,,*2F
$GPGGA,222349.000,3758.6493,N,11952.7101,W,1,09,1.0,1422.3,M,-23.2,M,,0000*5A
$GPGSA,A,3,15,22,29,26,06,16,27,21,18,,,,1.9,1.0,1.6*39
$GPRMC,222349.000,A,3758.6493,N,11952.7101,W,4.52,69.24,301013,,*2F
$GPGGA,222350.000,3758.6499,N,11952.7085,W,1,08,1.2,1422.6,M,-23.2,M,,0000*53
$GPGSA,A,3,15,22,29,06,16,27,21,18,,,,,2.1,1.2,1.8*3A
$GPRMC,222350.000,A,3758.6499,N,11952.7085,W,4.57,67.17,301013,,*2B
$GPGGA,222351.000,3758.6506,N,11952.7070,W,1,09,1.0,1423.0,M,-23.2,M,,0000*5B
$GPGSA,A,3,15,22,29,26,06,16,27,21,18,,,,1.9,1.0,1.6*39
$GPGSV,3,1,10,18,74,249,33,21,70,002,24,15,44,084,34,22,36,237,27*76
$GPGSV,3,2,10,29,34,148,34,06,27,313,40,16,24,288,38,26,18,045,33*7D
$GPGSV,3,3,10,27,17,317,41,03,07,319,*74
$GPRMC,222351.000,A,3758.6506,N,11952.7070,W,4.58,65.44,301013,,*2C
$GPGGA,222352.000,3758.6511,N,11952.7055,W,1,09,1.0,1422.9,M,-23.2,M,,0000*51
$GPGSA,A,3,15,22,29,26,06,16,27,21,18,,,,1.9,1.0,1.6*39
$GPRMC,222352.000,A,3758.6511,N,11952.7055,W,4.60,64.53,301013,,*22
$GPGGA,222353.000,3758.6516,N,11952.7042,W,1,09,1.0,1422.8,M,-23.2,M,,0000*50
$GPGSA,A,3,15,22,29,26,06,16,27,21,18,,,,1.9,1.0,1.6*39
$GPRMC,222353.000,A,3758.6516,N,11952.7042,W,4.50,61.85,301013,,*2F
$GPGGA,222354.000,3758.6521,N,11952.7029,W,1,09,1.0,1422.8,M,-23.2,M,,0000*5E
$GPGSA,A,3,15,22,29,26,06,16,27,21,18,,,,1.9,1.0,1.6*39
$GPRMC,222354.000,A,3758.6521,N,11952.7029,W,4.43,60.85,301013,,*22
$GPGGA,222355.000,3758.6527,N,11952.7016,W,1,09,1.0,1422.6,M,-23.2,M,,0000*5B
$GPGSA,A,3,15,22,29,26,06,16,27,21,18,,,,1.9,1.0,1.6*39
$GPRMC,222355.000,A,3758.6527,N,11952.7016,W,4.44,58.58,301013,,*25
$GPGGA,222356.000,3758.6533,N,11952.7003,W,1,08,1.3,1422.3,M,-23.2,M,,0000*5E
$GPGSA,A,3,15,22,26,06,16,27,21,18,,,,,2.3,1.3,1.8*36
$GPGSV,3,1,11,18,74,249,34,21,70,002,24,15,44,084,29,22,36,237,34*7E
$GPGSV,3,2,11,29,34,148,,06,27,313,42,16,24,288,39,26,18,045,32*79
$GPGSV,3,3,11,27,17,317,41,03,07,319,,51,44,160,39*4C
$GPRMC,222356.000,A,3758.6533,N,11952.7003,W,4.48,58.05,301013,,*23
$GPGGA,222357.000,3758.6540,N,11952.6990,W,1,09,1.0,1422.4,M,-23.2,M,,0000*5C
$GPGSA,A,3,15,22,29,26,06,16,27,21,18,,,,1.9,1.0,1.6*39
$GPRMC,222357.000,A,3758.6540,N,11952.6990,W,4.66,58.65,301013,,*2E
$GPGGA,222358.000,3758.6545,N,11952.6978,W,1,09,1.0,1422.4,M,-23.2,M,,0000*50
$GPGSA,A,3,15,22,29,26,06,16,27,21,18,,,,1.9,1.0,1.6*39
$GPRMC,222358.000,A,3758.6545,N,11952.6978,W,4.59,59.93,301013,,*26
$GPGGA,222359.000,3758.6551,N,11952.6965,W,1,09,1.0,1422.2,M,-23.2,M,,0000*5E
$GPGSA,A,3,15,22,29,26,06,16,27,21,18,,,,1.9,1.0,1.6*39
$GPRMC,222359.000,A,3758.6551,N,11952.6965,W,4.53,60.26,301013,,*20
$GPGGA,222400.000,3758.6557,N,11952.6951,W,1,09,1.0,1421.9,M,-23.2,M,,0000*5C
$GPGSA,A,3,15,22,29,26,06,16,27,21,18,,,,1.9,1.0,1.6*39
$GPRMC,222400.000,A,3758.6557,N,11952.6951,W,4.54,59.97,301013,,*2D
$GPGGA,222401.000,3758.6563,N,11952.6937,W,2,09,1.0,1421.8,M,-23.2,M,,0000*58
$GPGSA,A,3,15,22,29,26,06,16,27,21,18,,,,1.9,1.0,1.6*39
$GPGSV,3,1,11,18,74,249,34,21,70,002,24,15,44,084,28,22,36,237,34*7F
$GPGSV,3,2,11,29,34,148,30,06,27,313,42,16,24,288,39,26,18,045,31*79
$GPGSV,3,3,11,27,17,317,41,03,07,319,,51,44,160,38*4D
$GPRMC,222401.000,A,3758.6563,N,11952.6937,W,4.55,59.60,301013,,*22
$GPGGA,222402.000,3758.6569,N,11952.6924,W,2,09,1.0,1421.6,M,-23.2,M,,0000*5D
$GPGSA,A,3,15,22,29,26,06,16,27,21,18,,,,1.9,1.0,1.6*39
$GPRMC,222402.000,A,3758.6569,N,11952.6924,W,4.64,59.31,301013,,*2F
$GPGGA,222403.000,3758.6575,N,11952.6910,W,2,09,1.0,1421.4,M,-23.2,M,,0000*54
$GPGSA,A,3,15,22,29,26,06,16,27,21,18,,,,1.9,1.0,1.6*39
$GPRMC,222403.000,A,3758.6575,N,11952.6910,W,4.69,58.32,301013,,*2B
$GPGGA,222404.000,3758.6582,N,11952.6896,W,2,09,1.0,1421.3,M,-23.2,M,,0000*53
$GPGSA,A,3,15,22,29,26,06,16,27,21,18,,,,1.9,1.0,1.6*39
$GPRMC,222404.000,A,3758.6582,N,11952.6896,W,4.70,55.36,301013,,*2A
$GPGGA,222405.000,3758.6590,N,11952.6884,W,2,09,1.0,1421.5,M,-23.2,M,1.8,0000*73
$GPGSA,A,3,15,22,29,26,06,16,27,21,18,,,,1.9,1.0,1.6*39
$GPRMC,222405.000,A,3758.6590,N,11952.6884,W,4.66,58.46,301013,,*26
$GPGGA,222406.000,3758.6597,N,11952.6870,W,2,09,1.0,1421.5,M,-23.2,M,2.8,0000*7F
$GPGSA,A,3,15,22,29,26,06,16,27,21,18,,,,1.9,1.0,1.6*39
$GPGSV,3,1,11,18,74,249,34,21,70,002,24,15,44,084,29,22,36,237,34*7E
$GPGSV,3,2,11,29,34,148,33,06,27,313,42,16,24,288,39,26,18,045,32*79
$GPGSV,3,3,11,27,17,317,41,03,07,319,,51,44,160,38*4D
$GPRMC,222406.000,A,3758.6597,N,11952.6870,W,4.70,58.21,301013,,*2F
$GPGGA,222407.000,3758.6603,N,11952.6857,W,2,09,1.0,1421.3,M,-23.2,M,3.8,0000*72
$GPGSA,A,3,15,22,29,26,06,16,27,21,18,,,,1.9,1.0,1.6*39
$GPRMC,222407.000,A,3758.6603,N,11952.6857,W,4.69,58.71,301013,,*28
$GPGGA,222408.000,3758.6610,N,11952.6843,W,2,09,1.0,1421.0,M,-23.2,M,,0000*5C
$GPGSA,A,3,15,22,29,26,06,16,27,21,18,,,,1.9,1.0,1.6*39
$GPRMC,222408.000,A,3758.6610,N,11952.6843,W,4.75,59.71,301013,,*2C
$GPGGA,222409.000,3758.6617,N,11952.6830,W,2,09,1.0,1421.3,M,-23.2,M,,0000*5D
$GPGSA,A,3,15,22,29,26,06,16,27,21,18,,,,1.9,1.0,1.6*39
$GPRMC,222409.000,A,3758.6617,N,11952.6830,W,4.80,59.75,301013,,*20
$GPGGA,222410.000,3758.6624,N,11952.6816,W,2,09,1.0,1421.3,M,-23.2,M,,0000*51
$GPGSA,A,3,15,22,29,26,06,16,27,21,18,,,,1.9,1.0,1.6*39
$GPRMC,222410.000,A,3758.6624,N,11952.6816,W,4.84,58.55,301013,,*2B
$GPGGA,222411.000,3758.6632,N,11952.6803,W,2,09,1.0,1421.6,M,-23.2,M,,0000*56
$GPGSA,A,3,15,22,29,26,06,16,27,21,18,,,,1.9,1.0,1.6*39
$GPGSV,3,1,11,18,74,249,34,21,70,002,24,15,44,083,29,22,36,237,34*79
$GPGSV,3,2,11,29,34,148,33,06,27,313,42,16,24,288,30,26,18,045,33*71
$GPGSV,3,3,11,27,17,316,41,03,07,319,,51,44,160,34*40
$GPRMC,222411.000,A,3758.6632,N,11952.6803,W,4.92,56.24,301013,,*26
$GPGGA,222412.000,3758.6640,N,11952.6790,W,2,09,1.0,1421.8,M,-23.2,M,,0000*5B
$GPGSA,A,3,15,22,29,26,06,16,27,21,18,,,,1.9,1.0,1.6*39
$GPRMC,222412.000,A,3758.6640,N,11952.6790,W,4.96,56.35,301013,,*21
$GPGGA,222413.000,3758.6648,N,11952.6777,W,2,09,1.0,1421.9,M,-23.2,M,1.8,0000*7D
$GPGSA,A,3,15,22,29,26,06,16,27,21,18,,,,1.9,1.0,1.6*39
$GPRMC,222413.000,A,3758.6648,N,11952.6777,W,4.94,55.41,301013,,*23
$GPGGA,222414.000,3758.6656,N,11952.6764,W,2,09,1.0,1422.1,M,-23.2,M,,0000*5B
$GPGSA,A,3,15,22,29,26,06,16,27,21,18,,,,1.9,1.0,1.6*39
$GPRMC,222414.000,A,3758.6656,N,11952.6764,W,4.97,55.21,301013,,*2C
$GPGGA,222415.000,3758.6664,N,11952.6751,W,2,09,1.0,1422.3,M,-23.2,M,,0000*5F
$GPGSA,A,3,15,22,29,26,06,16,27,21,18,,,,1.9,1.0,1.6*39
$GPRMC,222415.000,A,3758.6664,N,11952.6751,W,5.02,56.13,301013,,*25
$GPGGA,222416.000,3758.6672,N,11952.6737,W,2,08,1.0,1422.3,M,-23.2,M,,0000*5A
$GPGSA,A,3,15,22,29,26,06,27,21,18,,,,,1.9,1.0,1.6*3E
$GPGSV,3,1,11,18,74,249,33,21,70,003,25,15,44,083,26,22,36,237,34*71
$GPGSV,3,2,11,29,34,148,34,06,27,313,41,16,24,288,,26,18,045,33*76
$GPGSV,3,3,11,27,17,316,41,03,07,319,,51,44,160,38*4C
$GPRMC,222416.000,A,3758.6672,N,11952.6737,W,5.14,56.27,301013,,*21
$GPGGA,222417.000,3758.6680,N,11952.6723,W,2,09,1.0,1422.4,M,-23.2,M,1.8,0000*72
$GPGSA,A,3,15,22,29,26,06,16,27,21,18,,,,1.9,1.0,1.6*39
$GPRMC,222417.000,A,3758.6680,N,11952.6723,W,5.12,56.97,301013,,*25
$GPGGA,222418.000,3758.6686,N,11952.6708,W,2,09,1.0,1421.9,M,-23.2,M,,0000*5B
$GPGSA,A,3,15,22,29,26,06,16,27,21,18,,,,1.9,1.0,1.6*39
$GPRMC,222418.000,A,3758.6686,N,11952.6708,W,4.98,59.17,301013,,*21
$GPGGA,222419.000,3758.6692,N,11952.6693,W,2,09,1.0,1421.7,M,-23.2,M,0.8,0000*74
$GPGSA,A,3,15,22,29,26,06,16,27,21,18,,,,1.9,1.0,1.6*39
$GPRMC,222419.000,A,3758.6692,N,11952.6693,W,4.94,61.12,301013,,*24
$GPGGA,222420.000,3758.6698,N,11952.6678,W,2,09,1.0,1421.5,M,-23.2,M,0.8,0000*73
$GPGSA,A,3,15,22,29,26,06,16,27,21,18,,,,1.9,1.0,1.6*39
$GPRMC,222420.000,A,3758.6698,N,11952.6678,W,4.98,62.02,301013,,*2F
$GPGGA,222421.000,3758.6704,N,11952.6663,W,2,09,1.0,1421.3,M,-23.2,M,0.8,0000*7A
$GPGSA,A,3,15,22,29,26,06,16,27,21,18,,,,1.9,1.0,1.6*39
$GPGSV,3,1,11,18,74,249,33,21,70,003,20,15,44,083,30,22,36,237,34*73
$GPGSV,3,2,11,29,34,148,26,06,27,313,42,16,24,288,40,26,18,045,33*72
$GPGSV,3,3,11,27,17,316,41,03,07,319,,51,44,160,36*42
$GPRMC,222421.000,A,3758.6704,N,11952.6663,W,5.03,61.10,301013,,*23
$GPGGA,222422.000,3758.6711,N,11952.6643,W,2,09,1.0,1421.3,M,-23.2,M,0.8,0000*7F
$GPGSA,A,3,15,22,29,26,06,16,27,21,18,,,,1.9,1.0,1.6*39
$GPRMC,222422.000,A,3758.6711,N,11952.6643,W,5.03,62.77,301013,,*24
$GPGGA,222423.000,3758.6720,N,11952.6626,W,2,09,1.0,1422.0,M,-23.2,M,1.8,0000*7E
$GPGSA,A,3,15,22,29,26,06,16,27,21,18,,,,1.9,1.0,1.6*39
$GPRMC,222423.000,A,3758.6720,N,11952.6626,W,5.08,62.10,301013,,*2E
$GPGGA,222424.000,3758.6729,N,11952.6608,W,2,09,1.0,1422.6,M,-23.2,M,2.8,0000*79
$GPGSA,A,3,15,22,29,26,06,16,27,21,18,,,,1.9,1.0,1.6*39
$GPRMC,222424.000,A,3758.6729,N,11952.6608,W,5.11,62.62,301013,,*21
$GPGGA,222425.000,3758.6737,N,11952.6591,W,2,09,1.0,1423.3,M,-23.2,M,3.8,0000*71
$GPGSA,A,3,15,22,29,26,06,16,27,21,18,,,,1.9,1.0,1.6*39
$GPRMC,222425.000,A,3758.6737,N,11952.6591,W,5.08,63.82,301013,,*2B
$GPGGA,222426.000,3758.6744,N,11952.6574,W,2,09,1.0,1423.8,M,-23.2,M,0.8,0000*75
$GPGSA,A,3,15,22,29,26,06,16,27,21,18,,,,1.9,1.0,1.6*39
$GPGSV,3,1,11,18,74,249,33,21,70,003,21,15,44,083,36,22,36,237,28*79
$GPGSV,3,2,11,29,34,148,35,06,27,313,42,16,24,288,40,26,18,045,34*77
$GPGSV,3,3,11,27,17,316,41,03,07,319,,51,44,160,38*4C
$GPRMC,222426.000,A,3758.6744,N,11952.6574,W,5.06,64.21,301013,,*27
$GPGGA,222427.000,3758.6752,N,11952.6557,W,2,09,1.0,1424.5,M,-23.2,M,0.8,0000*78
$GPGSA,A,3,15,22,29,26,06,16,27,21,18,,,,1.9,1.0,1.6*39
$GPRMC,222427.000,A,3758.6752,N,11952.6557,W,5.04,65.28,301013,,*2A
$GPGGA,222428.000,3758.6759,N,11952.6540,W,2,09,1.0,1424.9,M,-23.2,M,0.8,0000*76
$GPGSA,A,3,15,22,29,26,06,16,27,21,18,,,,1.9,1.0,1.6*39
$GPRMC,222428.000,A,3758.6759,N,11952.6540,W,5.06,64.92,301013,,*2A
$GPGGA,222429.000,3758.6766,N,11952.6523,W,2,09,1.0,1425.5,M,-23.2,M,1.8,0000*72
$GPGSA,A,3,15,22,29,26,06,16,27,21,18,,,,1.9,1.0,1.6*39
$GPRMC,222429.000,A,3758.6766,N,11952.6523,W,5.11,65.27,301013,,*2B
$GPGGA,222430.000,3758.6773,N,11952.6506,W,2,09,1.0,1425.9,M,-23.2,M,2.8,0000*76
$GPGSA,A,3,15,22,29,26,06,16,27,21,18,,,,1.9,1.0,1.6*39
$GPRMC,222430.000,A,3758.6773,N,11952.6506,W,5.14,66.25,301013,,*24
$GPGGA,222431.000,3758.6780,N,11952.6489,W,2,09,1.0,1426.4,M,-23.2,M,3.8,0000*72
$GPGSA,A,3,15,22,29,26,06,16,27,21,18,,,,1.9,1.0,1.6*39
$GPGSV,3,1,11,18,74,249,33,21,70,003,28,15,44,083,36,22,36,237,26*7E
$GPGSV,3,2,11,29,34,148,37,06,27,313,41,16,24,288,40,26,18,045,35*77
$GPGSV,3,3,11,27,17,316,41,03,07,319,,51,44,160,39*4D
$GPRMC,222431.000,A,3758.6780,N,11952.6489,W,5.11,67.77,301013,,*2C
$GPGGA,222432.000,3758.6786,N,11952.6471,W,2,09,1.0,1426.8,M,-23.2,M,0.8,0000*7F
$GPGSA,A,3,15,22,29,26,06,16,27,21,18,,,,1.9,1.0,1.6*39
$GPRMC,222432.000,A,3758.6786,N,11952.6471,W,5.23,67.46,301013,,*2D
$GPGGA,222433.000,3758.6793,N,11952.6454,W,2,09,1.0,1427.3,M,-23.2,M,0.8,0000*77
$GPGSA,A,3,15,22,29,26,06,16,27,21,18,,,,1.9,1.0,1.6*39
$GPRMC,222433.000,A,3758.6793,N,11952.6454,W,5.29,66.27,301013,,*23
$GPGGA,222434.000,3758.6799,N,11952.6437,W,2,09,1.0,1427.8,M,-23.2,M,0.8,0000*74
$GPGSA,A,3,15,22,29,26,06,16,27,21,18,,,,1.9,1.0,1.6*39
$GPRMC,222434.000,A,3758.6799,N,11952.6437,W,5.25,66.35,301013,,*24
$GPGGA,222435.000,3758.6806,N,11952.6420,W,2,09,1.0,1428.3,M,-23.2,M,1.8,0000*7F
$GPGSA,A,3,15,22,29,26,06,16,27,21,18,,,,1.9,1.0,1.6*39
$GPRMC,222435.000,A,3758.6806,N,11952.6420,W,5.21,66.63,301013,,*2D
$GPGGA,222436.000,3758.6813,N,11952.6402,W,2,09,1.0,1428.8,M,-23.2,M,2.8,0000*70
$GPGSA,A,3,15,22,29,26,06,16,27,21,18,,,,1.9,1.0,1.6*39
$GPGSV,3,1,11,18,74,249,32,21,70,003,27,15,44,083,37,22,36,237,23*74
$GPGSV,3,2,11,29,34,148,37,06,27,313,41,16,24,288,40,26,18,045,36*74
$GPGSV,3,3,11,27,17,316,41,03,07,319,,51,44,160,39*4D
$GPRMC,222436.000,A,3758.6813,N,11952.6402,W,5.30,65.38,301013,,*27
$GPGGA,222437.000,3758.6819,N,11952.6386,W,2,09,1.0,1429.1,M,-23.2,M,3.8,0000*79
$GPGSA,A,3,15,22,29,26,06,16,27,21,18,,,,1.9,1.0,1.6*39
$GPRMC,222437.000,A,3758.6819,N,11952.6386,W,5.15,66.41,301013,,*2D
$GPGGA,222438.000,3758.6826,N,11952.6369,W,2,09,1.0,1429.5,M,-23.2,M,0.8,0000*7C
$GPGSA,A,3,15,22,29,26,06,16,27,21,18,,,,1.9,1.0,1.6*39
$GPRMC,222438.000,A,3758.6826,N,11952.6369,W,5.11,65.89,301013,,*2C
$GPGGA,222439.000,3758.6832,N,11952.6352,W,2,09,1.0,1429.9,M,-23.2,M,0.8,0000*7C
$GPGSA,A,3,15,22,29,26,06,16,27,21,18,,,,1.9,1.0,1.6*39
$GPRMC,222439.000,A,3758.6832,N,11952.6352,W,5.16,65.30,301013,,*25
$GPGGA,222440.000,3758.6839,N,11952.6336,W,2,09,1.0,1430.2,M,-23.2,M,0.8,0000*78
$GPGSA,A,3,15,22,29,26,06,16,27,21,18,,,,1.9,1.0,1.6*39
$GPRMC,222440.000,A,3758.6839,N,11952.6336,W,5.23,64.94,301013,,*2B
$GPGGA,222441.000,3758.6845,N,11952.6319,W,2,09,1.0,1430.5,M,-23.2,M,0.8,0000*78
$GPGSA,A,3,15,22,29,26,06,16,27,21,18,,,,1.9,1.0,1.6*39
$GPGSV,3,1,11,18,74,250,32,21,70,003,19,15,44,083,36,22,36,237,24*77
$GPGSV,3,2,11,29,34,148,37,06,27,313,41,16,24,288,40,26,18,045,37*75
$GPGSV,3,3,11,27,17,316,41,03,07,319,,51,44,160,39*4D
$GPRMC,222441.000,A,3758.6845,N,11952.6319,W,5.13,66.04,301013,,*24
$GPGGA,222442.000,3758.6852,N,11952.6303,W,2,09,1.0,1430.8,M,-23.2,M,0.8,0000*7B
$GPGSA,A,3,15,22,29,26,06,16,27,21,18,,,,1.9,1.0,1.6*39
$GPRMC,222442.000,A,3758.6852,N,11952.6303,W,5.15,66.14,301013,,*2D
$GPGGA,222443.000,3758.6858,N,11952.6286,W,2,09,1.0,1431.0,M,-23.2,M,0.8,0000*75
$GPGSA,A,3,15,22,29,26,06,16,27,21,18,,,,1.9,1.0,1.6*39
$GPRMC,222443.000,A,3758.6858,N,11952.6286,W,5.07,66.73,301013,,*28
$GPGGA,222444.000,3758.6864,N,11952.6270,W,2,09,1.0,1431.3,M,-23.2,M,0.8,0000*77
$GPGSA,A,3,15,22,29,26,06,16,27,21,18,,,,1.9,1.0,1.6*39
$GPRMC,222444.000,A,3758.6864,N,11952.6270,W,5.07,66.55,301013,,*2D
$GPGGA,222445.000,3758.6869,N,11952.6253,W,2,09,1.0,1431.4,M,-23.2,M,0.8,0000*7D
$GPGSA,A,3,15,22,29,26,06,16,27,21,18,,,,1.9,1.0,1.6*39
$GPRMC,222445.000,A,3758.6869,N,11952.6253,W,5.11,66.60,301013,,*21
$GPGGA,222446.000,3758.6875,N,11952.6237,W,2,09,1.0,1431.8,M,-23.2,M,0.8,0000*7D
$GPGSA,A,3,15,22,29,26,06,16,27,21,18,,,,1.9,1.0,1.6*39
$GPGSV,3,1,11,18,74,250,33,21,70,003,20,15,44,083,37,22,36,237,23*7A
$GPGSV,3,2,11,29,34,148,36,06,27,313,42,16,24,288,40,26,18,045,37*77
$GPGSV,3,3,11,27,17,316,41,03,07,319,25,51,44,160,39*4A
$GPRMC,222446.000,A,3758.6875,N,11952.6237,W,5.12,66.99,301013,,*28
$GPGGA,222447.000,3758.6882,N,11952.6220,W,2,09,1.0,1432.0,M,-23.2,M,1.8,0000*78
$GPGSA,A,3,15,22,29,26,06,16,27,21,18,,,,1.9,1.0,1.6*39
$GPRMC,222447.000,A,3758.6882,N,11952.6220,W,5.27,66.05,301013,,*24
$GPGGA,222448.000,3758.6888,N,11952.6203,W,2,09,1.0,1432.3,M,-23.2,M,2.8,0000*7C
$GPGSA,A,3,15,22,29,26,06,16,27,21,18,,,,1.9,1.0,1.6*39
$GPRMC,222448.000,A,3758.6888,N,11952.6203,W,5.25,66.48,301013,,*2B
$GPGGA,222449.000,3758.6894,N,11952.6186,W,2,09,1.0,1432.6,M,-23.2,M,3.8,0000*7A
$GPGSA,A,3,15,22,29,26,06,16,27,21,18,,,,1.9,1.0,1.6*39
$GPRMC,222449.000,A,3758.6894,N,11952.6186,W,5.26,66.61,301013,,*21
$GPGGA,222450.000,3758.6900,N,11952.6169,W,2,09,1.0,1432.8,M,-23.2,M,0.8,0000*72
$GPGSA,A,3,15,22,29,26,06,16,27,21,18,,,,1.9,1.0,1.6*39
$GPRMC,222450.000,A,3758.6900,N,11952.6169,W,5.20,67.64,301013,,*26
$GPGGA,222451.000,3758.6906,N,11952.6153,W,2,09,1.0,1433.0,M,-23.2,M,0.8,0000*75
$GPGSA,A,3,15,22,29,26,06,16,27,21,18,,,,1.9,1.0,1.6*39
$GPGSV,3,1,11,18,74,250,33,21,70,003,21,15,44,083,37,22,36,237,20*78
$GPGSV,3,2,11,29,34,148,36,06,27,313,42,16,24,288,40,26,18,045,37*77
$GPGSV,3,3,11,27,17,316,41,03,07,319,32,51,44,160,38*4D
$GPRMC,222451.000,A,3758.6906,N,11952.6153,W,5.10,68.32,301013,,*27
$GPGGA,222452.000,3758.6911,N,11952.6136,W,2,09,1.0,1433.2,M,-23.2,M,0.8,0000*71
$GPGSA,A,3,15,22,29,26,06,16,27,21,18,,,,1.9,1.0,1.6*39
$GPRMC,222452.000,A,3758.6911,N,11952.6136,W,5.16,66.90,301013,,*21
$GPGGA,222453.000,3758.6917,N,11952.6120,W,2,09,1.0,1433.4,M,-23.2,M,1.8,0000*76
$GPGSA,A,3,15,22,29,26,06,16,27,21,18,,,,1.9,1.0,1.6*39
$GPRMC,222453.000,A,3758.6917,N,11952.6120,W,5.06,65.91,301013,,*22
$GPGGA,222454.000,3758.6923,N,11952.6104,W,2,09,1.0,1433.5,M,-23.2,M,2.8,0000*72
$GPGSA,A,3,15,22,29,26,06,16,27,21,18,,,,1.9,1.0,1.6*39
$GPRMC,222454.000,A,3758.6923,N,11952.6104,W,5.05,64.66,301013,,*2E
$GPGGA,222455.000,3758.6929,N,11952.6087,W,2,09,1.0,1432.6,M,-23.2,M,3.8,0000*70
$GPGSA,A,3,15,22,29,26,06,16,27,21,18,,,,1.9,1.0,1.6*39
$GPRMC,222455.000,A,3758.6929,N,11952.6087,W,5.04,65.20,301013,,*2D
$GPGGA,222456.000,3758.6934,N,11952.6071,W,2,09,1.0,1431.9,M,-23.2,M,0.8,0000*79
$GPGSA,A,3,15,22,29,26,06,16,27,21,18,,,,1.9,1.0,1.6*39
$GPGSV,3,1,11,18,74,250,33,21,70,003,21,15,44,083,37,22,36,237,29*71
$GPGSV,3,2,11,29,34,148,28,06,27,313,42,16,24,288,40,26,18,045,37*78
$GPGSV,3,3,11,27,17,316,41,03,07,319,34,51,44,160,36*45
$GPRMC,222456.000,A,3758.6934,N,11952.6071,W,5.05,64.74,301013,,*2A
$GPGGA,222457.000,3758.6940,N,11952.6054,W,2,09,1.0,1431.3,M,-23.2,M,0.8,0000*76
$GPGSA,A,3,15,22,29,26,06,16,27,21,18,,,,1.9,1.0,1.6*39
$GPRMC,222457.000,A,3758.6940,N,11952.6054,W,5.15,63.82,301013,,*20
$GPGGA,222458.000,3758.6946,N,11952.6038,W,2,09,1.0,1430.7,M,-23.2,M,0.8,0000*70
$GPGSA,A,3,15,22,29,26,06,16,27,21,18,,,,1.9,1.0,1.6*39
$GPRMC,222458.000,A,3758.6946,N,11952.6038,W,5.13,64.82,301013,,*22
$GPGGA,222459.000,3758.6951,N,11952.6021,W,2,09,1.0,1430.2,M,-23.2,M,1.8,0000*7B
$GPGSA,A,3,15,22,29,26,06,16,27,21,18,,,,1.9,1.0,1.6*39
$GPRMC,222459.000,A,3758.6951,N,11952.6021,W,5.10,65.17,301013,,*23
$GPGGA,222500.000,3758.6957,N,11952.6004,W,2,09,1.0,1429.7,M,-23.2,M,0.8,0000*7B
$GPGSA,A,3,15,22,29,26,06,16,27,21,18,,,,1.9,1.0,1.6*39
$GPRMC,222500.000,A,3758.6957,N,11952.6004,W,5.08,64.26,301013,,*25
$GPGGA,222501.000,3758.6963,N,11952.5989,W,2,09,1.0,1429.6,M,-23.2,M,1.8,0000*72
$GPGSA,A,3,15,22,29,26,06,16,27,21,18,,,,1.9,1.0,1.6*39
$GPGSV,3,1,11,18,74,250,33,21,70,003,21,15,44,083,36,22,36,237,34*7C
$GPGSV,3,2,11,29,34,148,22,06,27,313,43,16,24,288,41,26,18,045,36*73
$GPGSV,3,3,11,27,17,316,41,03,07,319,39,51,44,160,36*48
$GPRMC,222501.000,A,3758.6963,N,11952.5989,W,5.11,63.07,301013,,*20
$GPGGA,222502.000,3758.6969,N,11952.5973,W,2,09,1.0,1429.5,M,-23.2,M,0.8,0000*7C
$GPGSA,A,3,15,22,29,26,06,16,27,21,18,,,,1.9,1.0,1.6*39
$GPRMC,222502.000,A,3758.6969,N,11952.5973,W,5.13,61.63,301013,,*2E
$GPGGA,222503.000,3758.6975,N,11952.5957,W,2,09,1.0,1429.6,M,-23.2,M,0.8,0000*75
$GPGSA,A,3,15,22,29,26,06,16,27,21,18,,,,1.9,1.0,1.6*39
$GPRMC,222503.000,A,3758.6975,N,11952.5957,W,5.06,62.09,301013,,*2F
$GPGGA,222504.000,3758.6981,N,11952.5941,W,2,09,1.0,1429.5,M,-23.2,M,0.8,0000*7D
$GPGSA,A,3,15,22,29,26,06,16,27,21,18,,,,1.9,1.0,1.6*39
$GPRMC,222504.000,A,3758.6981,N,11952.5941,W,5.06,61.90,301013,,*27
$GPGGA,222505.000,3758.6987,N,11952.5926,W,2,09,1.0,1429.5,M,-23.2,M,1.8,0000*7A
$GPGSA,A,3,15,22,29,26,06,16,27,21,18,,,,1.9,1.0,1.6*39
$GPRMC,222505.000,A,3758.6987,N,11952.5926,W,5.10,62.32,301013,,*2D
$GPGGA,222506.000,3758.6993,N,11952.5910,W,2,09,1.0,1429.6,M,-23.2,M,0.8,0000*7B
$GPGSA,A,3,15,22,29,26,06,16,27,21,18,,,,1.9,1.0,1.6*39
$GPGSV,3,1,11,18,74,250,34,21,70,003,23,15,44,083,36,22,36,237,34*79
$GPGSV,3,2,11,29,34,148,21,06,27,313,43,16,24,288,41,26,18,045,35*73
$GPGSV,3,3,11,27,17,316,41,03,07,319,41,51,44,160,36*47
$GPRMC,222506.000,A,3758.6993,N,11952.5910,W,5.11,61.80,301013,,*25
$GPGGA,222507.000,3758.6999,N,11952.5894,W,2,09,1.0,1429.5,M,-23.2,M,1.8,0000*7F
$GPGSA,A,3,15,22,29,26,06,16,27,21,18,,,,1.9,1.0,1.6*39
$GPRMC,222507.000,A,3758.6999,N,11952.5894,W,5.09,60.99,301013,,*23
$GPGGA,222508.000,3758.7005,N,11952.5879,W,2,09,1.0,1429.4,M,-23.2,M,0.8,0000*7E
$GPGSA,A,3,15,22,29,26,06,16,27,21,18,,,,1.9,1.0,1.6*39
$GPRMC,222508.000,A,3758.7005,N,11952.5879,W,5.04,61.90,301013,,*27
$GPGGA,222509.000,3758.7011,N,11952.5863,W,2,09,1.0,1428.7,M,-23.2,M,0.8,0000*73
$GPGSA,A,3,15,22,29,26,06,16,27,21,18,,,,1.9,1.0,1.6*39
$GPRMC,222509.000,A,3758.7011,N,11952.5863,W,5.14,62.21,301013,,*20
$GPGGA,222510.000,3758.7017,N,11952.5846,W,2,09,1.0,1428.0,M,-23.2,M,0.8,0000*7D
$GPGSA,A,3,15,22,29,26,06,16,27,21,18,,,,1.9,1.0,1.6*39
$GPRMC,222510.000,A,3758.7017,N,11952.5846,W,5.08,64.52,301013,,*26
$GPGGA,222511.000,3758.7022,N,11952.5829,W,2,09,1.0,1427.4,M,-23.2,M,1.8,0000*79
$GPGSA,A,3,15,22,29,26,06,16,27,21,18,,,,1.9,1.0,1.6*39
$GPGSV,3,1,11,18,74,250,34,21,70,003,22,15,44,083,35,22,36,237,27*79
$GPGSV,3,2,11,29,34,148,32,06,27,313,43,16,24,288,41,26,18,045,36*72
$GPGSV,3,3,11,27,17,316,41,03,07,319,41,51,44,160,37*46
$GPRMC,222511.000,A,3758.7022,N,11952.5829,W,5.16,65.39,301013,,*2B
$GPGGA,222512.000,3758.7028,N,11952.5812,W,2,09,1.0,1426.9,M,-23.2,M,0.8,0000*75
$GPGSA,A,3,15,22,29,26,06,16,27,21,18,,,,1.9,1.0,1.6*39
$GPRMC,222512.000,A,3758.7028,N,11952.5812,W,5.19,65.61,301013,,*28
$GPGGA,222513.000,3758.7033,N,11952.5795,W,2,09,1.0,1426.4,M,-23.2,M,1.8,0000*72
$GPGSA,A,3,15,22,29,26,06,16,27,21,18,,,,1.9,1.0,1.6*39
$GPRMC,222513.000,A,3758.7033,N,11952.5795,W,5.19,64.77,301013,,*25
$GPGGA,222514.000,3758.7039,N,11952.5779,W,2,09,1.0,1426.0,M,-23.2,M,0.8,0000*78
$GPGSA,A,3,15,22,29,26,06,16,27,21,18,,,,1.9,1.0,1.6*39
$GPRMC,222514.000,A,3758.7039,N,11952.5779,W,5.19,64.38,301013,,*21
$GPGGA,222515.000,3758.7044,N,11952.5762,W,2,09,1.0,1425.6,M,-23.2,M,0.8,0000*7C
$GPGSA,A,3,15,22,29,26,06,16,27,21,18,,,,1.9,1.0,1.6*39
$GPRMC,222515.000,A,3758.7044,N,11952.5762,W,5.15,64.62,301013,,*23
$GPGGA,222516.000,3758.7050,N,11952.5745,W,2,09,1.0,1425.0,M,-23.2,M,0.8,0000*79
$GPGSA,A,3,15,22,29,26,06,16,27,21,18,,,,1.9,1.0,1.6*39
$GPGSV,3,1,11,18,74,251,33,21,70,004,22,15,44,083,35,22,37,237,30*7F
$GPGSV,3,2,11,29,33,148,29,06,28,312,43,16,24,288,41,26,18,045,36*71
$GPGSV,3,3,11,27,17,316,41,03,07,319,40,51,44,160,35*45
$GPRMC,222516.000,A,3758.7050,N,11952.5745,W,5.13,64.02,301013,,*20
$GPGGA,222517.000,3758.7055,N,11952.5729,W,2,09,1.0,1424.4,M,-23.2,M,0.8,0000*72
$GPGSA,A,3,15,22,29,26,06,16,27,21,18,,,,1.9,1.0,1.6*39
$GPRMC,222517.000,A,3758.7055,N,11952.5729,W,5.19,63.52,301013,,*26
$GPGGA,222518.000,3758.7061,N,11952.5712,W,2,09,1.0,1423.8,M,-23.2,M,1.8,0000*78
$GPGSA,A,3,15,22,29,26,06,16,27,21,18,,,,1.9,1.0,1.6*39
$GPRMC,222518.000,A,3758.7061,N,11952.5712,W,5.18,64.12,301013,,*24
$GPGGA,222519.000,3758.7066,N,11952.5696,W,2,09,1.0,1423.2,M,-23.2,M,2.8,0000*7A
$GPGSA,A,3,15,22,29,26,06,16,27,21,18,,,,1.9,1.0,1.6*39
$GPRMC,222519.000,A,3758.7066,N,11952.5696,W,5.16,64.22,301013,,*22
$GPGGA,222520.000,3758.7072,N,11952.5679,W,2,09,1.0,1422.7,M,-23.2,M,0.8,0000*72
$GPGSA,A,3,15,22,29,26,06,16,27,21,18,,,,1.9,1.0,1.6*39
$GPRMC,222520.000,A,3758.7072,N,11952.5679,W,5.20,64.18,301013,,*20
$GPGGA,222521.000,3758.7078,N,11952.5663,W,2,09,1.0,1422.4,M,-23.2,M,0.8,0000*71
$GPGSA,A,3,15,22,29,26,06,16,27,21,18,,,,1.9,1.0,1.6*39
$GPGSV,3,1,11,18,74,251,33,21,70,004,23,15,44,083,36,22,37,237,31*7C
$GPGSV,3,2,11,29,33,148,29,06,28,312,43,16,24,288,41,26,18,045,36*71
$GPGSV,3,3,11,27,17,316,42,03,07,319,40,51,44,160,36*45
$GPRMC,222521.000,A,3758.7078,N,11952.5663,W,5.30,63.76,301013,,*2E
$GPGGA,222522.000,3758.7084,N,11952.5646,W,2,09,1.0,1421.9,M,-23.2,M,0.8,0000*78
$GPGSA,A,3,15,22,29,26,06,16,27,21,18,,,,1.9,1.0,1.6*39
$GPRMC,222522.000,A,3758.7084,N,11952.5646,W,5.26,63.75,301013,,*2D
$GPGGA,222523.000,3758.7090,N,11952.5629,W,2,09,1.0,1421.7,M,-23.2,M,1.8,0000*7A
$GPGSA,A,3,15,22,29,26,06,16,27,21,18,,,,1.9,1.0,1.6*39
$GPRMC,222523.000,A,3758.7090,N,11952.5629,W,5.28,64.17,301013,,*2D
$GPGGA,222524.000,3758.7096,N,11952.5613,W,2,09,1.0,1421.3,M,-23.2,M,2.8,0000*75
$GPGSA,A,3,15,22,29,26,06,16,27,21,18,,,,1.9,1.0,1.6*39
$GPRMC,222524.000,A,3758.7096,N,11952.5613,W,5.26,64.51,301013,,*29
$GPGGA,222525.000,3758.7102,N,11952.5596,W,2,09,1.0,1420.9,M,-23.2,M,3.8,0000*7C
$GPGSA,A,3,15,22,29,26,06,16,27,21,18,,,,1.9,1.0,1.6*39
$GPRMC,222525.000,A,3758.7102,N,11952.5596,W,5.27,64.52,301013,,*28
$GPGGA,222526.000,3758.7107,N,11952.5579,W,2,09,1.0,1420.6,M,-23.2,M,0.8,0000*77
$GPGSA,A,3,15,22,29,26,06,16,27,21,18,,,,1.9,1.0,1.6*39
$GPGSV,3,1,11,18,74,251,33,21,70,004,29,15,44,083,36,22,37,237,31*76
$GPGSV,3,2,11,29,33,148,31,06,28,312,43,16,24,288,41,26,18,045,37*79
$GPGSV,3,3,11,27,17,316,41,03,07,319,40,51,44,160,38*48
$GPRMC,222526.000,A,3758.7107,N,11952.5579,W,5.21,65.69,301013,,*20
$GPGGA,222527.000,3758.7121,N,11952.5564,W,2,09,1.0,1422.4,M,-23.2,M,0.8,0000*7E
$GPGSA,A,3,15,22,29,26,06,16,27,21,18,,,,1.9,1.0,1.6*39
$GPRMC,222527.000,A,3758.7121,N,11952.5564,W,5.18,65.32,301013,,*2D
$GPGGA,222528.000,3758.7133,N,11952.5548,W,2,09,1.0,1423.8,M,-23.2,M,0.8,0000*71
$GPGSA,A,3,15,22,29,26,06,16,27,21,18,,,,1.9,1.0,1.6*39
$GPRMC,222528.000,A,3758.7133,N,11952.5548,W,5.14,66.99,301013,,*21
$GPGGA,222529.000,3758.7143,N,11952.5532,W,2,09,1.0,1424.8,M,-23.2,M,1.8,0000*7C
$GPGSA,A,3,15,22,29,26,06,16,27,21,18,,,,1.9,1.0,1.6*39
$GPRMC,222529.000,A,3758.7143,N,11952.5532,W,5.15,67.57,301013,,*28
$GPGGA,222530.000,3758.7152,N,11952.5516,W,2,09,1.0,1425.8,M,-23.2,M,2.8,0000*70
$GPGSA,A,3,15,22,29,26,06,16,27,21,18,,,,1.9,1.0,1.6*39
$GPRMC,222530.000,A,3758.7152,N,11952.5516,W,5.20,68.13,301013,,*2F
$GPGGA,222531.000,3758.7161,N,11952.5499,W,2,09,1.0,1426.6,M,-23.2,M,0.8,0000*78
$GPGSA,A,3,15,22,29,26,06,16,27,21,18,,,,1.9,1.0,1.6*39
$GPGSV,3,1,11,18,74,251,33,21,70,004,27,15,44,083,37,22,37,237,30*78
$GPGSV,3,2,11,29,33,148,34,06,28,312,43,16,24,288,41,26,18,045,37*7C
$GPGSV,3,3,11,27,17,316,41,03,07,319,36,51,44,160,39*48
$GPRMC,222531.000,A,3758.7161,N,11952.5499,W,5.17,68.45,301013,,*2F
$GPGGA,222532.000,3758.7165,N,11952.5482,W,2,10,1.0,1426.6,M,-23.2,M,0.8,0000*7D
$GPGSA,A,3,15,22,29,26,06,16,27,21,18,03,,,1.8,1.0,1.5*38
$GPRMC,222532.000,A,3758.7165,N,11952.5482,W,5.06,71.42,301013,,*2D
$GPGGA,222533.000,3758.7170,N,11952.5465,W,2,10,1.0,1426.7,M,-23.2,M,0.8,0000*70
$GPGSA,A,3,15,22,29,26,06,16,27,21,18,03,,,1.8,1.0,1.5*38
$GPRMC,222533.000,A,3758.7170,N,11952.5465,W,5.28,68.70,301013,,*24
$GPGGA,222534.000,3758.7175,N,11952.5448,W,2,10,1.0,1426.7,M,-23.2,M,0.8,0000*7D
$GPGSA,A,3,15,22,29,26,06,16,27,21,18,03,,,1.8,1.0,1.5*38
$GPRMC,222534.000,A,3758.7175,N,11952.5448,W,5.29,68.18,301013,,*26
$GPGGA,222535.000,3758.7180,N,11952.5431,W,2,10,1.0,1426.8,M,-23.2,M,1.8,0000*76
$GPGSA,A,3,15,22,29,26,06,16,27,21,18,03,,,1.8,1.0,1.5*38
$GPRMC,222535.000,A,3758.7180,N,11952.5431,W,5.31,67.94,301013,,*21
$GPGGA,222536.000,3758.7185,N,11952.5414,W,2,10,1.0,1426.8,M,-23.2,M,2.8,0000*74
$GPGSA,A,3,15,22,29,26,06,16,27,21,18,03,,,1.7,1.0,1.5*37
$GPGSV,3,1,11,18,74,251,32,21,71,004,27,15,43,083,38,22,37,237,29*78
$GPGSV,3,2,11,29,33,148,34,06,28,312,42,16,24,288,41,26,18,044,38*73
$GPGSV,3,3,11,27,17,316,41,03,07,319,36,51,44,160,39*48
$GPRMC,222536.000,A,3758.7185,N,11952.5414,W,5.30,67.80,301013,,*24
$GPGGA,222537.000,3758.7190,N,11952.5397,W,2,10,1.0,1426.8,M,-23.2,M,0.8,0000*7F
$GPGSA,A,3,15,22,29,26,06,16,27,21,18,03,,,1.7,1.0,1.5*37
$GPRMC,222537.000,A,3758.7190,N,11952.5397,W,5.30,68.54,301013,,*2B
$GPGGA,222538.000,3758.7195,N,11952.5380,W,2,10,1.0,1426.8,M,-23.2,M,0.8,0000*73
$GPGSA,A,3,15,22,29,26,06,16,27,21,18,03,,,1.7,1.0,1.5*37
$GPRMC,222538.000,A,3758.7195,N,11952.5380,W,5.28,69.00,301013,,*2E
$GPGGA,222539.000,3758.7199,N,11952.5363,W,2,10,1.0,1426.8,M,-23.2,M,0.8,0000*73
$GPGSA,A,3,15,22,29,26,06,16,27,21,18,03,,,1.7,1.0,1.5*37
$GPRMC,222539.000,A,3758.7199,N,11952.5363,W,5.19,69.30,301013,,*2F
$GPGGA,222540.000,3758.7204,N,11952.5346,W,2,10,1.0,1426.7,M,-23.2,M,0.8,0000*72
$GPGSA,A,3,15,22,29,26,06,16,27,21,18,03,,,1.7,1.0,1.5*37
$GPRMC,222540.000,A,3758.7204,N,11952.5346,W,5.23,69.03,301013,,*28
$GPGGA,222541.000,3758.7208,N,11952.5329,W,2,10,1.0,1426.6,M,-23.2,M,1.8,0000*76
$GPGSA,A,3,15,22,29,26,06,16,27,21,18,03,,,1.7,1.0,1.5*37
$GPGSV,3,1,11,18,74,251,32,21,71,004,27,15,43,082,39,22,37,237,30*70
$GPGSV,3,2,11,29,33,148,34,06,28,312,42,16,24,288,40,26,18,044,38*72
$GPGSV,3,3,11,27,17,316,40,03,07,319,36,51,44,160,39*49
$GPRMC,222541.000,A,3758.7208,N,11952.5329,W,5.19,68.74,301013,,*24
$GPGGA,222542.000,3758.7213,N,11952.5312,W,2,10,1.0,1426.6,M,-23.2,M,2.8,0000*74
$GPGSA,A,3,15,22,29,26,06,16,27,21,18,03,,,1.7,1.0,1.5*37
$GPRMC,222542.000,A,3758.7213,N,11952.5312,W,5.21,67.82,301013,,*28
$GPGGA,222543.000,3758.7218,N,11952.5295,W,2,10,1.0,1426.6,M,-23.2,M,3.8,0000*71
$GPGSA,A,3,15,22,29,26,06,16,27,21,18,03,,,1.7,1.0,1.5*37
$GPRMC,222543.000,A,3758.7218,N,11952.5295,W,5.17,67.41,301013,,*26
$GPGGA,222544.000,3758.7223,N,11952.5279,W,2,10,1.0,1426.5,M,-23.2,M,0.8,0000*7C
$GPGSA,A,3,15,22,29,26,06,16,27,21,18,03,,,1.7,1.0,1.5*37
$GPRMC,222544.000,A,3758.7223,N,11952.5279,W,5.21,66.25,301013,,*2D
$GPGGA,222545.000,3758.7229,N,11952.5262,W,2,10,1.0,1426.5,M,-23.2,M,0.8,0000*7D
$GPGSA,A,3,15,22,29,26,06,16,27,21,18,03,,,1.7,1.0,1.5*37
$GPRMC,222545.000,A,3758.7229,N,11952.5262,W,5.34,66.15,301013,,*2B
$GPGGA,222546.000,3758.7234,N,11952.5245,W,2,10,1.0,1426.5,M,-23.2,M,0.8,0000*77
$GPGSA,A,3,15,22,29,26,06,16,27,21,18,03,,,1.7,1.0,1.5*37
$GPGSV,3,1,11,18,74,251,32,21,71,004,27,15,43,082,39,22,37,237,31*71
$GPGSV,3,2,11,29,33,148,34,06,28,312,42,16,24,288,40,26,18,044,38*72
$GPGSV,3,3,11,27,17,316,40,03,08,319,37,51,44,160,39*47
$GPRMC,222546.000,A,3758.7234,N,11952.5245,W,5.36,67.08,301013,,*2E
$GPGGA,222547.000,3758.7240,N,11952.5228,W,2,10,1.0,1426.5,M,-23.2,M,0.8,0000*7E
$GPGSA,A,3,15,22,29,26,06,16,27,21,18,03,,,1.7,1.0,1.5*37
$GPRMC,222547.000,A,3758.7240,N,11952.5228,W,5.37,67.41,301013,,*2B
$GPGGA,222548.000,3758.7245,N,11952.5210,W,2,10,1.0,1426.4,M,-23.2,M,0.8,0000*7E
$GPGSA,A,3,15,22,29,26,06,16,27,21,18,03,,,1.7,1.0,1.5*37
$GPRMC,222548.000,A,3758.7245,N,11952.5210,W,5.37,67.03,301013,,*2C
$GPGGA,222549.000,3758.7251,N,11952.5193,W,2,10,1.0,1426.4,M,-23.2,M,0.8,0000*72
$GPGSA,A,3,15,22,29,26,06,16,27,21,18,03,,,1.7,1.0,1.5*37
$GPRMC,222549.000,A,3758.7251,N,11952.5193,W,5.37,66.76,301013,,*23
$GPGGA,222550.000,3758.7256,N,11952.5176,W,2,10,1.0,1426.3,M,-23.2,M,0.8,0000*71
$GPGSA,A,3,15,22,29,26,06,16,27,21,18,03,,,1.7,1.0,1.5*37
$GPRMC,222550.000,A,3758.7256,N,11952.5176,W,5.38,67.06,301013,,*2E
$GPGGA,222551.000,3758.7261,N,11952.5159,W,2,10,1.0,1426.1,M,-23.2,M,0.8,0000*7B
$GPGSA,A,3,15,22,29,26,06,16,27,21,18,03,,,1.7,1.0,1.5*37
$GPGSV,3,1,11,18,74,251,32,21,71,004,28,15,43,082,39,22,37,237,31*7E
$GPGSV,3,2,11,29,33,148,34,06,28,312,42,16,24,288,40,26,18,044,38*72
$GPGSV,3,3,11,27,17,316,40,03,08,319,36,51,44,160,39*46
$GPRMC,222551.000,A,3758.7261,N,11952.5159,W,5.26,67.94,301013,,*22
$GPGGA,222552.000,3758.7272,N,11952.5142,W,2,10,1.0,1427.4,M,-23.2,M,0.8,0000*74
$GPGSA,A,3,15,22,29,26,06,16,27,21,18,03,,,1.7,1.0,1.5*37
$GPRMC,222552.000,A,3758.7272,N,11952.5142,W,5.25,68.47,301013,,*2B
$GPGGA,222553.000,3758.7282,N,11952.5126,W,2,10,1.0,1428.3,M,-23.2,M,1.8,0000*71
$GPGSA,A,3,15,22,29,26,06,16,27,21,18,03,,,1.7,1.0,1.5*37
$GPRMC,222553.000,A,3758.7282,N,11952.5126,W,5.13,70.82,301013,,*22
$GPGGA,222554.000,3758.7286,N,11952.5108,W,2,10,1.0,1427.8,M,-23.2,M,0.8,0000*7B
$GPGSA,A,3,15,22,29,26,06,16,27,21,18,03,,,1.7,1.0,1.5*37
$GPRMC,222554.000,A,3758.7286,N,11952.5108,W,5.09,73.28,301013,,*25
$GPGGA,222555.000,3758.7289,N,11952.5091,W,2,10,1.0,1427.4,M,-23.2,M,0.8,0000*78
$GPGSA,A,3,15,22,29,26,06,16,27,21,18,03,,,1.7,1.0,1.5*37
$GPRMC,222555.000,A,3758.7289,N,11952.5091,W,5.06,73.98,301013,,*2E
$GPGGA,222556.000,3758.7292,N,11952.5074,W,2,10,1.0,1427.1,M,-23.2,M,0.8,0000*7F
$GPGSA,A,3,15,22,29,26,06,16,27,21,18,03,,,1.7,1.0,1.5*37
$GPGSV,3,1,11,18,74,251,25,21,71,004,29,15,43,082,39,22,37,237,28*71
$GPGSV,3,2,11,29,33,148,26,06,28,312,42,16,24,288,39,26,18,044,25*73
$GPGSV,3,3,11,27,17,316,41,03,08,319,38,51,44,160,36*46
$GPRMC,222556.000,A,3758.7292,N,11952.5074,W,5.06,73.47,301013,,*2E
$GPGGA,222557.000,3758.7295,N,11952.5057,W,2,10,1.0,1426.6,M,-23.2,M,0.8,0000*7E
$GPGSA,A,3,15,22,29,26,06,16,27,21,18,03,,,1.7,1.0,1.5*37
$GPRMC,222557.000,A,3758.7295,N,11952.5057,W,5.16,73.95,301013,,*27
$GPGGA,222558.000,3758.7298,N,11952.5039,W,2,10,1.0,1426.2,M,-23.2,M,0.8,0000*70
$GPGSA,A,3,15,22,29,26,06,16,27,21,18,03,,,1.7,1.0,1.5*37
$GPRMC,222558.000,A,3758.7298,N,11952.5039,W,5.18,72.45,301013,,*2F
$GPGGA,222559.000,3758.7307,N,11952.5023,W,2,10,1.0,1427.3,M,-23.2,M,1.8,0000*7C
$GPGSA,A,3,15,22,29,26,06,16,27,21,18,03,,,1.7,1.0,1.5*37
$GPRMC,222559.000,A,3758.7307,N,11952.5023,W,5.20,71.68,301013,,*25
$GPGGA,222600.000,3758.7312,N,11952.5005,W,2,10,1.0,1427.2,M,-23.2,M,0.8,0000*73
$GPGSA,A,3,15,22,29,26,06,16,27,21,18,03,,,1.7,1.0,1.5*37
$GPRMC,222600.000,A,3758.7312,N,11952.5005,W,5.34,70.31,301013,,*22
$GPGGA,222601.000,3758.7318,N,11952.4988,W,2,10,1.0,1427.3,M,-23.2,M,1.8,0000*75
$GPGSA,A,3,15,22,29,26,06,16,27,21,18,03,,,1.7,1.0,1.5*37
$GPGSV,3,1,11,18,74,251,28,21,71,004,29,15,43,082,39,22,37,237,30*75
$GPGSV,3,2,11,29,33,148,35,06,28,312,42,16,24,288,39,26,18,044,34*71
$GPGSV,3,3,11,27,17,316,41,03,08,319,38,51,44,160,39*49
$GPRMC,222601.000,A,3758.7318,N,11952.4988,W,5.40,68.10,301013,,*2D
$GPGGA,222602.000,3758.7323,N,11952.4970,W,2,10,1.0,1427.3,M,-23.2,M,0.8,0000*78
$GPGSA,A,3,15,22,29,26,06,16,27,21,18,03,,,1.7,1.0,1.5*37
$GPRMC,222602.000,A,3758.7323,N,11952.4970,W,5.36,68.46,301013,,*23
$GPGGA,222603.000,3758.7327,N,11952.4953,W,2,10,1.0,1427.2,M,-23.2,M,0.8,0000*7D
$GPGSA,A,3,15,22,29,26,06,16,27,21,18,03,,,1.7,1.0,1.5*37
$GPRMC,222603.000,A,3758.7327,N,11952.4953,W,5.25,68.26,301013,,*23
$GPGGA,222604.000,3758.7336,N,11952.4937,W,2,10,1.0,1427.9,M,-23.2,M,0.8,0000*73
$GPGSA,A,3,15,22,29,26,06,16,27,21,18,03,,,1.7,1.0,1.5*37
$GPRMC,222604.000,A,3758.7336,N,11952.4937,W,5.25,68.06,301013,,*24
$GPGGA,222605.000,3758.7342,N,11952.4920,W,2,10,1.0,1428.1,M,-23.2,M,1.8,0000*71
$GPGSA,A,3,15,22,29,26,06,16,27,21,18,03,,,1.7,1.0,1.5*37
$GPRMC,222605.000,A,3758.7342,N,11952.4920,W,5.26,68.27,301013,,*20
$GPGGA,222606.000,3758.7349,N,11952.4903,W,2,10,1.0,1428.5,M,-23.2,M,2.8,0000*7F
$GPGSA,A,3,15,22,29,26,06,16,27,21,18,03,,,1.7,1.0,1.5*37
$GPGSV,3,1,11,18,74,251,32,21,71,004,29,15,43,082,39,22,37,237,32*7C
$GPGSV,3,2,11,29,33,148,35,06,28,312,42,16,24,288,39,26,18,044,36*73
$GPGSV,3,3,11,27,17,316,40,03,08,319,37,51,44,160,40*49
$GPRMC,222606.000,A,3758.7349,N,11952.4903,W,5.27,67.31,301013,,*20
$GPGGA,222607.000,3758.7357,N,11952.4886,W,2,10,1.0,1428.9,M,-23.2,M,3.8,0000*70
$GPGSA,A,3,15,22,29,26,06,16,27,21,18,03,,,1.7,1.0,1.5*37
$GPRMC,222607.000,A,3758.7357,N,11952.4886,W,5.31,66.15,301013,,*22
$GPGGA,222608.000,3758.7365,N,11952.4869,W,2,10,1.0,1429.3,M,-23.2,M,0.8,0000*77
$GPGSA,A,3,15,22,29,26,06,16,27,21,18,03,,,1.7,1.0,1.5*37
$GPRMC,222608.000,A,3758.7365,N,11952.4869,W,5.29,65.32,301013,,*22
$GPGGA,222609.000,3758.7373,N,11952.4853,W,2,10,1.0,1429.7,M,-23.2,M,0.8,0000*7C
$GPGSA,A,3,15,22,29,26,06,16,27,21,18,03,,,1.7,1.0,1.5*37
$GPRMC,222609.000,A,3758.7373,N,11952.4853,W,5.37,64.61,301013,,*25
$GPGGA,222610.000,3758.7379,N,11952.4836,W,2,10,1.0,1429.7,M,-23.2,M,0.8,0000*7D
$GPGSA,A,3,15,22,29,26,06,16,27,21,18,03,,,1.7,1.0,1.5*37
$GPRMC,222610.000,A,3758.7379,N,11952.4836,W,5.37,63.97,301013,,*2A
$GPGGA,222611.000,3758.7385,N,11952.4819,W,2,10,1.0,1429.7,M,-23.2,M,1.8,0000*73
$GPGSA,A,3,15,22,29,26,06,16,27,21,18,03,,,1.7,1.0,1.5*37
$GPGSV,3,1,11,18,74,251,34,21,71,004,28,15,43,082,39,22,37,237,31*78
$GPGSV,3,2,11,29,33,148,35,06,28,312,42,16,24,288,40,26,18,044,37*7C
$GPGSV,3,3,11,27,17,316,40,03,08,319,38,51,44,160,35*44
$GPRMC,222611.000,A,3758.7385,N,11952.4819,W,5.38,63.37,301013,,*20
$GPGGA,222612.000,3758.7392,N,11952.4803,W,2,10,1.0,1429.6,M,-23.2,M,2.8,0000*7F
$GPGSA,A,3,15,22,29,26,06,16,27,21,18,03,,,1.7,1.0,1.5*37
$GPRMC,222612.000,A,3758.7392,N,11952.4803,W,5.33,63.32,301013,,*20
$GPGGA,222613.000,3758.7398,N,11952.4786,W,2,10,1.0,1429.6,M,-23.2,M,3.8,0000*77
$GPGSA,A,3,15,22,29,26,06,16,27,21,18,03,,,1.7,1.0,1.5*37
$GPRMC,222613.000,A,3758.7398,N,11952.4786,W,5.36,63.55,301013,,*2D
$GPGGA,222614.000,3758.7404,N,11952.4769,W,2,10,1.0,1429.5,M,-23.2,M,0.8,0000*73
$GPGSA,A,3,15,22,29,26,06,16,27,21,18,03,,,1.7,1.0,1.5*37
$GPRMC,222614.000,A,3758.7404,N,11952.4769,W,5.34,65.64,301013,,*2F
$GPGGA,222615.000,3758.7412,N,11952.4753,W,2,10,1.0,1429.9,M,-23.2,M,0.8,0000*70
$GPGSA,A,3,15,22,29,26,06,16,27,21,18,03,,,1.7,1.0,1.5*37
$GPRMC,222615.000,A,3758.7412,N,11952.4753,W,5.34,66.13,301013,,*23
$GPGGA,222616.000,3758.7419,N,11952.4736,W,2,10,1.0,1430.2,M,-23.2,M,0.8,0000*78
$GPGSA,A,3,15,22,29,26,06,16,27,21,18,03,,,1.7,1.0,1.5*37
$GPGSV,3,1,11,18,75,252,34,21,71,005,28,15,43,082,39,22,37,238,29*7D
$GPGSV,3,2,11,29,33,148,35,06,28,312,41,16,24,287,39,27,18,316,39*75
$GPGSV,3,3,11,26,18,044,38,03,08,319,33,51,44,160,40*48
$GPRMC,222616.000,A,3758.7419,N,11952.4736,W,5.32,66.74,301013,,*2F
$GPGGA,222617.000,3758.7426,N,11952.4719,W,2,10,1.0,1430.5,M,-23.2,M,1.8,0000*7E
$GPGSA,A,3,15,22,29,26,06,16,27,21,18,03,,,1.7,1.0,1.5*37
$GPRMC,222617.000,A,3758.7426,N,11952.4719,W,5.27,67.03,301013,,*2A
$GPGGA,222618.000,3758.7433,N,11952.4702,W,2,10,1.0,1430.8,M,-23.2,M,2.8,0000*71
$GPGSA,A,3,15,22,29,26,06,16,27,21,18,03,,,1.7,1.0,1.5*37
$GPRMC,222618.000,A,3758.7433,N,11952.4702,W,5.34,67.24,301013,,*2C
$GPGGA,222619.000,3758.7440,N,11952.4685,W,2,10,1.0,1431.1,M,-23.2,M,3.8,0000*73
$GPGSA,A,3,15,22,29,26,06,16,27,21,18,03,,,1.7,1.0,1.5*37
$GPRMC,222619.000,A,3758.7440,N,11952.4685,W,5.31,68.09,301013,,*22
$GPGGA,222620.000,3758.7447,N,11952.4668,W,2,10,1.0,1431.3,M,-23.2,M,0.8,0000*7C
$GPGSA,A,3,15,22,29,26,06,16,27,21,18,03,,,1.7,1.0,1.5*37
$GPRMC,222620.000,A,3758.7447,N,11952.4668,W,5.31,68.15,301013,,*21
$GPGGA,222621.000,3758.7453,N,11952.4650,W,2,10,1.0,1431.5,M,-23.2,M,0.8,0000*75
$GPGSA,A,3,15,22,29,26,06,16,27,21,18,03,,,1.7,1.0,1.5*37
$GPGSV,3,1,11,18,75,252,33,21,71,005,29,15,43,082,39,22,37,238,30*73
$GPGSV,3,2,11,29,33,148,36,06,28,312,41,16,24,287,39,27,18,316,39*76
$GPGSV,3,3,11,26,18,044,32,03,08,319,35,51,44,160,40*44
$GPRMC,222621.000,A,3758.7453,N,11952.4650,W,5.39,68.46,301013,,*20
$GPGGA,222622.000,3758.7458,N,11952.4633,W,2,10,1.0,1431.4,M,-23.2,M,0.8,0000*79
$GPGSA,A,3,15,22,29,26,06,16,27,21,18,03,,,1.7,1.0,1.5*37
$GPRMC,222622.000,A,3758.7458,N,11952.4633,W,5.28,69.61,301013,,*29
$GPGGA,222623.000,3758.7463,N,11952.4616,W,2,09,1.1,1431.4,M,-23.2,M,1.8,0000*7F
$GPGSA,A,3,15,22,29,26,06,16,27,18,03,,,,2.2,1.1,1.9*3F
$GPRMC,222623.000,A,3758.7463,N,11952.4616,W,5.31,70.21,301013,,*23
$GPGGA,222624.000,3758.7468,N,11952.4598,W,2,10,1.0,1431.5,M,-23.2,M,2.8,0000*7D
$GPGSA,A,3,15,22,29,26,06,16,27,21,18,03,,,1.7,1.0,1.5*37
$GPRMC,222624.000,A,3758.7468,N,11952.4598,W,5.39,70.76,301013,,*20
$GPGGA,222625.000,3758.7471,N,11952.4580,W,2,10,1.0,1430.6,M,-23.2,M,3.8,0000*7E
$GPGSA,A,3,15,22,29,26,06,16,27,21,18,03,,,1.7,1.0,1.5*37
$GPRMC,222625.000,A,3758.7471,N,11952.4580,W,5.36,72.04,301013,,*28
$GPGGA,222626.000,3758.7474,N,11952.4562,W,2,10,1.0,1429.9,M,-23.2,M,0.8,0000*70
$GPGSA,A,3,15,22,29,26,06,16,27,21,18,03,,,1.7,1.0,1.5*37
$GPGSV,3,1,11,18,75,252,27,21,71,005,32,15,43,082,39,22,37,238,30*7C
$GPGSV,3,2,11,29,33,148,27,06,28,312,41,16,24,287,39,27,18,316,40*78
$GPGSV,3,3,11,26,18,044,30,03,08,319,37,51,44,160,36*45
$GPRMC,222626.000,A,3758.7474,N,11952.4562,W,5.33,73.94,301013,,*2F
$GPGGA,222627.000,3758.7478,N,11952.4544,W,2,10,1.0,1429.3,M,-23.2,M,0.8,0000*73
$GPGSA,A,3,15,22,29,26,06,16,27,21,18,03,,,1.7,1.0,1.5*37
$GPRMC,222627.000,A,3758.7478,N,11952.4544,W,5.27,73.46,301013,,*2C
$GPGGA,222628.000,3758.7486,N,11952.4527,W,2,10,1.0,1430.1,M,-23.2,M,0.8,0000*72
$GPGSA,A,3,15,22,29,26,06,16,27,21,18,03,,,1.7,1.0,1.5*37
$GPRMC,222628.000,A,3758.7486,N,11952.4527,W,5.28,71.54,301013,,*29
$GPGGA,222629.000,3758.7493,N,11952.4510,W,2,10,1.0,1430.7,M,-23.2,M,1.8,0000*74
$GPGSA,A,3,15,22,29,26,06,16,27,21,18,03,,,1.7,1.0,1.5*37
$GPRMC,222629.000,A,3758.7493,N,11952.4510,W,5.23,70.49,301013,,*2E
$GPGGA,222630.000,3758.7500,N,11952.4493,W,2,10,1.0,1431.1,M,-23.2,M,2.8,0000*79
$GPGSA,A,3,15,22,29,26,06,16,27,21,18,03,,,1.7,1.0,1.5*37
$GPRMC,222630.000,A,3758.7500,N,11952.4493,W,5.42,69.02,301013,,*27
$GPGGA,222631.000,3758.7505,N,11952.4475,W,2,10,1.0,1430.9,M,-23.2,M,0.8,0000*7E
$GPGSA,A,3,15,22,29,26,06,16,27,21,18,03,,,1.7,1.0,1.5*37
$GPGSV,3,1,11,18,75,252,28,21,71,005,31,15,43,082,39,22,37,238,26*77
$GPGSV,3,2,11,29,33,148,31,06,28,312,41,16,24,287,38,27,18,316,41*7F
$GPGSV,3,3,11,26,18,044,24,03,08,319,37,51,44,160,36*40
$GPRMC,222631.000,A,3758.7505,N,11952.4475,W,5.27,70.25,301013,,*25
$GPGGA,222632.000,3758.7508,N,11952.4458,W,2,10,1.0,1430.3,M,-23.2,M,0.8,0000*75
$GPGSA,A,3,15,22,29,26,06,16,27,21,18,03,,,1.7,1.0,1.5*37
$GPRMC,222632.000,A,3758.7508,N,11952.4458,W,5.38,70.46,301013,,*2F
$GPGGA,222633.000,3758.7513,N,11952.4440,W,2,10,1.0,1430.4,M,-23.2,M,0.8,0000*70
$GPGSA,A,3,15,22,29,26,06,16,27,21,18,03,,,1.7,1.0,1.5*37
$GPRMC,222633.000,A,3758.7513,N,11952.4440,W,5.14,73.29,301013,,*29
$GPGGA,222634.000,3758.7521,N,11952.4423,W,2,10,1.0,1431.2,M,-23.2,M,0.8,0000*74
$GPGSA,A,3,15,22,29,26,06,16,27,21,18,03,,,1.7,1.0,1.5*37
$GPRMC,222634.000,A,3758.7521,N,11952.4423,W,5.23,71.09,301013,,*2E
$GPGGA,222635.000,3758.7526,N,11952.4406,W,2,10,1.0,1431.1,M,-23.2,M,0.8,0000*76
$GPGSA,A,3,15,22,29,26,06,16,27,21,18,03,,,1.7,1.0,1.5*37
$GPRMC,222635.000,A,3758.7526,N,11952.4406,W,5.35,69.78,301013,,*27
$GPGGA,222636.000,3758.7532,N,11952.4388,W,2,10,1.0,1431.3,M,-23.2,M,0.8,0000*73
$GPGSA,A,3,15,22,29,26,06,16,27,21,18,03,,,1.7,1.0,1.5*37
$GPGSV,3,1,11,18,75,252,28,21,71,005,30,15,43,082,39,22,37,238,27*77
$GPGSV,3,2,11,29,33,148,34,06,28,312,40,16,24,287,37,27,18,316,40*75
$GPGSV,3,3,11,26,18,044,26,03,08,319,37,51,44,160,38*4C
$GPRMC,222636.000,A,3758.7532,N,11952.4388,W,5.37,70.03,301013,,*26
$GPGGA,222637.000,3758.7539,N,11952.4370,W,2,10,1.0,1431.7,M,-23.2,M,1.8,0000*7B
$GPGSA,A,3,15,22,29,26,06,16,27,21,18,03,,,1.7,1.0,1.5*37
$GPRMC,222637.000,A,3758.7539,N,11952.4370,W,5.40,69.14,301013,,*25
$GPGGA,222638.000,3758.7545,N,11952.4353,W,2,10,1.0,1431.7,M,-23.2,M,0.8,0000*7F
$GPGSA,A,3,15,22,29,26,06,16,27,21,18,03,,,1.7,1.0,1.5*37
$GPRMC,222638.000,A,3758.7545,N,11952.4353,W,5.35,68.76,301013,,*27
$GPGGA,222639.000,3758.7551,N,11952.4336,W,2,10,1.0,1431.8,M,-23.2,M,0.8,0000*77
$GPGSA,A,3,15,22,29,26,06,16,27,21,18,03,,,1.7,1.0,1.5*37
$GPRMC,222639.000,A,3758.7551,N,11952.4336,W,5.32,68.47,301013,,*25
$GPGGA,222640.000,3758.7557,N,11952.4319,W,2,10,1.0,1432.0,M,-23.2,M,0.8,0000*79
$GPGSA,A,3,15,22,29,26,06,16,27,21,18,03,,,1.7,1.0,1.5*37
$GPRMC,222640.000,A,3758.7557,N,11952.4319,W,5.27,67.77,301013,,*28
$GPGGA,222641.000,3758.7563,N,11952.4303,W,2,10,1.0,1432.1,M,-23.2,M,1.8,0000*74
$GPGSA,A,3,15,22,29,26,06,16,27,21,18,03,,,1.7,1.0,1.5*37
$GPGSV,3,1,11,18,75,252,28,21,71,006,29,15,43,082,39,22,37,238,33*79
$GPGSV,3,2,11,29,33,148,35,06,28,312,40,16,24,287,37,27,18,316,39*7A
$GPGSV,3,3,11,26,17,044,34,03,08,319,36,51,44,160,39*40
$GPRMC,222641.000,A,3758.7563,N,11952.4303,W,5.25,66.77,301013,,*26
$GPGGA,222642.000,3758.7569,N,11952.4286,W,2,10,1.0,1432.3,M,-23.2,M,0.8,0000*72
$GPGSA,A,3,15,22,29,26,06,16,27,21,18,03,,,1.7,1.0,1.5*37
$GPRMC,222642.000,A,3758.7569,N,11952.4286,W,5.28,66.01,301013,,*2F
$GPGGA,222643.000,3758.7576,N,11952.4269,W,2,10,1.0,1432.4,M,-23.2,M,1.8,0000*7A
$GPGSA,A,3,15,22,29,26,06,16,27,21,18,03,,,1.7,1.0,1.5*37
$GPRMC,222643.000,A,3758.7576,N,11952.4269,W,5.37,65.24,301013,,*2B
$GPGGA,222644.000,3758.7582,N,11952.4252,W,2,10,1.0,1432.3,M,-23.2,M,0.8,0000*78
$GPGSA,A,3,15,22,29,26,06,16,27,21,18,03,,,1.7,1.0,1.5*37
$GPRMC,222644.000,A,3758.7582,N,11952.4252,W,5.40,64.91,301013,,*20
$GPGGA,222645.000,3758.7588,N,11952.4235,W,2,10,1.0,1432.4,M,-23.2,M,0.8,0000*75
$GPGSA,A,3,15,22,29,26,06,16,27,21,18,03,,,1.7,1.0,1.5*37
$GPRMC,222645.000,A,3758.7588,N,11952.4235,W,5.42,65.08,301013,,*29
$GPGGA,222646.000,3758.7595,N,11952.4218,W,2,10,1.0,1432.3,M,-23.2,M,0.8,0000*72
$GPGSA,A,3,15,22,29,26,06,16,27,21,18,03,,,1.7,1.0,1.5*37
$GPGSV,3,1,11,18,75,252,33,21,71,006,29,15,43,082,40,22,37,238,31*7F
$GPGSV,3,2,11,29,33,148,37,06,28,312,40,16,24,287,38,27,18,316,39*77
$GPGSV,3,3,11,26,17,044,37,03,08,319,36,51,44,160,40*4D
$GPRMC,222646.000,A,3758.7595,N,11952.4218,W,5.35,66.21,301013,,*21
$GPGGA,222647.000,3758.7601,N,11952.4201,W,2,10,1.0,1432.3,M,-23.2,M,1.8,0000*74
$GPGSA,A,3,15,22,29,26,06,16,27,21,18,03,,,1.7,1.0,1.5*37
$GPRMC,222647.000,A,3758.7601,N,11952.4201,W,5.35,66.73,301013,,*21
$GPGGA,222648.000,3758.7606,N,11952.4185,W,2,10,1.0,1432.2,M,-23.2,M,0.8,0000*73
$GPGSA,A,3,15,22,29,26,06,16,27,21,18,03,,,1.7,1.0,1.5*37
$GPRMC,222648.000,A,3758.7606,N,11952.4185,W,5.35,67.16,301013,,*24
$GPGGA,222649.000,3758.7612,N,11952.4168,W,2,10,1.0,1432.0,M,-23.2,M,1.8,0000*77
$GPGSA,A,3,15,22,29,26,06,16,27,21,18,03,,,1.7,1.0,1.5*37
$GPRMC,222649.000,A,3758.7612,N,11952.4168,W,5.38,67.95,301013,,*25
$GPGGA,222650.000,3758.7618,N,11952.4151,W,2,10,1.0,1432.0,M,-23.2,M,0.8,0000*7E
$GPGSA,A,3,15,22,29,26,06,16,27,21,18,03,,,1.7,1.0,1.5*37
$GPRMC,222650.000,A,3758.7618,N,11952.4151,W,5.38,67.64,301013,,*23
$GPGGA,222651.000,3758.7623,N,11952.4134,W,2,10,1.0,1431.9,M,-23.2,M,0.8,0000*7E
$GPGSA,A,3,15,22,29,26,06,16,27,21,18,03,,,1.7,1.0,1.5*37
$GPGSV,3,1,11,18,75,252,32,21,71,006,29,15,43,082,40,22,37,238,32*7D
$GPGSV,3,2,11,29,33,148,37,06,28,312,40,16,24,287,38,27,18,316,39*77
$GPGSV,3,3,11,26,17,044,37,03,08,319,35,51,44,160,41*4F
$GPRMC,222651.000,A,3758.7623,N,11952.4134,W,5.34,67.94,301013,,*2A
$GPGGA,222652.000,3758.7629,N,11952.4117,W,2,10,1.0,1431.9,M,-23.2,M,0.8,0000*76
$GPGSA,A,3,15,22,29,26,06,16,27,21,18,03,,,1.7,1.0,1.5*37
$GPRMC,222652.000,A,3758.7629,N,11952.4117,W,5.32,67.60,301013,,*2F
$GPGGA,222653.000,3758.7635,N,11952.4100,W,2,10,1.0,1431.9,M,-23.2,M,1.8,0000*7D
