$GPGGA,220532.000,3759.0218,N,11954.4367,W,1,11,1.1,1424.5,M,-23.2,M,,0000*5F
$GPGSA,A,3,07,23,08,13,27,19,03,10,16,20,09,,1.9,1.1,1.6*32
$GPGSV,3,1,12,13,76,011,36,23,57,111,39,07,52,286,42,10,39,290,45*7D
$GPGSV,3,2,12,16,37,047,40,03,29,111,28,08,27,264,25,27,22,090,32*7B
$GPGSV,3,3,12,09,15,266,37,19,14,126,19,20,12,176,27,28,03,209,28*7D
$GPRMC,220532.000,A,3759.0218,N,11954.4367,W,0.66,37.04,010414,,*28
$GPGGA,220533.000,3759.0219,N,11954.4366,W,1,11,1.1,1424.5,M,-23.2,M,,0000*5E
$GPGSA,A,3,07,23,08,13,27,19,03,10,16,20,09,,1.9,1.1,1.6*32
$GPRMC,220533.000,A,3759.0219,N,11954.4366,W,0.64,36.43,010414,,*29
$GPGGA,220534.000,3759.0220,N,11954.4365,W,1,11,1.1,1424.6,M,-23.2,M,,0000*53
$GPGSA,A,3,07,23,08,13,27,19,03,10,16,20,09,,1.9,1.1,1.6*32
$GPRMC,220534.000,A,3759.0220,N,11954.4365,W,0.68,35.19,010414,,*27
$GPGGA,220535.000,3759.0221,N,11954.4364,W,1,11,1.1,1424.6,M,-23.2,M,,0000*52
$GPGSA,A,3,07,23,08,13,27,19,03,10,16,20,09,,1.9,1.1,1.6*32
$GPRMC,220535.000,A,3759.0221,N,11954.4364,W,0.58,40.21,010414,,*2C
$GPGGA,220536.000,3759.0222,N,11954.4363,W,1,11,1.1,1424.6,M,-23.2,M,,0000*55
$GPGSA,A,3,07,23,08,13,27,19,03,10,16,20,09,,1.9,1.1,1.6*32
$GPRMC,220536.000,A,3759.0222,N,11954.4363,W,0.52,50.37,010414,,*27
$GPGGA,220537.000,3759.0223,N,11954.4362,W,1,11,1.1,1424.6,M,-23.2,M,,0000*54
$GPGSA,A,3,07,23,08,13,27,19,03,10,16,20,09,,1.9,1.1,1.6*32
$GPGSV,3,1,12,13,76,011,36,23,57,111,39,07,52,286,42,10,39,290,45*7D
$GPGSV,3,2,12,16,37,047,40,03,29,111,33,08,27,264,26,27,22,090,25*74
$GPGSV,3,3,12,09,15,266,37,19,14,126,18,20,12,176,27,28,03,209,27*73
$GPRMC,220537.000,A,3759.0223,N,11954.4362,W,0.61,38.33,010414,,*2C
$GPGGA,220538.000,3759.0224,N,11954.4361,W,1,11,1.1,1424.7,M,-23.2,M,,0000*5E
$GPGSA,A,3,07,23,08,13,27,19,03,10,16,20,09,,1.9,1.1,1.6*32
$GPRMC,220538.000,A,3759.0224,N,11954.4361,W,0.63,32.93,010414,,*25
$GPGGA,220539.000,3759.0225,N,11954.4360,W,1,10,1.2,1424.6,M,-23.2,M,,0000*5C
$GPGSA,A,3,07,23,08,13,19,03,10,16,20,09,,,2.1,1.2,1.7*3E
$GPRMC,220539.000,A,3759.0225,N,11954.4360,W,0.55,44.10,010414,,*2B
$GPGGA,220540.000,3759.0226,N,11954.4359,W,1,10,1.2,1424.5,M,-23.2,M,,0000*58
$GPGSA,A,3,07,23,08,13,19,03,10,16,20,09,,,2.1,1.2,1.7*3E
$GPRMC,220540.000,A,3759.0226,N,11954.4359,W,0.56,41.68,010414,,*25
$GPGGA,220541.000,3759.0227,N,11954.4358,W,1,10,1.2,1424.5,M,-23.2,M,,0000*59
$GPGSA,A,3,07,23,08,13,19,03,10,16,20,09,,,2.1,1.2,1.7*3E
$GPRMC,220541.000,A,3759.0227,N,11954.4358,W,0.56,42.39,010414,,*23
$GPGGA,220542.000,3759.0228,N,11954.4356,W,1,10,1.2,1424.4,M,-23.2,M,,0000*5A
$GPGSA,A,3,07,23,08,13,19,03,10,16,20,09,,,2.1,1.2,1.7*3E
$GPGSV,3,1,12,13,76,011,36,23,57,111,39,07,52,286,43,10,39,290,45*7C
$GPGSV,3,2,12,16,37,047,40,03,29,111,33,08,27,264,27,27,22,090,*72
$GPGSV,3,3,12,09,15,266,34,19,14,126,28,20,12,176,27,28,03,209,19*7E
$GPRMC,220542.000,A,3759.0228,N,11954.4356,W,0.57,43.17,010414,,*2D
$GPGGA,220543.000,3759.0229,N,11954.4355,W,1,10,1.2,1424.4,M,-23.2,M,,0000*59
$GPGSA,A,3,07,23,08,13,19,03,10,16,20,09,,,2.1,1.2,1.7*3E
$GPRMC,220543.000,A,3759.0229,N,11954.4355,W,0.57,39.69,010414,,*2A
$GPGGA,220544.000,3759.0230,N,11954.4354,W,1,09,1.4,1424.3,M,-23.2,M,,0000*5E
$GPGSA,A,3,07,23,08,13,19,03,10,16,09,,,,2.2,1.4,1.7*39
$GPRMC,220544.000,A,3759.0230,N,11954.4354,W,0.55,40.91,010414,,*2F
$GPGGA,220545.000,3759.0231,N,11954.4353,W,1,09,1.4,1424.3,M,-23.2,M,,0000*59
$GPGSA,A,3,07,23,08,13,19,03,10,16,09,,,,2.2,1.4,1.7*39
$GPRMC,220545.000,A,3759.0231,N,11954.4353,W,0.56,38.97,010414,,*22
$GPGGA,220546.000,3759.0232,N,11954.4352,W,1,09,1.4,1424.2,M,-23.2,M,,0000*59
$GPGSA,A,3,07,23,08,13,19,03,10,16,09,,,,2.2,1.4,1.7*39
$GPRMC,220546.000,A,3759.0232,N,11954.4352,W,0.56,39.04,010414,,*28
$GPGGA,220547.000,3759.0233,N,11954.4351,W,1,10,1.3,1424.1,M,-23.2,M,,0000*56
$GPGSA,A,3,07,23,08,13,27,19,03,10,16,09,,,2.1,1.3,1.6*39
$GPGSV,3,1,12,13,76,011,37,23,57,111,40,07,52,286,44,10,39,290,45*74
$GPGSV,3,2,12,16,37,047,41,03,29,111,33,08,27,264,28,27,22,090,28*76
$GPGSV,3,3,12,09,15,266,27,19,14,126,31,20,12,176,,28,03,209,*79
$GPRMC,220547.000,A,3759.0233,N,11954.4351,W,0.55,40.23,010414,,*23
$GPGGA,220548.000,3759.0234,N,11954.4350,W,1,10,1.3,1424.1,M,-23.2,M,,0000*5F
$GPGSA,A,3,07,23,08,13,27,19,03,10,16,09,,,2.1,1.3,1.6*39
$GPRMC,220548.000,A,3759.0234,N,11954.4350,W,0.59,31.27,010414,,*24
$GPGGA,220549.000,3759.0235,N,11954.4349,W,1,10,1.3,1424.0,M,-23.2,M,,0000*56
$GPGSA,A,3,07,23,08,13,27,19,03,10,16,09,,,2.1,1.3,1.6*39
$GPRMC,220549.000,A,3759.0235,N,11954.4349,W,0.58,37.57,010414,,*2C
$GPGGA,220550.000,3759.0236,N,11954.4348,W,1,10,1.3,1423.9,M,-23.2,M,,0000*52
$GPGSA,A,3,07,23,08,13,27,19,03,10,16,09,,,2.1,1.3,1.6*39
$GPRMC,220550.000,A,3759.0236,N,11954.4348,W,0.59,36.63,010414,,*21
$GPGGA,220551.000,3759.0237,N,11954.4347,W,1,10,1.3,1424.0,M,-23.2,M,,0000*53
$GPGSA,A,3,07,23,08,13,27,19,03,10,16,09,,,2.1,1.3,1.6*39
$GPRMC,220551.000,A,3759.0237,N,11954.4347,W,0.57,38.58,010414,,*26
$GPGGA,220552.000,3759.0238,N,11954.4346,W,1,10,1.3,1424.0,M,-23.2,M,,0000*5E
$GPGSA,A,3,07,23,08,13,27,19,03,10,16,09,,,2.1,1.3,1.6*39
$GPGSV,3,1,12,13,76,011,37,23,57,111,40,07,52,286,44,10,39,290,44*75
$GPGSV,3,2,12,16,37,047,41,03,29,111,33,08,27,264,35,27,22,090,32*71
$GPGSV,3,3,12,09,15,266,27,19,14,126,33,20,12,176,,28,03,209,21*78
$GPRMC,220552.000,A,3759.0238,N,11954.4346,W,0.59,37.62,010414,,*23
$GPGGA,220553.000,3759.0239,N,11954.4345,W,1,09,1.4,1424.0,M,-23.2,M,,0000*52
$GPGSA,A,3,07,23,08,13,27,19,03,10,16,,,,2.3,1.4,1.8*3B
$GPRMC,220553.000,A,3759.0239,N,11954.4345,W,0.58,38.38,010414,,*21
$GPGGA,220554.000,3759.0240,N,11954.4344,W,1,10,1.3,1424.1,M,-23.2,M,,0000*54
$GPGSA,A,3,07,23,08,13,27,19,03,10,16,09,,,2.1,1.3,1.6*39
$GPRMC,220554.000,A,3759.0240,N,11954.4344,W,0.64,37.29,010414,,*29
$GPGGA,220555.000,3759.0241,N,11954.4343,W,1,10,1.3,1424.1,M,-23.2,M,,0000*53
$GPGSA,A,3,07,23,08,13,27,19,03,10,16,09,,,2.1,1.3,1.6*39
$GPRMC,220555.000,A,3759.0241,N,11954.4343,W,0.59,37.01,010414,,*2A
$GPGGA,220556.000,3759.0243,N,11954.4341,W,1,09,1.4,1424.1,M,-23.2,M,,0000*5F
$GPGSA,A,3,07,23,08,13,19,03,10,16,09,,,,2.2,1.4,1.7*39
$GPRMC,220556.000,A,3759.0243,N,11954.4341,W,0.59,37.90,010414,,*21
$GPGGA,220557.000,3759.0244,N,11954.4340,W,1,09,1.4,1424.1,M,-23.2,M,,0000*58
$GPGSA,A,3,07,23,08,13,19,03,10,16,09,,,,2.2,1.4,1.7*39
$GPGSV,3,1,12,13,76,011,37,23,57,111,40,07,52,286,43,10,39,290,45*73
$GPGSV,3,2,12,16,37,047,41,03,29,111,33,08,27,264,36,27,22,090,*73
$GPGSV,3,3,12,09,15,266,31,19,14,126,30,20,12,176,,28,03,209,14*7A
$GPRMC,220557.000,A,3759.0244,N,11954.4340,W,0.58,39.04,010414,,*24
$GPGGA,220558.000,3759.0245,N,11954.4339,W,1,09,1.4,1424.1,M,-23.2,M,,0000*58
$GPGSA,A,3,07,23,08,13,19,03,10,16,09,,,,2.2,1.4,1.7*39
$GPRMC,220558.000,A,3759.0245,N,11954.4339,W,0.60,37.56,010414,,*26
$GPGGA,220559.000,3759.0246,N,11954.4338,W,1,09,1.4,1424.1,M,-23.2,M,,0000*5B
$GPGSA,A,3,07,23,08,13,19,03,10,16,09,,,,2.2,1.4,1.7*39
$GPRMC,220559.000,A,3759.0246,N,11954.4338,W,0.60,39.79,010414,,*26
$GPGGA,220600.000,3759.0247,N,11954.4337,W,1,09,1.4,1424.0,M,-23.2,M,,0000*5B
$GPGSA,A,3,07,23,08,13,19,03,10,16,09,,,,2.2,1.4,1.7*39
$GPRMC,220600.000,A,3759.0247,N,11954.4337,W,0.57,40.22,010414,,*23
$GPGGA,220601.000,3759.0248,N,11954.4336,W,1,09,1.4,1424.0,M,-23.2,M,,0000*54
$GPGSA,A,3,07,23,08,13,19,03,10,16,09,,,,2.2,1.4,1.7*39
$GPRMC,220601.000,A,3759.0248,N,11954.4336,W,0.57,40.53,010414,,*2A
$GPGGA,220602.000,3759.0249,N,11954.4335,W,1,09,1.4,1424.0,M,-23.2,M,,0000*55
$GPGSA,A,3,07,23,08,13,19,03,10,16,09,,,,2.2,1.4,1.7*39
$GPGSV,3,1,12,13,76,011,36,23,57,111,40,07,52,286,40,10,39,290,45*71
$GPGSV,3,2,12,16,37,047,41,03,29,111,34,08,27,264,29,27,22,090,*7A
$GPGSV,3,3,12,09,15,266,24,19,14,126,30,20,12,176,,28,03,209,29*70
$GPRMC,220602.000,A,3759.0249,N,11954.4335,W,0.55,39.88,010414,,*21
$GPGGA,220603.000,3759.0250,N,11954.4334,W,1,09,1.4,1423.9,M,-23.2,M,,0000*53
$GPGSA,A,3,07,23,08,13,19,03,10,16,09,,,,2.2,1.4,1.7*39
$GPRMC,220603.000,A,3759.0250,N,11954.4334,W,0.51,54.42,010414,,*20
$GPGGA,220604.000,3759.0250,N,11954.4333,W,1,09,1.4,1423.8,M,-23.2,M,,0000*52
$GPGSA,A,3,07,23,08,13,19,03,10,16,09,,,,2.2,1.4,1.7*39
$GPRMC,220604.000,A,3759.0250,N,11954.4333,W,0.46,47.09,010414,,*2B
$GPGGA,220605.000,3759.0251,N,11954.4332,W,1,09,1.4,1423.7,M,-23.2,M,,0000*5C
$GPGSA,A,3,07,23,08,13,19,03,10,16,09,,,,2.2,1.4,1.7*39
$GPRMC,220605.000,A,3759.0251,N,11954.4332,W,0.50,43.37,010414,,*24
$GPGGA,220606.000,3759.0250,N,11954.4331,W,1,09,1.4,1423.4,M,-23.2,M,,0000*5E
$GPGSA,A,3,07,23,08,13,19,03,10,16,09,,,,2.2,1.4,1.7*39
$GPRMC,220606.000,A,3759.0250,N,11954.4331,W,0.34,54.91,010414,,*2D
$GPGGA,220607.000,3759.0250,N,11954.4329,W,1,11,1.1,1423.0,M,-23.2,M,,0000*5E
$GPGSA,A,3,07,23,08,13,20,19,03,10,16,27,09,,1.9,1.1,1.6*32
$GPGSV,3,1,12,13,76,011,36,23,57,111,40,07,52,286,36,10,39,290,43*76
$GPGSV,3,2,12,16,37,047,35,03,29,111,36,08,27,264,34,27,22,090,28*7D
$GPGSV,3,3,12,09,15,266,21,19,14,126,24,20,12,176,24,28,03,209,29*76
$GPRMC,220607.000,A,3759.0250,N,11954.4329,W,0.54,44.77,010414,,*2A
$GPGGA,220608.000,3759.0250,N,11954.4328,W,1,11,1.1,1422.7,M,-23.2,M,,0000*56
$GPGSA,A,3,07,23,08,13,20,19,03,10,16,27,09,,1.9,1.1,1.6*32
$GPRMC,220608.000,A,3759.0250,N,11954.4328,W,0.67,46.53,010414,,*20
$GPGGA,220609.000,3759.0250,N,11954.4326,W,1,11,1.1,1422.4,M,-23.2,M,,0000*5A
$GPGSA,A,3,07,23,08,13,20,19,03,10,16,27,09,,1.9,1.1,1.6*32
$GPRMC,220609.000,A,3759.0250,N,11954.4326,W,0.63,41.65,010414,,*29
$GPGGA,220610.000,3759.0250,N,11954.4325,W,1,11,1.1,1422.2,M,-23.2,M,,0000*57
$GPGSA,A,3,07,23,08,13,20,19,03,10,16,27,09,,1.9,1.1,1.6*32
$GPRMC,220610.000,A,3759.0250,N,11954.4325,W,0.42,56.84,010414,,*28
$GPGGA,220611.000,3759.0250,N,11954.4324,W,1,11,1.1,1422.1,M,-23.2,M,,0000*54
$GPGSA,A,3,07,23,08,13,20,19,03,10,16,27,09,,1.9,1.1,1.6*32
$GPRMC,220611.000,A,3759.0250,N,11954.4324,W,0.46,47.69,010414,,*2F
$GPGGA,220612.000,3759.0250,N,11954.4323,W,1,11,1.1,1422.1,M,-23.2,M,,0000*50
$GPGSA,A,3,07,23,08,13,20,19,03,10,16,27,09,,1.9,1.1,1.6*32
$GPGSV,3,1,12,13,76,011,36,23,57,111,40,07,52,286,36,10,39,290,42*77
$GPGSV,3,2,12,16,37,047,37,03,29,111,36,08,27,264,35,27,22,090,36*71
$GPGSV,3,3,12,09,15,266,34,19,14,126,27,20,12,176,23,28,03,209,29*76
$GPRMC,220612.000,A,3759.0250,N,11954.4323,W,0.37,61.38,010414,,*2D
$GPGGA,220613.000,3759.0250,N,11954.4322,W,1,11,1.1,1422.2,M,-23.2,M,,0000*53
$GPGSA,A,3,07,23,08,13,20,19,03,10,16,27,09,,1.9,1.1,1.6*32
$GPRMC,220613.000,A,3759.0250,N,11954.4322,W,0.56,44.91,010414,,*2E
$GPGGA,220614.000,3759.0251,N,11954.4321,W,1,10,1.3,1422.4,M,-23.2,M,,0000*53
$GPGSA,A,3,07,23,08,13,19,03,10,16,27,09,,,2.1,1.3,1.6*39
$GPRMC,220614.000,A,3759.0251,N,11954.4321,W,0.56,46.07,010414,,*26
$GPGGA,220615.000,3759.0252,N,11954.4320,W,1,11,1.1,1422.8,M,-23.2,M,,0000*5F
$GPGSA,A,3,07,23,08,13,20,19,03,10,16,27,09,,1.9,1.1,1.6*32
$GPRMC,220615.000,A,3759.0252,N,11954.4320,W,0.54,47.30,010414,,*22
$GPGGA,220616.000,3759.0253,N,11954.4319,W,1,11,1.1,1423.1,M,-23.2,M,,0000*5F
$GPGSA,A,3,07,23,08,13,20,19,03,10,16,27,09,,1.9,1.1,1.6*32
$GPRMC,220616.000,A,3759.0253,N,11954.4319,W,0.38,59.25,010414,,*2B
$GPGGA,220617.000,3759.0253,N,11954.4318,W,1,11,1.1,1423.4,M,-23.2,M,,0000*5A
$GPGSA,A,3,07,23,08,13,20,19,03,10,16,27,09,,1.9,1.1,1.6*32
$GPGSV,3,1,12,13,76,011,36,23,57,111,41,07,52,286,36,10,39,290,36*75
$GPGSV,3,2,12,16,37,047,38,03,29,111,26,08,27,264,25,27,22,090,36*7E
$GPGSV,3,3,12,09,15,266,35,19,14,126,26,20,12,176,25,28,03,209,17*7D
$GPRMC,220617.000,A,3759.0253,N,11954.4318,W,0.36,73.16,010414,,*2D
$GPGGA,220618.000,3759.0253,N,11954.4318,W,1,11,1.1,1423.4,M,-23.2,M,,0000*55
$GPGSA,A,3,07,23,08,13,20,19,03,10,16,27,09,,1.9,1.1,1.6*32
$GPRMC,220618.000,A,3759.0253,N,11954.4318,W,0.36,78.26,010414,,*2A
$GPGGA,220619.000,3759.0253,N,11954.4317,W,1,11,1.1,1423.4,M,-23.2,M,,0000*5B
$GPGSA,A,3,07,23,08,13,20,19,03,10,16,27,09,,1.9,1.1,1.6*32
$GPRMC,220619.000,A,3759.0253,N,11954.4317,W,0.40,65.96,010414,,*22
$GPGGA,220620.000,3759.0254,N,11954.4316,W,1,11,1.1,1423.5,M,-23.2,M,,0000*56
$GPGSA,A,3,07,23,08,13,20,19,03,10,16,27,09,,1.9,1.1,1.6*32
$GPRMC,220620.000,A,3759.0254,N,11954.4316,W,0.42,66.94,010414,,*2D
$GPGGA,220621.000,3759.0254,N,11954.4314,W,1,10,1.3,1423.4,M,-23.2,M,,0000*57
$GPGSA,A,3,07,23,08,13,19,03,10,16,27,09,,,2.1,1.3,1.6*39
$GPRMC,220621.000,A,3759.0254,N,11954.4314,W,0.45,58.30,010414,,*2A
$GPGGA,220622.000,3759.0254,N,11954.4313,W,1,10,1.3,1423.5,M,-23.2,M,,0000*52
$GPGSA,A,3,07,23,08,13,19,03,10,16,27,09,,,2.1,1.3,1.6*39
$GPGSV,3,1,12,13,76,011,36,23,57,111,42,07,52,286,35,10,39,290,33*70
$GPGSV,3,2,12,16,37,047,38,03,29,111,30,08,27,264,29,27,22,090,36*75
$GPGSV,3,3,12,09,15,266,29,19,14,126,31,20,12,176,,28,03,209,24*71
$GPRMC,220622.000,A,3759.0254,N,11954.4313,W,0.44,58.56,010414,,*2F
$GPGGA,220623.000,3759.0255,N,11954.4312,W,1,10,1.3,1423.5,M,-23.2,M,,0000*53
$GPGSA,A,3,07,23,08,13,19,03,10,16,27,09,,,2.1,1.3,1.6*39
$GPRMC,220623.000,A,3759.0255,N,11954.4312,W,0.44,58.37,010414,,*29
$GPGGA,220624.000,3759.0255,N,11954.4311,W,1,10,1.3,1423.5,M,-23.2,M,,0000*57
$GPGSA,A,3,07,23,08,13,19,03,10,16,27,09,,,2.1,1.3,1.6*39
$GPRMC,220624.000,A,3759.0255,N,11954.4311,W,0.45,57.85,010414,,*2A
$GPGGA,220625.000,3759.0256,N,11954.4310,W,1,10,1.3,1423.6,M,-23.2,M,,0000*57
$GPGSA,A,3,07,23,08,13,19,03,10,16,27,09,,,2.1,1.3,1.6*39
$GPRMC,220625.000,A,3759.0256,N,11954.4310,W,0.36,59.16,010414,,*29
$GPGGA,220626.000,3759.0255,N,11954.4309,W,1,10,1.3,1423.4,M,-23.2,M,,0000*5D
$GPGSA,A,3,07,23,08,13,19,03,10,16,27,09,,,2.1,1.3,1.6*39
$GPRMC,220626.000,A,3759.0255,N,11954.4309,W,0.33,50.66,010414,,*2A
$GPGGA,220627.000,3759.0255,N,11954.4309,W,1,10,1.3,1423.2,M,-23.2,M,,0000*5A
$GPGSA,A,3,07,23,08,13,19,03,10,16,27,09,,,2.1,1.3,1.6*39
$GPGSV,3,1,12,13,76,011,35,23,57,111,42,07,52,286,30,10,39,290,30*75
$GPGSV,3,2,12,16,37,047,38,03,29,111,34,08,27,264,21,27,22,090,37*78
$GPGSV,3,3,12,09,15,266,28,19,14,126,30,20,12,176,,28,03,209,17*71
$GPRMC,220627.000,A,3759.0255,N,11954.4309,W,0.37,51.92,010414,,*25
$GPGGA,220628.000,3759.0255,N,11954.4308,W,1,10,1.3,1423.0,M,-23.2,M,,0000*56
$GPGSA,A,3,07,23,08,13,19,03,10,16,27,09,,,2.1,1.3,1.6*39
$GPRMC,220628.000,A,3759.0255,N,11954.4308,W,0.36,54.04,010414,,*20
$GPGGA,220629.000,3759.0255,N,11954.4307,W,1,11,1.1,1422.8,M,-23.2,M,,0000*52
$GPGSA,A,3,07,23,08,13,20,19,03,10,16,27,09,,1.9,1.1,1.6*32
$GPRMC,220629.000,A,3759.0255,N,11954.4307,W,0.47,59.71,010414,,*27
$GPGGA,220630.000,3759.0255,N,11954.4306,W,1,11,1.1,1422.6,M,-23.2,M,,0000*55
$GPGSA,A,3,07,23,08,13,20,19,03,10,16,27,09,,1.9,1.1,1.6*32
$GPRMC,220630.000,A,3759.0255,N,11954.4306,W,0.45,48.76,010414,,*2B
$GPGGA,220631.000,3759.0255,N,11954.4305,W,1,11,1.1,1422.5,M,-23.2,M,,0000*54
$GPGSA,A,3,07,23,08,13,20,19,03,10,16,27,09,,1.9,1.1,1.6*32
$GPRMC,220631.000,A,3759.0255,N,11954.4305,W,0.41,54.34,010414,,*26
$GPGGA,220632.000,3759.0255,N,11954.4304,W,1,11,1.1,1422.4,M,-23.2,M,,0000*57
$GPGSA,A,3,07,23,08,13,20,19,03,10,16,27,09,,1.9,1.1,1.6*32
$GPGSV,3,1,12,13,76,011,34,23,57,111,41,07,52,286,34,10,39,290,31*72
$GPGSV,3,2,12,16,37,047,40,03,29,111,35,08,27,264,31,27,22,090,31*71
$GPGSV,3,3,12,09,15,266,29,19,14,126,23,20,12,176,32,28,03,209,21*76
$GPRMC,220632.000,A,3759.0255,N,11954.4304,W,0.39,68.62,010414,,*27
$GPGGA,220633.000,3759.0255,N,11954.4302,W,1,11,1.1,1422.4,M,-23.2,M,,0000*50
$GPGSA,A,3,07,23,08,13,20,19,03,10,16,27,09,,1.9,1.1,1.6*32
$GPRMC,220633.000,A,3759.0255,N,11954.4302,W,0.41,50.37,010414,,*24
$GPGGA,220634.000,3759.0255,N,11954.4301,W,1,11,1.1,1422.3,M,-23.2,M,,0000*53
$GPGSA,A,3,07,23,08,13,20,19,03,10,16,27,09,,1.9,1.1,1.6*32
$GPRMC,220634.000,A,3759.0255,N,11954.4301,W,0.41,62.27,010414,,*20
$GPGGA,220635.000,3759.0255,N,11954.4299,W,1,11,1.1,1422.3,M,-23.2,M,,0000*52
$GPGSA,A,3,07,23,08,13,20,19,03,10,16,27,09,,1.9,1.1,1.6*32
$GPRMC,220635.000,A,3759.0255,N,11954.4299,W,0.39,63.07,010414,,*2D
$GPGGA,220636.000,3759.0255,N,11954.4297,W,1,11,1.1,1422.2,M,-23.2,M,,0000*5E
$GPGSA,A,3,07,23,08,13,20,19,03,10,16,27,09,,1.9,1.1,1.6*32
$GPRMC,220636.000,A,3759.0255,N,11954.4297,W,0.40,55.42,010414,,*2A
$GPGGA,220637.000,3759.0255,N,11954.4296,W,1,11,1.1,1422.2,M,-23.2,M,,0000*5E
$GPGSA,A,3,07,23,08,13,20,19,03,10,16,27,09,,1.9,1.1,1.6*32
$GPGSV,3,1,12,13,76,011,34,23,57,111,41,07,52,286,37,10,39,290,36*76
$GPGSV,3,2,12,16,37,047,40,03,29,111,36,08,27,264,31,27,22,090,32*71
$GPGSV,3,3,12,09,15,266,29,19,14,126,30,20,12,176,23,28,03,209,27*72
$GPRMC,220637.000,A,3759.0255,N,11954.4296,W,0.38,60.48,010414,,*29
$GPGGA,220638.000,3759.0255,N,11954.4294,W,1,11,1.1,1422.1,M,-23.2,M,,0000*50
$GPGSA,A,3,07,23,08,13,20,19,03,10,16,27,09,,1.9,1.1,1.6*32
$GPRMC,220638.000,A,3759.0255,N,11954.4294,W,0.39,52.49,010414,,*25
$GPGGA,220639.000,3759.0255,N,11954.4293,W,1,11,1.1,1422.1,M,-23.2,M,,0000*56
$GPGSA,A,3,07,23,08,13,20,19,03,10,16,27,09,,1.9,1.1,1.6*32
$GPRMC,220639.000,A,3759.0255,N,11954.4293,W,0.39,52.97,010414,,*20
$GPGGA,220640.000,3759.0256,N,11954.4292,W,1,11,1.1,1422.1,M,-23.2,M,,0000*5A
$GPGSA,A,3,07,23,08,13,20,19,03,10,16,27,09,,1.9,1.1,1.6*32
$GPRMC,220640.000,A,3759.0256,N,11954.4292,W,0.43,44.96,010414,,*27
$GPGGA,220641.000,3759.0256,N,11954.4291,W,1,11,1.1,1422.0,M,-23.2,M,,0000*59
$GPGSA,A,3,07,23,08,13,20,19,03,10,16,27,09,,1.9,1.1,1.6*32
$GPRMC,220641.000,A,3759.0256,N,11954.4291,W,0.36,52.82,010414,,*25
$GPGGA,220642.000,3759.0256,N,11954.4290,W,1,11,1.1,1421.9,M,-23.2,M,,0000*51
$GPGSA,A,3,07,23,08,13,20,19,03,10,16,27,09,,1.9,1.1,1.6*32
$GPGSV,3,1,12,13,76,011,34,23,57,111,41,07,52,286,37,10,39,290,37*77
$GPGSV,3,2,12,16,37,047,40,03,29,111,36,08,27,264,30,27,22,090,33*71
$GPGSV,3,3,12,09,15,266,29,19,14,126,30,20,12,176,22,28,03,209,28*7C
$GPRMC,220642.000,A,3759.0256,N,11954.4290,W,0.37,58.35,010414,,*20
$GPGGA,220643.000,3759.0256,N,11954.4289,W,1,11,1.1,1421.8,M,-23.2,M,,0000*59
$GPGSA,A,3,07,23,08,13,20,19,03,10,16,27,09,,1.9,1.1,1.6*32
$GPRMC,220643.000,A,3759.0256,N,11954.4289,W,0.38,56.47,010414,,*2D
$GPGGA,220644.000,3759.0257,N,11954.4287,W,1,11,1.1,1421.8,M,-23.2,M,,0000*51
$GPGSA,A,3,07,23,08,13,20,19,03,10,16,27,09,,1.9,1.1,1.6*32
$GPRMC,220644.000,A,3759.0257,N,11954.4287,W,0.40,53.91,010414,,*24
$GPGGA,220645.000,3759.0257,N,11954.4286,W,1,11,1.1,1421.7,M,-23.2,M,,0000*5E
$GPGSA,A,3,07,23,08,13,20,19,03,10,16,27,09,,1.9,1.1,1.6*32
$GPRMC,220645.000,A,3759.0257,N,11954.4286,W,0.37,50.93,010414,,*25
$GPGGA,220646.000,3759.0257,N,11954.4285,W,1,11,1.1,1421.5,M,-23.2,M,,0000*5C
$GPGSA,A,3,07,23,08,13,20,19,03,10,16,27,09,,1.9,1.1,1.6*32
$GPRMC,220646.000,A,3759.0257,N,11954.4285,W,0.32,67.28,010414,,*24
$GPGGA,220647.000,3759.0257,N,11954.4284,W,1,11,1.1,1421.5,M,-23.2,M,,0000*5C
$GPGSA,A,3,07,23,08,13,20,19,03,10,16,27,09,,1.9,1.1,1.6*32
$GPGSV,3,1,12,13,76,011,34,23,57,111,41,07,52,286,37,10,39,290,36*76
$GPGSV,3,2,12,16,37,047,41,03,29,111,36,08,27,264,30,27,22,090,33*70
$GPGSV,3,3,12,09,15,266,25,19,14,126,29,20,12,176,29,28,03,209,28*73
$GPRMC,220647.000,A,3759.0257,N,11954.4284,W,0.41,51.50,010414,,*2A
$GPGGA,220648.000,3759.0258,N,11954.4283,W,1,11,1.1,1421.4,M,-23.2,M,,0000*5A
$GPGSA,A,3,07,23,08,13,20,19,03,10,16,27,09,,1.9,1.1,1.6*32
$GPRMC,220648.000,A,3759.0258,N,11954.4283,W,0.38,44.82,010414,,*28
$GPGGA,220649.000,3759.0258,N,11954.4282,W,1,11,1.1,1421.3,M,-23.2,M,,0000*5D
$GPGSA,A,3,07,23,08,13,20,19,03,10,16,27,09,,1.9,1.1,1.6*32
$GPRMC,220649.000,A,3759.0258,N,11954.4282,W,0.42,51.48,010414,,*27
$GPGGA,220650.000,3759.0259,N,11954.4281,W,1,11,1.1,1421.3,M,-23.2,M,,0000*57
$GPGSA,A,3,07,23,08,13,20,19,03,10,16,27,09,,1.9,1.1,1.6*32
$GPRMC,220650.000,A,3759.0259,N,11954.4281,W,0.40,54.77,010414,,*26
$GPGGA,220651.000,3759.0259,N,11954.4280,W,1,11,1.1,1421.2,M,-23.2,M,,0000*56
$GPGSA,A,3,07,23,08,13,20,19,03,10,16,27,09,,1.9,1.1,1.6*32
$GPRMC,220651.000,A,3759.0259,N,11954.4280,W,0.34,45.94,010414,,*28
$GPGGA,220652.000,3759.0260,N,11954.4279,W,1,11,1.1,1421.1,M,-23.2,M,,0000*5A
$GPGSA,A,3,07,23,08,13,20,19,03,10,16,27,09,,1.9,1.1,1.6*32
$GPGSV,3,1,12,13,76,011,35,23,57,111,41,07,52,286,37,10,39,290,37*76
$GPGSV,3,2,12,16,37,047,40,03,29,111,36,08,27,264,30,27,22,090,33*71
$GPGSV,3,3,12,09,15,266,26,19,14,126,24,20,12,176,30,28,03,209,28*75
$GPRMC,220652.000,A,3759.0260,N,11954.4279,W,0.37,56.32,010414,,*2A
$GPGGA,220653.000,3759.0260,N,11954.4277,W,1,11,1.1,1421.0,M,-23.2,M,,0000*54
$GPGSA,A,3,07,23,08,13,20,19,03,10,16,27,09,,1.9,1.1,1.6*32
$GPRMC,220653.000,A,3759.0260,N,11954.4277,W,0.39,56.55,010414,,*2A
$GPGGA,220654.000,3759.0260,N,11954.4276,W,1,11,1.1,1420.9,M,-23.2,M,,0000*5A
$GPGSA,A,3,07,23,08,13,20,19,03,10,16,27,09,,1.9,1.1,1.6*32
$GPRMC,220654.000,A,3759.0260,N,11954.4276,W,0.41,58.60,010414,,*2B
$GPGGA,220655.000,3759.0261,N,11954.4275,W,1,11,1.1,1420.9,M,-23.2,M,,0000*59
$GPGSA,A,3,07,23,08,13,20,19,03,10,16,27,09,,1.9,1.1,1.6*32
$GPRMC,220655.000,A,3759.0261,N,11954.4275,W,0.40,51.84,010414,,*2A
$GPGGA,220656.000,3759.0261,N,11954.4274,W,1,11,1.1,1420.8,M,-23.2,M,,0000*5A
$GPGSA,A,3,07,23,08,13,20,19,03,10,16,27,09,,1.9,1.1,1.6*32
$GPRMC,220656.000,A,3759.0261,N,11954.4274,W,0.40,50.28,010414,,*2F
$GPGGA,220657.000,3759.0262,N,11954.4273,W,1,11,1.1,1420.8,M,-23.2,M,,0000*5F
$GPGSA,A,3,07,23,08,13,20,19,03,10,16,27,09,,1.9,1.1,1.6*32
$GPGSV,3,1,12,13,76,011,35,23,57,111,41,07,52,286,37,10,39,290,37*76
$GPGSV,3,2,12,16,37,047,40,03,29,111,36,08,27,264,30,27,22,090,33*71
$GPGSV,3,3,12,09,15,266,26,19,14,126,24,20,12,176,29,28,03,209,28*7D
$GPRMC,220657.000,A,3759.0262,N,11954.4273,W,0.43,55.13,010414,,*24
$GPGGA,220658.000,3759.0262,N,11954.4272,W,1,11,1.1,1420.7,M,-23.2,M,,0000*5E
$GPGSA,A,3,07,23,08,13,20,19,03,10,16,27,09,,1.9,1.1,1.6*32
$GPRMC,220658.000,A,3759.0262,N,11954.4272,W,0.42,46.23,010414,,*2A
$GPGGA,220659.000,3759.0263,N,11954.4270,W,1,11,1.1,1420.6,M,-23.2,M,,0000*5D
$GPGSA,A,3,07,23,08,13,20,19,03,10,16,27,09,,1.9,1.1,1.6*32
$GPRMC,220659.000,A,3759.0263,N,11954.4270,W,0.39,61.49,010414,,*2D
$GPGGA,220700.000,3759.0263,N,11954.4269,W,1,11,1.1,1420.6,M,-23.2,M,,0000*58
$GPGSA,A,3,07,23,08,13,20,19,03,10,16,27,09,,1.9,1.1,1.6*32
$GPRMC,220700.000,A,3759.0263,N,11954.4269,W,0.40,50.81,010414,,*20
$GPGGA,220701.000,3759.0264,N,11954.4268,W,1,11,1.1,1420.6,M,-23.2,M,,0000*5F
$GPGSA,A,3,07,23,08,13,20,19,03,10,16,27,09,,1.9,1.1,1.6*32
$GPRMC,220701.000,A,3759.0264,N,11954.4268,W,0.44,52.26,010414,,*2C
$GPGGA,220702.000,3759.0264,N,11954.4267,W,1,11,1.1,1420.5,M,-23.2,M,,0000*50
$GPGSA,A,3,07,23,08,13,20,19,03,10,16,27,09,,1.9,1.1,1.6*32
$GPGSV,3,1,12,13,76,011,35,23,57,111,42,07,52,286,37,10,39,290,37*75
$GPGSV,3,2,12,16,37,047,40,03,29,111,35,08,27,264,29,27,22,090,32*7B
$GPGSV,3,3,12,09,15,266,24,19,14,126,31,20,12,176,25,28,03,209,29*76
$GPRMC,220702.000,A,3759.0264,N,11954.4267,W,0.38,57.07,010414,,*2D
$GPGGA,220703.000,3759.0265,N,11954.4266,W,1,11,1.1,1420.5,M,-23.2,M,,0000*51
$GPGSA,A,3,07,23,08,13,20,19,03,10,16,27,09,,1.9,1.1,1.6*32
$GPRMC,220703.000,A,3759.0265,N,11954.4266,W,0.42,48.34,010414,,*2F
$GPGGA,220704.000,3759.0266,N,11954.4265,W,1,11,1.1,1420.5,M,-23.2,M,,0000*56
$GPGSA,A,3,07,23,08,13,20,19,03,10,16,27,09,,1.9,1.1,1.6*32
$GPRMC,220704.000,A,3759.0266,N,11954.4265,W,0.41,44.23,010414,,*21
$GPGGA,220705.000,3759.0266,N,11954.4264,W,1,11,1.1,1420.4,M,-23.2,M,,0000*57
$GPGSA,A,3,07,23,08,13,20,19,03,10,16,27,09,,1.9,1.1,1.6*32
$GPRMC,220705.000,A,3759.0266,N,11954.4264,W,0.41,49.16,010414,,*2A
$GPGGA,220706.000,3759.0267,N,11954.4263,W,1,11,1.1,1420.4,M,-23.2,M,,0000*52
$GPGSA,A,3,07,23,08,13,20,19,03,10,16,27,09,,1.9,1.1,1.6*32
$GPRMC,220706.000,A,3759.0267,N,11954.4263,W,0.50,55.36,010414,,*20
$GPGGA,220707.000,3759.0268,N,11954.4261,W,1,11,1.1,1420.5,M,-23.2,M,,0000*5F
$GPGSA,A,3,07,23,08,13,20,19,03,10,16,27,09,,1.9,1.1,1.6*32
$GPGSV,3,1,12,13,76,015,35,23,56,112,41,07,52,287,37,10,39,289,37*79
$GPGSV,3,2,12,16,36,046,41,03,29,110,36,08,27,265,29,27,23,089,33*71
$GPGSV,3,3,12,09,16,266,21,19,14,125,29,20,11,176,30,28,04,209,29*7A
$GPRMC,220707.000,A,3759.0268,N,11954.4261,W,0.51,55.80,010414,,*20
$GPGGA,220708.000,3759.0268,N,11954.4260,W,1,11,1.1,1420.5,M,-23.2,M,,0000*51
$GPGSA,A,3,07,23,08,13,20,19,03,10,16,27,09,,1.9,1.1,1.6*32
$GPRMC,220708.000,A,3759.0268,N,11954.4260,W,0.47,54.51,010414,,*24
$GPGGA,220709.000,3759.0269,N,11954.4259,W,1,11,1.1,1420.5,M,-23.2,M,,0000*5B
$GPGSA,A,3,07,23,08,13,20,19,03,10,16,27,09,,1.9,1.1,1.6*32
$GPRMC,220709.000,A,3759.0269,N,11954.4259,W,0.48,42.76,010414,,*23
$GPGGA,220710.000,3759.0270,N,11954.4258,W,1,10,1.1,1420.5,M,-23.2,M,,0000*5B
$GPGSA,A,3,07,23,13,20,19,03,10,16,27,09,,,1.9,1.1,1.6*3A
$GPRMC,220710.000,A,3759.0270,N,11954.4258,W,0.50,58.17,010414,,*27
$GPGGA,220711.000,3759.0270,N,11954.4256,W,1,10,1.1,1420.5,M,-23.2,M,,0000*54
$GPGSA,A,3,07,23,13,20,19,03,10,16,27,09,,,1.9,1.1,1.6*3A
$GPRMC,220711.000,A,3759.0270,N,11954.4256,W,0.53,62.29,010414,,*2F
$GPGGA,220712.000,3759.0271,N,11954.4254,W,1,10,1.1,1420.5,M,-23.2,M,,0000*54
$GPGSA,A,3,07,23,13,20,19,03,10,16,27,09,,,1.9,1.1,1.6*3A
$GPGSV,3,1,12,13,76,015,35,23,56,112,41,07,52,287,35,10,39,289,37*7B
$GPGSV,3,2,12,16,36,046,41,03,29,110,36,08,27,265,,27,23,089,26*7E
$GPGSV,3,3,12,09,16,266,23,19,14,125,22,20,11,176,26,28,04,209,28*75
$GPRMC,220712.000,A,3759.0271,N,11954.4254,W,0.57,57.15,010414,,*22
$GPGGA,220713.000,3759.0272,N,11954.4253,W,1,09,1.2,1420.5,M,-23.2,M,,0000*5A
$GPGSA,A,3,07,23,13,20,19,03,10,16,27,,,,2.2,1.2,1.9*37
$GPRMC,220713.000,A,3759.0272,N,11954.4253,W,0.45,59.23,010414,,*2F
$GPGGA,220714.000,3759.0273,N,11954.4251,W,1,10,1.1,1420.5,M,-23.2,M,,0000*55
$GPGSA,A,3,07,23,13,20,19,03,10,16,27,09,,,1.9,1.1,1.6*3A
$GPRMC,220714.000,A,3759.0273,N,11954.4251,W,0.51,50.67,010414,,*27
$GPGGA,220715.000,3759.0273,N,11954.4250,W,1,11,1.1,1420.5,M,-23.2,M,,0000*54
$GPGSA,A,3,07,23,08,13,20,19,03,10,16,27,09,,1.9,1.1,1.6*32
$GPRMC,220715.000,A,3759.0273,N,11954.4250,W,0.41,47.92,010414,,*2A
$GPGGA,220716.000,3759.0274,N,11954.4249,W,1,11,1.1,1420.5,M,-23.2,M,,0000*58
$GPGSA,A,3,07,23,08,13,20,19,03,10,16,27,09,,1.9,1.1,1.6*32
$GPRMC,220716.000,A,3759.0274,N,11954.4249,W,0.56,57.59,010414,,*26
$GPGGA,220717.000,3759.0275,N,11954.4247,W,1,11,1.1,1420.6,M,-23.2,M,,0000*55
$GPGSA,A,3,07,23,08,13,20,19,03,10,16,27,09,,1.9,1.1,1.6*32
$GPGSV,3,1,12,13,76,015,35,23,56,112,41,07,52,287,34,10,39,289,36*7B
$GPGSV,3,2,12,16,36,046,40,03,29,110,37,08,27,265,26,27,23,089,28*74
$GPGSV,3,3,12,09,16,266,19,19,14,125,19,20,11,176,27,28,04,209,22*7F
$GPRMC,220717.000,A,3759.0275,N,11954.4247,W,0.53,60.07,010414,,*22
$GPGGA,220718.000,3759.0275,N,11954.4246,W,1,11,1.1,1420.5,M,-23.2,M,,0000*58
$GPGSA,A,3,07,23,08,13,20,19,03,10,16,27,09,,1.9,1.1,1.6*32
$GPRMC,220718.000,A,3759.0275,N,11954.4246,W,0.36,47.36,010414,,*28
$GPGGA,220719.000,3759.0276,N,11954.4245,W,1,11,1.1,1420.5,M,-23.2,M,,0000*59
$GPGSA,A,3,07,23,08,13,20,19,03,10,16,27,09,,1.9,1.1,1.6*32
$GPRMC,220719.000,A,3759.0276,N,11954.4245,W,0.41,40.93,010414,,*21
$GPGGA,220720.000,3759.0277,N,11954.4243,W,1,11,1.1,1420.5,M,-23.2,M,,0000*54
$GPGSA,A,3,07,23,08,13,20,19,03,10,16,27,09,,1.9,1.1,1.6*32
$GPRMC,220720.000,A,3759.0277,N,11954.4243,W,0.50,56.52,010414,,*26
$GPGGA,220721.000,3759.0278,N,11954.4242,W,1,11,1.1,1420.6,M,-23.2,M,,0000*58
$GPGSA,A,3,07,23,08,13,20,19,03,10,16,27,09,,1.9,1.1,1.6*32
$GPRMC,220721.000,A,3759.0278,N,11954.4242,W,0.51,55.37,010414,,*28
$GPGGA,220722.000,3759.0278,N,11954.4240,W,1,11,1.1,1420.6,M,-23.2,M,,0000*59
$GPGSA,A,3,07,23,08,13,20,19,03,10,16,27,09,,1.9,1.1,1.6*32
$GPGSV,3,1,12,13,76,015,36,23,56,112,41,07,52,287,34,10,39,289,36*78
$GPGSV,3,2,12,16,36,046,40,03,29,110,37,08,27,265,22,27,23,089,28*70
$GPGSV,3,3,12,09,16,266,18,19,14,125,23,20,11,176,26,28,04,209,25*71
$GPRMC,220722.000,A,3759.0278,N,11954.4240,W,0.48,48.01,010414,,*28
$GPGGA,220723.000,3759.0279,N,11954.4239,W,1,11,1.1,1420.6,M,-23.2,M,,0000*57
$GPGSA,A,3,07,23,08,13,20,19,03,10,16,27,09,,1.9,1.1,1.6*32
$GPRMC,220723.000,A,3759.0279,N,11954.4239,W,0.40,64.41,010414,,*24
$GPGGA,220724.000,3759.0280,N,11954.4238,W,1,11,1.1,1420.6,M,-23.2,M,,0000*57
$GPGSA,A,3,07,23,08,13,20,19,03,10,16,27,09,,1.9,1.1,1.6*32
$GPRMC,220724.000,A,3759.0280,N,11954.4238,W,0.57,61.18,010414,,*2B
$GPGGA,220725.000,3759.0280,N,11954.4236,W,1,11,1.1,1420.6,M,-23.2,M,,0000*58
$GPGSA,A,3,07,23,08,13,20,19,03,10,16,27,09,,1.9,1.1,1.6*32
$GPRMC,220725.000,A,3759.0280,N,11954.4236,W,0.43,48.26,010414,,*27
$GPGGA,220726.000,3759.0281,N,11954.4235,W,1,11,1.1,1420.7,M,-23.2,M,,0000*58
$GPGSA,A,3,07,23,08,13,20,19,03,10,16,27,09,,1.9,1.1,1.6*32
$GPRMC,220726.000,A,3759.0281,N,11954.4235,W,0.35,36.72,010414,,*2F
$GPGGA,220727.000,3759.0282,N,11954.4235,W,1,11,1.1,1420.6,M,-23.2,M,,0000*5B
$GPGSA,A,3,07,23,08,13,20,19,03,10,16,27,09,,1.9,1.1,1.6*32
$GPGSV,3,1,12,13,76,015,36,23,56,112,41,07,52,287,35,10,39,289,36*79
$GPGSV,3,2,12,16,36,046,40,03,29,110,37,08,27,265,26,27,23,089,27*7B
$GPGSV,3,3,12,09,16,266,19,19,14,125,23,20,11,176,27,28,04,209,24*70
$GPRMC,220727.000,A,3759.0282,N,11954.4235,W,0.34,45.85,010414,,*20
$GPGGA,220728.000,3759.0282,N,11954.4234,W,1,11,1.1,1420.7,M,-23.2,M,,0000*54
$GPGSA,A,3,07,23,08,13,20,19,03,10,16,27,09,,1.9,1.1,1.6*32
$GPRMC,220728.000,A,3759.0282,N,11954.4234,W,0.46,46.83,010414,,*2E
$GPGGA,220729.000,3759.0283,N,11954.4233,W,1,11,1.1,1420.8,M,-23.2,M,,0000*5C
$GPGSA,A,3,07,23,08,13,20,19,03,10,16,27,09,,1.9,1.1,1.6*32
$GPRMC,220729.000,A,3759.0283,N,11954.4233,W,0.47,53.08,010414,,*2F
$GPGGA,220730.000,3759.0284,N,11954.4232,W,1,11,1.1,1420.8,M,-23.2,M,,0000*52
$GPGSA,A,3,07,23,08,13,20,19,03,10,16,27,09,,1.9,1.1,1.6*32
$GPRMC,220730.000,A,3759.0284,N,11954.4232,W,0.41,52.22,010414,,*2E
$GPGGA,220731.000,3759.0284,N,11954.4231,W,1,11,1.1,1420.8,M,-23.2,M,,0000*50
$GPGSA,A,3,07,23,08,13,20,19,03,10,16,27,09,,1.9,1.1,1.6*32
$GPRMC,220731.000,A,3759.0284,N,11954.4231,W,0.47,52.26,010414,,*2E
$GPGGA,220732.000,3759.0285,N,11954.4230,W,1,11,1.1,1420.7,M,-23.2,M,,0000*5C
$GPGSA,A,3,07,23,08,13,20,19,03,10,16,27,09,,1.9,1.1,1.6*32
$GPGSV,3,1,12,13,76,015,36,23,56,112,41,07,52,287,35,10,39,289,36*79
$GPGSV,3,2,12,16,36,046,40,03,29,110,37,08,27,265,33,27,23,089,33*7A
$GPGSV,3,3,12,09,16,266,19,19,14,125,22,20,11,176,27,28,04,209,25*70
$GPRMC,220732.000,A,3759.0285,N,11954.4230,W,0.37,54.44,010414,,*28
$GPGGA,220733.000,3759.0285,N,11954.4230,W,1,11,1.1,1420.7,M,-23.2,M,,0000*5D
$GPGSA,A,3,07,23,08,13,20,19,03,10,16,27,09,,1.9,1.1,1.6*32
$GPRMC,220733.000,A,3759.0285,N,11954.4230,W,0.40,38.12,010414,,*20
$GPGGA,220734.000,3759.0286,N,11954.4229,W,1,11,1.1,1420.7,M,-23.2,M,,0000*51
$GPGSA,A,3,07,23,08,13,20,19,03,10,16,27,09,,1.9,1.1,1.6*32
$GPRMC,220734.000,A,3759.0286,N,11954.4229,W,0.42,40.02,010414,,*20
$GPGGA,220735.000,3759.0287,N,11954.4228,W,1,11,1.1,1420.7,M,-23.2,M,,0000*50
$GPGSA,A,3,07,23,08,13,20,19,03,10,16,27,09,,1.9,1.1,1.6*32
$GPRMC,220735.000,A,3759.0287,N,11954.4228,W,0.42,49.03,010414,,*29
$GPGGA,220736.000,3759.0287,N,11954.4228,W,1,11,1.1,1420.7,M,-23.2,M,,0000*53
$GPGSA,A,3,07,23,08,13,20,19,03,10,16,27,09,,1.9,1.1,1.6*32
$GPRMC,220736.000,A,3759.0287,N,11954.4228,W,0.48,49.57,010414,,*21
$GPGGA,220737.000,3759.0288,N,11954.4227,W,1,11,1.1,1420.8,M,-23.2,M,,0000*5D
$GPGSA,A,3,07,23,08,13,20,19,03,10,16,27,09,,1.9,1.1,1.6*32
$GPGSV,3,1,12,13,76,015,35,23,56,112,42,07,52,287,36,10,39,289,36*7A
$GPGSV,3,2,12,16,36,046,40,03,29,110,36,08,27,265,33,27,23,089,33*7B
$GPGSV,3,3,12,09,16,266,20,19,14,125,21,20,11,176,27,28,04,209,26*7A
$GPRMC,220737.000,A,3759.0288,N,11954.4227,W,0.51,47.25,010414,,*23
$GPGGA,220738.000,3759.0289,N,11954.4226,W,1,11,1.1,1420.8,M,-23.2,M,,0000*52
$GPGSA,A,3,07,23,08,13,20,19,03,10,16,27,09,,1.9,1.1,1.6*32
$GPRMC,220738.000,A,3759.0289,N,11954.4226,W,0.45,48.67,010414,,*20
$GPGGA,220739.000,3759.0289,N,11954.4225,W,1,11,1.1,1420.8,M,-23.2,M,,0000*50
$GPGSA,A,3,07,23,08,13,20,19,03,10,16,27,09,,1.9,1.1,1.6*32
$GPRMC,220739.000,A,3759.0289,N,11954.4225,W,0.46,52.22,010414,,*2B
$GPGGA,220740.000,3759.0290,N,11954.4224,W,1,11,1.1,1420.8,M,-23.2,M,,0000*57
$GPGSA,A,3,07,23,08,13,20,19,03,10,16,27,09,,1.9,1.1,1.6*32
$GPRMC,220740.000,A,3759.0290,N,11954.4224,W,0.38,50.71,010414,,*21
$GPGGA,220741.000,3759.0291,N,11954.4223,W,1,11,1.1,1420.8,M,-23.2,M,,0000*50
$GPGSA,A,3,07,23,08,13,20,19,03,10,16,27,09,,1.9,1.1,1.6*32
$GPRMC,220741.000,A,3759.0291,N,11954.4223,W,0.48,52.83,010414,,*2E
$GPGGA,220742.000,3759.0291,N,11954.4222,W,1,11,1.1,1420.8,M,-23.2,M,,0000*52
$GPGSA,A,3,07,23,08,13,20,19,03,10,16,27,09,,1.9,1.1,1.6*32
$GPGSV,3,1,12,13,76,015,35,23,56,112,42,07,52,287,36,10,39,289,37*7B
$GPGSV,3,2,12,16,36,046,40,03,29,110,36,08,27,265,33,27,23,089,33*7B
$GPGSV,3,3,12,09,16,266,21,19,14,125,16,20,11,176,26,28,04,209,26*7E
$GPRMC,220742.000,A,3759.0291,N,11954.4222,W,0.49,49.35,010414,,*2A
$GPGGA,220743.000,3759.0292,N,11954.4221,W,1,11,1.1,1420.8,M,-23.2,M,,0000*53
$GPGSA,A,3,07,23,08,13,20,19,03,10,16,27,09,,1.9,1.1,1.6*32
$GPRMC,220743.000,A,3759.0292,N,11954.4221,W,0.36,52.49,010414,,*22
$GPGGA,220744.000,3759.0293,N,11954.4220,W,1,11,1.1,1420.8,M,-23.2,M,,0000*54
$GPGSA,A,3,07,23,08,13,20,19,03,10,16,27,09,,1.9,1.1,1.6*32
$GPRMC,220744.000,A,3759.0293,N,11954.4220,W,0.49,49.66,010414,,*2A
$GPGGA,220745.000,3759.0293,N,11954.4219,W,1,11,1.1,1420.8,M,-23.2,M,,0000*5F
$GPGSA,A,3,07,23,08,13,20,19,03,10,16,27,09,,1.9,1.1,1.6*32
$GPRMC,220745.000,A,3759.0293,N,11954.4219,W,0.49,44.80,010414,,*24
$GPGGA,220746.000,3759.0294,N,11954.4218,W,1,11,1.1,1420.8,M,-23.2,M,,0000*5A
$GPGSA,A,3,07,23,08,13,20,19,03,10,16,27,09,,1.9,1.1,1.6*32
$GPRMC,220746.000,A,3759.0294,N,11954.4218,W,0.41,47.85,010414,,*2F
$GPGGA,220747.000,3759.0295,N,11954.4217,W,1,11,1.1,1420.7,M,-23.2,M,,0000*5A
$GPGSA,A,3,07,23,08,13,20,19,03,10,16,27,09,,1.9,1.1,1.6*32
$GPGSV,3,1,12,13,76,015,35,23,56,112,42,07,52,287,37,10,39,289,37*7A
$GPGSV,3,2,12,16,36,046,40,03,29,110,35,08,27,265,33,27,23,089,33*78
$GPGSV,3,3,12,09,16,266,25,19,14,125,23,20,11,176,27,28,04,209,26*7D
$GPRMC,220747.000,A,3759.0295,N,11954.4217,W,0.44,50.05,010414,,*2B
$GPGGA,220748.000,3759.0295,N,11954.4217,W,1,11,1.1,1420.8,M,-23.2,M,,0000*5A
$GPGSA,A,3,07,23,08,13,20,19,03,10,16,27,09,,1.9,1.1,1.6*32
$GPRMC,220748.000,A,3759.0295,N,11954.4217,W,0.47,40.35,010414,,*25
$GPGGA,220749.000,3759.0296,N,11954.4216,W,1,11,1.1,1420.9,M,-23.2,M,,0000*58
$GPGSA,A,3,07,23,08,13,20,19,03,10,16,27,09,,1.9,1.1,1.6*32
$GPRMC,220749.000,A,3759.0296,N,11954.4216,W,0.50,39.03,010414,,*2B
$GPGGA,220750.000,3759.0297,N,11954.4215,W,1,11,1.1,1420.9,M,-23.2,M,,0000*52
$GPGSA,A,3,07,23,08,13,20,19,03,10,16,27,09,,1.9,1.1,1.6*32
$GPRMC,220750.000,A,3759.0297,N,11954.4215,W,0.44,47.85,010414,,*23
$GPGGA,220751.000,3759.0298,N,11954.4214,W,1,11,1.1,1420.9,M,-23.2,M,,0000*5D
$GPGSA,A,3,07,23,08,13,20,19,03,10,16,27,09,,1.9,1.1,1.6*32
$GPRMC,220751.000,A,3759.0298,N,11954.4214,W,0.47,45.62,010414,,*24
$GPGGA,220752.000,3759.0299,N,11954.4213,W,1,11,1.1,1420.9,M,-23.2,M,,0000*58
$GPGSA,A,3,07,23,08,13,20,19,03,10,16,27,09,,1.9,1.1,1.6*32
$GPGSV,3,1,12,13,76,015,34,23,56,112,42,07,52,287,37,10,39,289,36*7A
$GPGSV,3,2,12,16,36,046,40,03,29,110,35,08,27,265,32,27,23,089,32*78
$GPGSV,3,3,12,09,16,266,26,19,14,125,22,20,11,176,27,28,04,209,26*7F
$GPRMC,220752.000,A,3759.0299,N,11954.4213,W,0.49,40.06,010414,,*28
$GPGGA,220753.000,3759.0300,N,11954.4212,W,1,11,1.1,1420.9,M,-23.2,M,,0000*59
$GPGSA,A,3,07,23,08,13,20,19,03,10,16,27,09,,1.9,1.1,1.6*32
$GPRMC,220753.000,A,3759.0300,N,11954.4212,W,0.43,34.64,010414,,*24
$GPGGA,220754.000,3759.0300,N,11954.4212,W,1,11,1.1,1420.9,M,-23.2,M,,0000*5E
$GPGSA,A,3,07,23,08,13,20,19,03,10,16,27,09,,1.9,1.1,1.6*32
$GPRMC,220754.000,A,3759.0300,N,11954.4212,W,0.38,44.33,010414,,*2A
$GPGGA,220755.000,3759.0301,N,11954.4211,W,1,10,1.1,1420.9,M,-23.2,M,,0000*5C
$GPGSA,A,3,07,23,08,13,20,03,10,16,27,09,,,1.9,1.1,1.6*3A
$GPRMC,220755.000,A,3759.0301,N,11954.4211,W,0.45,46.37,010414,,*25
$GPGGA,220756.000,3759.0302,N,11954.4210,W,1,11,1.1,1420.9,M,-23.2,M,,0000*5C
$GPGSA,A,3,07,23,08,13,20,19,03,10,16,27,09,,1.9,1.1,1.6*32
$GPRMC,220756.000,A,3759.0302,N,11954.4210,W,0.46,44.10,010414,,*20
$GPGGA,220757.000,3759.0302,N,11954.4209,W,1,11,1.1,1420.9,M,-23.2,M,,0000*55
$GPGSA,A,3,07,23,08,13,20,19,03,10,16,27,09,,1.9,1.1,1.6*32
$GPGSV,3,1,12,13,76,015,34,23,56,112,42,07,52,287,37,10,39,289,36*7A
$GPGSV,3,2,12,16,36,046,39,03,29,110,35,08,27,265,32,27,23,089,32*76
$GPGSV,3,3,12,09,16,266,25,19,14,125,14,20,11,176,26,28,04,209,26*78
$GPRMC,220757.000,A,3759.0302,N,11954.4209,W,0.45,45.03,010414,,*29
$GPGGA,220758.000,3759.0303,N,11954.4208,W,1,11,1.1,1420.9,M,-23.2,M,,0000*5A
$GPGSA,A,3,07,23,08,13,20,19,03,10,16,27,09,,1.9,1.1,1.6*32
$GPRMC,220758.000,A,3759.0303,N,11954.4208,W,0.46,47.95,010414,,*28
$GPGGA,220759.000,3759.0304,N,11954.4207,W,1,11,1.1,1420.9,M,-23.2,M,,0000*53
$GPGSA,A,3,07,23,08,13,20,19,03,10,16,27,09,,1.9,1.1,1.6*32
$GPRMC,220759.000,A,3759.0304,N,11954.4207,W,0.41,54.14,010414,,*2D
$GPGGA,220800.000,3759.0304,N,11954.4206,W,1,10,1.3,1420.8,M,-23.2,M,,0000*53
$GPGSA,A,3,07,23,08,13,19,03,10,16,27,09,,,2.1,1.3,1.6*39
$GPRMC,220800.000,A,3759.0304,N,11954.4206,W,0.39,54.33,010414,,*25
$GPGGA,220801.000,3759.0305,N,11954.4205,W,1,10,1.3,1420.9,M,-23.2,M,,0000*51
$GPGSA,A,3,07,23,08,13,19,03,10,16,27,09,,,2.1,1.3,1.6*39
$GPRMC,220801.000,A,3759.0305,N,11954.4205,W,0.43,44.78,010414,,*25
$GPGGA,220802.000,3759.0306,N,11954.4205,W,1,10,1.3,1420.8,M,-23.2,M,,0000*50
$GPGSA,A,3,07,23,08,13,19,03,10,16,27,09,,,2.1,1.3,1.6*39
$GPGSV,3,1,12,13,76,015,34,23,56,112,43,07,52,287,37,10,39,289,36*7B
$GPGSV,3,2,12,16,36,046,39,03,29,110,35,08,27,265,32,27,23,089,33*77
$GPGSV,3,3,12,09,16,266,26,19,14,125,23,20,11,176,,28,04,209,*7F
$GPRMC,220802.000,A,3759.0306,N,11954.4205,W,0.40,49.41,010414,,*21
$GPGGA,220803.000,3759.0306,N,11954.4204,W,1,10,1.3,1420.9,M,-23.2,M,,0000*51
$GPGSA,A,3,07,23,08,13,19,03,10,16,27,09,,,2.1,1.3,1.6*39
$GPRMC,220803.000,A,3759.0306,N,11954.4204,W,0.39,49.32,010414,,*2B
$GPGGA,220804.000,3759.0307,N,11954.4203,W,1,09,1.5,1420.9,M,-23.2,M,,0000*5E
$GPGSA,A,3,07,23,08,13,03,10,16,27,09,,,,2.2,1.5,1.6*34
$GPRMC,220804.000,A,3759.0307,N,11954.4203,W,0.39,45.17,010414,,*21
$GPGGA,220805.000,3759.0308,N,11954.4202,W,1,10,1.3,1420.9,M,-23.2,M,,0000*5F
$GPGSA,A,3,07,23,08,13,19,03,10,16,27,09,,,2.1,1.3,1.6*39
$GPRMC,220805.000,A,3759.0308,N,11954.4202,W,0.40,41.15,010414,,*26
$GPGGA,220806.000,3759.0308,N,11954.4202,W,1,10,1.3,1421.0,M,-23.2,M,,0000*54
$GPGSA,A,3,07,23,08,13,19,03,10,16,27,09,,,2.1,1.3,1.6*39
$GPRMC,220806.000,A,3759.0308,N,11954.4202,W,0.40,40.47,010414,,*23
$GPGGA,220807.000,3759.0309,N,11954.4201,W,1,09,1.4,1421.1,M,-23.2,M,,0000*59
$GPGSA,A,3,07,23,13,19,03,10,16,27,09,,,,2.1,1.4,1.6*36
$GPGSV,3,1,12,13,76,015,34,23,56,112,42,07,52,287,36,10,39,289,36*7B
$GPGSV,3,2,12,16,36,046,40,03,29,110,35,08,27,265,20,27,23,089,34*7D
$GPGSV,3,3,12,09,16,266,26,19,14,125,17,20,11,176,,28,04,209,25*7F
$GPRMC,220807.000,A,3759.0309,N,11954.4201,W,0.44,36.75,010414,,*24
$GPGGA,220808.000,3759.0310,N,11954.4200,W,1,09,1.4,1421.2,M,-23.2,M,,0000*5C
$GPGSA,A,3,07,23,13,19,03,10,16,27,09,,,,2.1,1.4,1.6*36
$GPRMC,220808.000,A,3759.0310,N,11954.4200,W,0.43,34.11,010414,,*25
$GPGGA,220809.000,3759.0311,N,11954.4200,W,1,10,1.3,1421.4,M,-23.2,M,,0000*55
$GPGSA,A,3,07,23,08,13,19,03,10,16,27,09,,,2.1,1.3,1.6*39
$GPRMC,220809.000,A,3759.0311,N,11954.4200,W,0.48,36.70,010414,,*2B
$GPGGA,220810.000,3759.0312,N,11954.4199,W,1,10,1.3,1421.6,M,-23.2,M,,0000*5F
$GPGSA,A,3,07,23,08,13,19,03,10,16,27,09,,,2.1,1.3,1.6*39
$GPRMC,220810.000,A,3759.0312,N,11954.4199,W,0.46,31.85,010414,,*20
$GPGGA,220811.000,3759.0313,N,11954.4199,W,1,11,1.1,1422.1,M,-23.2,M,,0000*58
$GPGSA,A,3,07,23,08,13,20,19,03,10,16,27,09,,1.9,1.1,1.6*32
$GPRMC,220811.000,A,3759.0313,N,11954.4199,W,0.51,33.02,010414,,*2B
$GPGGA,220812.000,3759.0315,N,11954.4198,W,1,11,1.1,1422.6,M,-23.2,M,,0000*5B
$GPGSA,A,3,07,23,08,13,20,19,03,10,16,27,09,,1.9,1.1,1.6*32
$GPGSV,3,1,12,13,76,015,33,23,56,112,42,07,52,287,35,10,39,289,36*7F
$GPGSV,3,2,12,16,36,046,41,03,29,110,34,08,27,265,24,27,23,089,35*78
$GPGSV,3,3,12,09,16,266,27,19,14,125,25,20,11,176,23,28,04,209,26*7D
$GPRMC,220812.000,A,3759.0315,N,11954.4198,W,0.55,35.91,010414,,*27
$GPGGA,220813.000,3759.0316,N,11954.4198,W,1,11,1.1,1422.9,M,-23.2,M,,0000*56
$GPGSA,A,3,07,23,08,13,20,19,03,10,16,27,09,,1.9,1.1,1.6*32
$GPRMC,220813.000,A,3759.0316,N,11954.4198,W,0.47,37.02,010414,,*2E
$GPGGA,220814.000,3759.0317,N,11954.4197,W,1,11,1.1,1423.2,M,-23.2,M,,0000*55
$GPGSA,A,3,07,23,08,13,20,19,03,10,16,27,09,,1.9,1.1,1.6*32
$GPRMC,220814.000,A,3759.0317,N,11954.4197,W,0.47,38.60,010414,,*2C
$GPGGA,220815.000,3759.0319,N,11954.4196,W,1,11,1.1,1423.4,M,-23.2,M,,0000*5D
$GPGSA,A,3,07,23,08,13,20,19,03,10,16,27,09,,1.9,1.1,1.6*32
$GPRMC,220815.000,A,3759.0319,N,11954.4196,W,0.48,36.75,010414,,*27
$GPGGA,220816.000,3759.0320,N,11954.4196,W,1,11,1.1,1423.6,M,-23.2,M,,0000*56
$GPGSA,A,3,07,23,08,13,20,19,03,10,16,27,09,,1.9,1.1,1.6*32
$GPRMC,220816.000,A,3759.0320,N,11954.4196,W,0.36,34.17,010414,,*21
$GPGGA,220817.000,3759.0320,N,11954.4196,W,1,11,1.1,1423.8,M,-23.2,M,,0000*59
$GPGSA,A,3,07,23,08,13,20,19,03,10,16,27,09,,1.9,1.1,1.6*32
$GPGSV,3,1,12,13,76,015,33,23,56,112,42,07,52,287,34,10,39,289,35*7D
$GPGSV,3,2,12,16,36,046,41,03,29,110,34,08,27,265,26,27,23,089,36*79
$GPGSV,3,3,12,09,16,266,27,19,14,125,31,20,11,176,30,28,04,209,*7E
$GPRMC,220817.000,A,3759.0320,N,11954.4196,W,0.34,26.06,010414,,*21
$GPGGA,220818.000,3759.0321,N,11954.4195,W,1,11,1.1,1423.9,M,-23.2,M,,0000*55
$GPGSA,A,3,07,23,08,13,20,19,03,10,16,27,09,,1.9,1.1,1.6*32
$GPRMC,220818.000,A,3759.0321,N,11954.4195,W,0.36,38.67,010414,,*26
$GPGGA,220819.000,3759.0321,N,11954.4195,W,1,11,1.1,1424.0,M,-23.2,M,,0000*5A
$GPGSA,A,3,07,23,08,13,20,19,03,10,16,27,09,,1.9,1.1,1.6*32
$GPRMC,220819.000,A,3759.0321,N,11954.4195,W,0.36,33.89,010414,,*2C
$GPGGA,220820.000,3759.0322,N,11954.4195,W,1,11,1.1,1424.1,M,-23.2,M,,0000*52
$GPGSA,A,3,07,23,08,13,20,19,03,10,16,27,09,,1.9,1.1,1.6*32
$GPRMC,220820.000,A,3759.0322,N,11954.4195,W,0.36,35.85,010414,,*2F
$GPGGA,220821.000,3759.0323,N,11954.4195,W,1,11,1.1,1424.1,M,-23.2,M,,0000*52
$GPGSA,A,3,07,23,08,13,20,19,03,10,16,27,09,,1.9,1.1,1.6*32
$GPRMC,220821.000,A,3759.0323,N,11954.4195,W,0.37,41.08,010414,,*28
$GPGGA,220822.000,3759.0323,N,11954.4194,W,1,11,1.1,1424.0,M,-23.2,M,,0000*51
$GPGSA,A,3,07,23,08,13,20,19,03,10,16,27,09,,1.9,1.1,1.6*32
$GPGSV,3,1,12,13,76,015,33,23,56,112,43,07,52,287,29,10,39,289,30*75
$GPGSV,3,2,12,16,36,046,41,03,29,110,27,08,27,265,32,27,23,089,31*79
$GPGSV,3,3,12,09,16,266,19,19,14,125,32,20,11,176,30,28,04,209,23*71
$GPRMC,220822.000,A,3759.0323,N,11954.4194,W,0.40,40.55,010414,,*23
$GPGGA,220823.000,3759.0324,N,11954.4194,W,1,11,1.1,1424.0,M,-23.2,M,,0000*57
$GPGSA,A,3,07,23,08,13,20,19,03,10,16,27,09,,1.9,1.1,1.6*32
$GPRMC,220823.000,A,3759.0324,N,11954.4194,W,0.40,43.89,010414,,*27
$GPGGA,220824.000,3759.0325,N,11954.4193,W,1,11,1.1,1424.0,M,-23.2,M,,0000*56
$GPGSA,A,3,07,23,08,13,20,19,03,10,16,27,09,,1.9,1.1,1.6*32
$GPRMC,220824.000,A,3759.0325,N,11954.4193,W,0.38,39.39,010414,,*2F
$GPGGA,220825.000,3759.0326,N,11954.4193,W,1,11,1.1,1424.0,M,-23.2,M,,0000*54
$GPGSA,A,3,07,23,08,13,20,19,03,10,16,27,09,,1.9,1.1,1.6*32
$GPRMC,220825.000,A,3759.0326,N,11954.4193,W,0.38,42.69,010414,,*24
$GPGGA,220826.000,3759.0326,N,11954.4192,W,1,11,1.1,1424.0,M,-23.2,M,,0000*56
$GPGSA,A,3,07,23,08,13,20,19,03,10,16,27,09,,1.9,1.1,1.6*32
$GPRMC,220826.000,A,3759.0326,N,11954.4192,W,0.42,38.01,010414,,*28
$GPGGA,220827.000,3759.0327,N,11954.4192,W,1,11,1.1,1424.0,M,-23.2,M,,0000*56
$GPGSA,A,3,07,23,08,13,20,19,03,10,16,27,09,,1.9,1.1,1.6*32
$GPGSV,3,1,12,13,76,015,32,23,56,112,42,07,52,287,29,10,39,289,27*73
$GPGSV,3,2,12,16,36,046,41,03,29,110,28,08,27,265,33,27,23,089,28*7F
$GPGSV,3,3,12,09,16,266,16,19,14,125,32,20,11,176,25,28,04,209,23*7A
$GPRMC,220827.000,A,3759.0327,N,11954.4192,W,0.39,37.53,010414,,*2C
$GPGGA,220828.000,3759.0328,N,11954.4191,W,1,11,1.1,1424.1,M,-23.2,M,,0000*54
$GPGSA,A,3,07,23,08,13,20,19,03,10,16,27,09,,1.9,1.1,1.6*32
$GPRMC,220828.000,A,3759.0328,N,11954.4191,W,0.38,40.09,010414,,*21
$GPGGA,220829.000,3759.0329,N,11954.4191,W,1,11,1.1,1424.2,M,-23.2,M,,0000*57
$GPGSA,A,3,07,23,08,13,20,19,03,10,16,27,09,,1.9,1.1,1.6*32
$GPRMC,220829.000,A,3759.0329,N,11954.4191,W,0.37,30.95,010414,,*2C
$GPGGA,220830.000,3759.0330,N,11954.4191,W,1,11,1.1,1424.2,M,-23.2,M,,0000*57
$GPGSA,A,3,07,23,08,13,20,19,03,10,16,27,09,,1.9,1.1,1.6*32
$GPRMC,220830.000,A,3759.0330,N,11954.4191,W,0.35,356.06,010414,,*17
$GPGGA,220831.000,3759.0331,N,11954.4191,W,1,11,1.1,1424.3,M,-23.2,M,,0000*56
$GPGSA,A,3,07,23,08,13,20,19,03,10,16,27,09,,1.9,1.1,1.6*32
$GPRMC,220831.000,A,3759.0331,N,11954.4191,W,0.33,1.71,010414,,*10
$GPGGA,220832.000,3759.0332,N,11954.4191,W,1,11,1.1,1424.3,M,-23.2,M,,0000*56
$GPGSA,A,3,07,23,08,13,20,19,03,10,16,27,09,,1.9,1.1,1.6*32
$GPGSV,3,1,12,13,76,015,32,23,56,112,41,07,52,287,23,10,39,289,18*76
$GPGSV,3,2,12,16,36,046,41,03,29,110,20,08,27,265,33,27,23,089,29*76
$GPGSV,3,3,12,09,16,266,15,19,14,125,33,20,11,176,28,28,04,209,15*70
$GPRMC,220832.000,A,3759.0332,N,11954.4191,W,0.34,7.03,010414,,*14
$GPGGA,220833.000,3759.0333,N,11954.4191,W,1,11,1.1,1424.3,M,-23.2,M,,0000*56
$GPGSA,A,3,07,23,08,13,20,19,03,10,16,27,09,,1.9,1.1,1.6*32
$GPRMC,220833.000,A,3759.0333,N,11954.4191,W,0.31,18.73,010414,,*28
$GPGGA,220834.000,3759.0334,N,11954.4190,W,1,11,1.1,1424.4,M,-23.2,M,,0000*50
$GPGSA,A,3,07,23,08,13,20,19,03,10,16,27,09,,1.9,1.1,1.6*32
$GPRMC,220834.000,A,3759.0334,N,11954.4190,W,0.48,53.29,010414,,*27
$GPGGA,220835.000,3759.0335,N,11954.4189,W,1,11,1.1,1424.5,M,-23.2,M,,0000*59
$GPGSA,A,3,07,23,08,13,20,19,03,10,16,27,09,,1.9,1.1,1.6*32
$GPRMC,220835.000,A,3759.0335,N,11954.4189,W,0.48,51.76,010414,,*27
$GPGGA,220836.000,3759.0335,N,11954.4188,W,1,11,1.1,1424.5,M,-23.2,M,,0000*5B
$GPGSA,A,3,07,23,08,13,20,19,03,10,16,27,09,,1.9,1.1,1.6*32
$GPRMC,220836.000,A,3759.0335,N,11954.4188,W,0.46,51.57,010414,,*28
$GPGGA,220837.000,3759.0336,N,11954.4187,W,1,11,1.1,1424.6,M,-23.2,M,,0000*55
$GPGSA,A,3,07,23,08,13,20,19,03,10,16,27,09,,1.9,1.1,1.6*32
$GPGSV,3,1,12,13,76,015,31,23,56,112,41,07,52,287,23,10,39,289,21*7F
$GPGSV,3,2,12,16,36,046,41,03,29,110,21,08,27,265,32,27,23,089,30*7E
$GPGSV,3,3,12,09,16,266,16,19,14,125,33,20,11,176,29,28,04,209,14*73
$GPRMC,220837.000,A,3759.0336,N,11954.4187,W,0.41,47.51,010414,,*23
$GPGGA,220838.000,3759.0337,N,11954.4186,W,1,11,1.1,1424.7,M,-23.2,M,,0000*5B
$GPGSA,A,3,07,23,08,13,20,19,03,10,16,27,09,,1.9,1.1,1.6*32
$GPRMC,220838.000,A,3759.0337,N,11954.4186,W,0.39,28.60,010414,,*28
$GPGGA,220839.000,3759.0338,N,11954.4186,W,1,11,1.1,1424.7,M,-23.2,M,,0000*55
$GPGSA,A,3,07,23,08,13,20,19,03,10,16,27,09,,1.9,1.1,1.6*32
$GPRMC,220839.000,A,3759.0338,N,11954.4186,W,0.40,41.35,010414,,*27
$GPGGA,220840.000,3759.0339,N,11954.4186,W,1,11,1.1,1424.8,M,-23.2,M,,0000*55
$GPGSA,A,3,07,23,08,13,20,19,03,10,16,27,09,,1.9,1.1,1.6*32
$GPRMC,220840.000,A,3759.0339,N,11954.4186,W,0.40,10.88,010414,,*2A
$GPGGA,220841.000,3759.0340,N,11954.4186,W,1,11,1.1,1424.8,M,-23.2,M,,0000*5A
$GPGSA,A,3,07,23,08,13,20,19,03,10,16,27,09,,1.9,1.1,1.6*32
$GPRMC,220841.000,A,3759.0340,N,11954.4186,W,0.42,36.26,010414,,*27
$GPGGA,220842.000,3759.0341,N,11954.4185,W,1,11,1.1,1424.9,M,-23.2,M,,0000*5A
$GPGSA,A,3,07,23,08,13,20,19,03,10,16,27,09,,1.9,1.1,1.6*32
$GPGSV,3,1,12,13,76,015,31,23,56,112,40,07,52,287,32,10,39,289,31*7F
$GPGSV,3,2,12,16,36,046,41,03,29,110,31,08,27,265,19,27,23,089,30*76
$GPGSV,3,3,12,09,16,266,27,19,14,125,27,20,11,176,26,28,04,209,16*79
$GPRMC,220842.000,A,3759.0341,N,11954.4185,W,0.45,27.51,010414,,*21
$GPGGA,220843.000,3759.0342,N,11954.4184,W,1,10,1.1,1425.0,M,-23.2,M,,0000*50
$GPGSA,A,3,07,23,13,20,19,03,10,16,27,09,,,1.9,1.1,1.6*3A
$GPRMC,220843.000,A,3759.0342,N,11954.4184,W,0.46,27.32,010414,,*24
$GPGGA,220844.000,3759.0343,N,11954.4183,W,1,10,1.1,1425.0,M,-23.2,M,,0000*51
$GPGSA,A,3,07,23,13,20,19,03,10,16,27,09,,,1.9,1.1,1.6*3A
$GPRMC,220844.000,A,3759.0343,N,11954.4183,W,0.41,27.42,010414,,*25
$GPGGA,220845.000,3759.0344,N,11954.4183,W,1,11,1.1,1424.9,M,-23.2,M,,0000*5E
$GPGSA,A,3,07,23,08,13,20,19,03,10,16,27,09,,1.9,1.1,1.6*32
$GPRMC,220845.000,A,3759.0344,N,11954.4183,W,0.38,18.13,010414,,*25
$GPGGA,220846.000,3759.0346,N,11954.4182,W,1,10,1.3,1425.1,M,-23.2,M,,0000*54
$GPGSA,A,3,07,23,08,13,19,03,10,16,27,09,,,2.0,1.3,1.6*38
$GPRMC,220846.000,A,3759.0346,N,11954.4182,W,0.63,34.77,010414,,*27
$GPGGA,220847.000,3759.0347,N,11954.4181,W,1,11,1.1,1425.2,M,-23.2,M,,0000*57
$GPGSA,A,3,07,23,08,13,20,19,03,10,16,27,09,,1.9,1.1,1.6*32
$GPGSV,3,1,12,13,76,015,30,23,56,112,40,07,52,287,32,10,39,289,33*7C
$GPGSV,3,2,12,16,36,046,36,03,29,110,33,08,27,265,30,27,23,089,31*7E
$GPGSV,3,3,12,09,16,266,20,19,14,125,22,20,11,176,12,28,04,209,21*78
$GPRMC,220847.000,A,3759.0347,N,11954.4181,W,0.58,26.94,010414,,*22
$GPGGA,220848.000,3759.0348,N,11954.4180,W,1,11,1.1,1425.3,M,-23.2,M,,0000*57
$GPGSA,A,3,07,23,08,13,20,19,03,10,16,27,09,,1.9,1.1,1.6*32
$GPRMC,220848.000,A,3759.0348,N,11954.4180,W,0.59,23.31,010414,,*28
$GPGGA,220849.000,3759.0349,N,11954.4180,W,1,11,1.1,1425.4,M,-23.2,M,,0000*50
$GPGSA,A,3,07,23,08,13,20,19,03,10,16,27,09,,1.9,1.1,1.6*32
$GPRMC,220849.000,A,3759.0349,N,11954.4180,W,0.48,38.32,010414,,*21
$GPGGA,220850.000,3759.0350,N,11954.4179,W,1,11,1.1,1425.3,M,-23.2,M,,0000*51
$GPGSA,A,3,07,23,08,13,20,19,03,10,16,27,09,,1.9,1.1,1.6*32
$GPRMC,220850.000,A,3759.0350,N,11954.4179,W,0.30,24.99,010414,,*24
$GPGGA,220851.000,3759.0351,N,11954.4179,W,1,11,1.1,1425.4,M,-23.2,M,,0000*56
$GPGSA,A,3,07,23,08,13,20,19,03,10,16,27,09,,1.9,1.1,1.6*32
$GPRMC,220851.000,A,3759.0351,N,11954.4179,W,0.49,12.67,010414,,*2E
$GPGGA,220852.000,3759.0352,N,11954.4179,W,1,11,1.1,1425.5,M,-23.2,M,,0000*57
$GPGSA,A,3,07,23,08,13,20,19,03,10,16,27,09,,1.9,1.1,1.6*32
$GPGSV,3,1,12,13,76,015,32,23,56,112,36,07,52,287,30,10,39,289,26*79
$GPGSV,3,2,12,16,36,046,37,03,29,110,34,08,27,265,19,27,23,089,30*72
$GPGSV,3,3,12,09,16,266,22,19,14,125,19,20,11,176,25,28,04,209,22*75
$GPRMC,220852.000,A,3759.0352,N,11954.4179,W,0.59,16.49,010414,,*27
$GPGGA,220853.000,3759.0353,N,11954.4179,W,1,11,1.1,1425.5,M,-23.2,M,,0000*57
$GPGSA,A,3,07,23,08,13,20,19,03,10,16,27,09,,1.9,1.1,1.6*32
$GPRMC,220853.000,A,3759.0353,N,11954.4179,W,0.76,21.68,010414,,*2D
$GPGGA,220854.000,3759.0355,N,11954.4179,W,1,11,1.1,1425.5,M,-23.2,M,,0000*56
$GPGSA,A,3,07,23,08,13,20,19,03,10,16,27,09,,1.9,1.1,1.6*32
$GPRMC,220854.000,A,3759.0355,N,11954.4179,W,0.31,28.83,010414,,*23
$GPGGA,220855.000,3759.0355,N,11954.4179,W,1,11,1.1,1425.4,M,-23.2,M,,0000*56
$GPGSA,A,3,07,23,08,13,20,19,03,10,16,27,09,,1.9,1.1,1.6*32
$GPRMC,220855.000,A,3759.0355,N,11954.4179,W,0.28,44.72,010414,,*2E
$GPGGA,220856.000,3759.0356,N,11954.4178,W,1,11,1.1,1425.5,M,-23.2,M,,0000*56
$GPGSA,A,3,07,23,08,13,20,19,03,10,16,27,09,,1.9,1.1,1.6*32
$GPRMC,220856.000,A,3759.0356,N,11954.4178,W,0.34,59.66,010414,,*2B
$GPGGA,220857.000,3759.0357,N,11954.4177,W,1,11,1.1,1425.7,M,-23.2,M,,0000*5B
$GPGSA,A,3,07,23,08,13,20,19,03,10,16,27,09,,1.9,1.1,1.6*32
$GPGSV,3,1,12,13,76,015,33,23,56,112,37,07,52,287,38,10,39,289,35*73
$GPGSV,3,2,12,16,36,046,38,03,29,110,27,08,27,265,25,27,23,089,31*71
$GPGSV,3,3,12,09,16,266,37,19,14,125,20,20,11,176,23,28,04,209,*7D
$GPRMC,220857.000,A,3759.0357,N,11954.4177,W,0.45,41.75,010414,,*29
$GPGGA,220858.000,3759.0358,N,11954.4177,W,1,11,1.1,1425.9,M,-23.2,M,,0000*55
$GPGSA,A,3,07,23,08,13,20,19,03,10,16,27,09,,1.9,1.1,1.6*32
$GPRMC,220858.000,A,3759.0358,N,11954.4177,W,0.48,34.74,010414,,*27
$GPGGA,220859.000,3759.0359,N,11954.4175,W,1,11,1.1,1426.0,M,-23.2,M,,0000*5D
$GPGSA,A,3,07,23,08,13,20,19,03,10,16,27,09,,1.9,1.1,1.6*32
$GPRMC,220859.000,A,3759.0359,N,11954.4175,W,0.66,34.01,010414,,*2B
$GPGGA,220900.000,3759.0361,N,11954.4174,W,1,11,1.1,1426.2,M,-23.2,M,,0000*58
$GPGSA,A,3,07,23,08,13,20,19,03,10,16,27,09,,1.9,1.1,1.6*32
$GPRMC,220900.000,A,3759.0361,N,11954.4174,W,0.65,33.83,010414,,*22
$GPGGA,220901.000,3759.0362,N,11954.4174,W,1,11,1.1,1426.4,M,-23.2,M,,0000*5C
$GPGSA,A,3,07,23,08,13,20,19,03,10,16,27,09,,1.9,1.1,1.6*32
$GPRMC,220901.000,A,3759.0362,N,11954.4174,W,0.61,29.00,010414,,*24
$GPGGA,220902.000,3759.0364,N,11954.4173,W,1,11,1.1,1426.7,M,-23.2,M,,0000*5D
$GPGSA,A,3,07,23,08,13,20,19,03,10,16,27,09,,1.9,1.1,1.6*32
$GPGSV,3,1,12,13,76,015,34,23,56,112,37,07,52,287,37,10,39,289,35*7B
$GPGSV,3,2,12,16,36,046,38,03,29,110,33,08,27,265,25,27,23,089,24*70
$GPGSV,3,3,12,09,16,266,36,19,14,125,22,20,11,176,23,28,04,209,21*7D
$GPRMC,220902.000,A,3759.0364,N,11954.4173,W,0.81,18.95,010414,,*26
$GPGGA,220903.000,3759.0366,N,11954.4172,W,1,11,1.1,1427.0,M,-23.2,M,,0000*59
$GPGSA,A,3,07,23,08,13,20,19,03,10,16,27,09,,1.9,1.1,1.6*32
$GPRMC,220903.000,A,3759.0366,N,11954.4172,W,0.70,31.22,010414,,*2D
$GPGGA,220904.000,3759.0367,N,11954.4171,W,1,11,1.1,1427.2,M,-23.2,M,,0000*5E
$GPGSA,A,3,07,23,08,13,20,19,03,10,16,27,09,,1.9,1.1,1.6*32
$GPRMC,220904.000,A,3759.0367,N,11954.4171,W,0.44,53.03,010414,,*28
$GPGGA,220905.000,3759.0367,N,11954.4170,W,1,11,1.1,1427.2,M,-23.2,M,,0000*5E
$GPGSA,A,3,07,23,08,13,20,19,03,10,16,27,09,,1.9,1.1,1.6*32
$GPRMC,220905.000,A,3759.0367,N,11954.4170,W,0.46,45.53,010414,,*28
$GPGGA,220906.000,3759.0368,N,11954.4169,W,1,11,1.1,1427.1,M,-23.2,M,,0000*59
$GPGSA,A,3,07,23,08,13,20,19,03,10,16,27,09,,1.9,1.1,1.6*32
$GPRMC,220906.000,A,3759.0368,N,11954.4169,W,0.43,64.37,010414,,*28
$GPGGA,220907.000,3759.0368,N,11954.4168,W,1,11,1.1,1426.9,M,-23.2,M,,0000*50
$GPGSA,A,3,07,23,08,13,20,19,03,10,16,27,09,,1.9,1.1,1.6*32
$GPGSV,3,1,12,13,76,015,34,23,56,112,38,07,52,287,37,10,39,289,35*74
$GPGSV,3,2,12,16,36,046,33,03,29,110,35,08,27,265,21,27,23,089,26*7B
$GPGSV,3,3,12,09,16,266,32,19,14,125,18,20,11,176,25,28,04,209,16*72
$GPRMC,220907.000,A,3759.0368,N,11954.4168,W,0.38,48.78,010414,,*21
$GPGGA,220908.000,3759.0369,N,11954.4168,W,1,11,1.1,1426.8,M,-23.2,M,,0000*5F
$GPGSA,A,3,07,23,08,13,20,19,03,10,16,27,09,,1.9,1.1,1.6*32
$GPRMC,220908.000,A,3759.0369,N,11954.4168,W,0.51,41.22,010414,,*26
$GPGGA,220909.000,3759.0370,N,11954.4166,W,1,11,1.1,1426.7,M,-23.2,M,,0000*57
$GPGSA,A,3,07,23,08,13,20,19,03,10,16,27,09,,1.9,1.1,1.6*32
$GPRMC,220909.000,A,3759.0370,N,11954.4166,W,0.51,50.24,010414,,*27
$GPGGA,220910.000,3759.0371,N,11954.4165,W,1,11,1.1,1426.6,M,-23.2,M,,0000*5C
$GPGSA,A,3,07,23,08,13,20,19,03,10,16,27,09,,1.9,1.1,1.6*32
$GPRMC,220910.000,A,3759.0371,N,11954.4165,W,0.52,55.58,010414,,*20
$GPGGA,220911.000,3759.0372,N,11954.4164,W,1,11,1.1,1426.5,M,-23.2,M,,0000*5C
$GPGSA,A,3,07,23,08,13,20,19,03,10,16,27,09,,1.9,1.1,1.6*32
$GPRMC,220911.000,A,3759.0372,N,11954.4164,W,0.52,40.23,010414,,*2B
$GPGGA,220912.000,3759.0373,N,11954.4163,W,1,11,1.1,1426.3,M,-23.2,M,,0000*5F
$GPGSA,A,3,07,23,08,13,20,19,03,10,16,27,09,,1.9,1.1,1.6*32
$GPGSV,3,1,12,13,76,015,34,23,56,112,38,07,52,287,37,10,39,289,36*77
$GPGSV,3,2,12,16,36,046,33,03,29,110,36,08,27,265,23,27,23,089,27*7B
$GPGSV,3,3,12,09,16,266,33,19,14,125,20,20,11,176,25,28,04,209,16*78
$GPRMC,220912.000,A,3759.0373,N,11954.4163,W,0.43,45.37,010414,,*2E
$GPGGA,220913.000,3759.0373,N,11954.4162,W,1,11,1.1,1426.1,M,-23.2,M,,0000*5D
$GPGSA,A,3,07,23,08,13,20,19,03,10,16,27,09,,1.9,1.1,1.6*32
$GPRMC,220913.000,A,3759.0373,N,11954.4162,W,0.52,47.86,010414,,*26
$GPGGA,220914.000,3759.0374,N,11954.4162,W,1,11,1.1,1426.1,M,-23.2,M,,0000*5D
$GPGSA,A,3,07,23,08,13,20,19,03,10,16,27,09,,1.9,1.1,1.6*32
$GPRMC,220914.000,A,3759.0374,N,11954.4162,W,0.60,39.13,010414,,*22
$GPGGA,220915.000,3759.0375,N,11954.4161,W,1,10,1.1,1426.1,M,-23.2,M,,0000*5F
$GPGSA,A,3,07,23,08,13,20,03,10,16,27,09,,,1.9,1.1,1.6*3A
$GPRMC,220915.000,A,3759.0375,N,11954.4161,W,0.68,33.23,010414,,*20
$GPGGA,220916.000,3759.0375,N,11954.4160,W,1,10,1.1,1426.1,M,-23.2,M,,0000*5D
$GPGSA,A,3,07,23,08,13,20,03,10,16,27,09,,,1.9,1.1,1.6*3A
$GPRMC,220916.000,A,3759.0375,N,11954.4160,W,0.44,49.35,010414,,*26
$GPGGA,220917.000,3759.0376,N,11954.4159,W,1,11,1.1,1426.3,M,-23.2,M,,0000*56
$GPGSA,A,3,07,23,08,13,20,19,03,10,16,27,09,,1.9,1.1,1.6*32
$GPGSV,3,1,12,13,76,015,34,23,56,112,38,07,52,287,37,10,39,289,36*77
$GPGSV,3,2,12,16,36,046,35,03,29,110,32,08,27,265,24,27,23,089,27*7E
$GPGSV,3,3,12,09,16,266,34,19,14,125,12,20,11,176,22,28,04,209,25*79
$GPRMC,220917.000,A,3759.0376,N,11954.4159,W,0.29,64.32,010414,,*2D
$GPGGA,220918.000,3759.0377,N,11954.4158,W,1,11,1.1,1426.5,M,-23.2,M,,0000*5F
$GPGSA,A,3,07,23,08,13,20,19,03,10,16,27,09,,1.9,1.1,1.6*32
$GPRMC,220918.000,A,3759.0377,N,11954.4158,W,0.48,52.74,010414,,*22
$GPGGA,220919.000,3759.0377,N,11954.4157,W,1,11,1.1,1426.7,M,-23.2,M,,0000*53
$GPGSA,A,3,07,23,08,13,20,19,03,10,16,27,09,,1.9,1.1,1.6*32
$GPRMC,220919.000,A,3759.0377,N,11954.4157,W,0.40,51.21,010414,,*27
$GPGGA,220920.000,3759.0378,N,11954.4156,W,1,10,1.1,1426.9,M,-23.2,M,,0000*58
$GPGSA,A,3,07,23,08,13,20,19,03,10,16,09,,,2.0,1.1,1.7*3C
$GPRMC,220920.000,A,3759.0378,N,11954.4156,W,0.44,62.35,010414,,*22
$GPGGA,220921.000,3759.0379,N,11954.4155,W,1,11,1.1,1427.1,M,-23.2,M,,0000*53
$GPGSA,A,3,07,23,08,13,20,19,03,10,16,27,09,,1.9,1.1,1.6*32
$GPRMC,220921.000,A,3759.0379,N,11954.4155,W,0.42,70.05,010414,,*27
$GPGGA,220922.000,3759.0379,N,11954.4154,W,1,10,1.1,1427.2,M,-23.2,M,,0000*53
$GPGSA,A,3,07,23,13,20,19,03,10,16,27,09,,,1.9,1.1,1.6*3A
$GPGSV,3,1,12,13,76,015,34,23,56,112,39,07,52,287,36,10,39,289,36*77
$GPGSV,3,2,12,16,36,046,37,03,29,110,22,08,27,265,14,27,23,089,34*7C
$GPGSV,3,3,12,09,16,266,35,19,14,125,23,20,11,176,17,28,04,209,10*7A
$GPRMC,220922.000,A,3759.0379,N,11954.4154,W,0.42,75.29,010414,,*2E
$GPGGA,220923.000,3759.0380,N,11954.4153,W,1,10,1.1,1427.5,M,-23.2,M,,0000*54
$GPGSA,A,3,07,23,13,20,19,03,10,16,27,09,,,1.9,1.1,1.6*3A
$GPRMC,220923.000,A,3759.0380,N,11954.4153,W,0.59,38.12,010414,,*25
$GPGGA,220924.000,3759.0382,N,11954.4152,W,1,11,1.1,1427.8,M,-23.2,M,,0000*5C
$GPGSA,A,3,07,23,08,13,20,19,03,10,16,27,09,,1.9,1.1,1.6*32
$GPRMC,220924.000,A,3759.0382,N,11954.4152,W,0.83,34.74,010414,,*2A
$GPGGA,220925.000,3759.0384,N,11954.4151,W,1,11,1.1,1428.2,M,-23.2,M,,0000*5D
$GPGSA,A,3,07,23,08,13,20,19,03,10,16,27,09,,1.9,1.1,1.6*32
$GPRMC,220925.000,A,3759.0384,N,11954.4151,W,0.74,32.03,010414,,*20
$GPGGA,220926.000,3759.0386,N,11954.4150,W,1,11,1.1,1428.4,M,-23.2,M,,0000*5B
$GPGSA,A,3,07,23,08,13,20,19,03,10,16,27,09,,1.9,1.1,1.6*32
$GPRMC,220926.000,A,3759.0386,N,11954.4150,W,0.59,48.98,010414,,*20
$GPGGA,220927.000,3759.0387,N,11954.4148,W,1,11,1.1,1428.7,M,-23.2,M,,0000*51
$GPGSA,A,3,07,23,08,13,20,19,03,10,16,27,09,,1.9,1.1,1.6*32
$GPGSV,3,1,12,13,76,015,33,23,56,112,39,07,52,287,36,10,39,289,36*70
$GPGSV,3,2,12,16,36,046,38,03,29,110,21,08,27,265,14,27,23,089,32*76
$GPGSV,3,3,12,09,16,266,36,19,14,125,24,20,11,176,18,28,04,209,*70
$GPRMC,220927.000,A,3759.0387,N,11954.4148,W,0.57,59.03,010414,,*25
$GPGGA,220928.000,3759.0388,N,11954.4147,W,1,11,1.1,1428.9,M,-23.2,M,,0000*50
$GPGSA,A,3,07,23,08,13,20,19,03,10,16,27,09,,1.9,1.1,1.6*32
$GPRMC,220928.000,A,3759.0388,N,11954.4147,W,0.66,44.71,010414,,*21
$GPGGA,220929.000,3759.0390,N,11954.4146,W,1,11,1.1,1429.2,M,-23.2,M,,0000*53
$GPGSA,A,3,07,23,08,13,20,19,03,10,16,27,09,,1.9,1.1,1.6*32
$GPRMC,220929.000,A,3759.0390,N,11954.4146,W,0.64,34.41,010414,,*2E
$GPGGA,220930.000,3759.0391,N,11954.4145,W,1,11,1.1,1429.4,M,-23.2,M,,0000*5F
$GPGSA,A,3,07,23,08,13,20,19,03,10,16,27,09,,1.9,1.1,1.6*32
$GPRMC,220930.000,A,3759.0391,N,11954.4145,W,0.36,42.07,010414,,*20
$GPGGA,220931.000,3759.0391,N,11954.4145,W,1,11,1.1,1429.3,M,-23.2,M,,0000*59
$GPGSA,A,3,07,23,08,13,20,19,03,10,16,27,09,,1.9,1.1,1.6*32
