$GPGGA,184651.000,3758.7891,N,11954.5842,W,2,06,1.7,1420.8,M,-23.2,M,8.8,0000*70
$GPGSA,A,3,02,05,25,10,31,12,,,,,,,3.0,1.7,2.5*30
$GPRMC,184651.000,A,3758.7891,N,11954.5842,W,1.03,165.07,291013,,*1C
$GPGGA,184652.000,3758.7898,N,11954.5840,W,2,06,1.7,1421.4,M,-23.2,M,9.8,0000*74
$GPGSA,A,3,02,05,25,10,31,12,,,,,,,3.0,1.7,2.5*30
$GPRMC,184652.000,A,3758.7898,N,11954.5840,W,0.75,87.72,291013,,*2B
$GPGGA,184653.000,3758.7900,N,11954.5837,W,2,06,1.7,1420.4,M,-23.2,M,10.8,0000*4C
$GPGSA,A,3,02,05,25,10,31,12,,,,,,,3.0,1.7,2.5*30
$GPRMC,184653.000,A,3758.7900,N,11954.5837,W,0.85,52.03,291013,,*2B
$GPGGA,184654.000,3758.7907,N,11954.5835,W,2,06,1.7,1420.9,M,-23.2,M,11.8,0000*42
$GPGSA,A,3,02,05,25,10,31,12,,,,,,,3.0,1.7,2.5*30
$GPRMC,184654.000,A,3758.7907,N,11954.5835,W,1.03,37.32,291013,,*27
$GPGGA,184655.000,3758.7914,N,11954.5835,W,2,06,1.7,1421.1,M,-23.2,M,12.8,0000*4B
$GPGSA,A,3,02,05,25,10,31,12,,,,,,,3.0,1.7,2.5*30
$GPGSV,3,1,10,25,66,286,24,12,61,168,17,05,50,118,19,02,47,047,29*73
$GPGSV,3,2,10,29,45,306,,10,25,051,23,31,13,308,19,21,09,238,16*72
$GPGSV,3,3,10,04,05,054,,24,01,194,*73
$GPRMC,184655.000,A,3758.7914,N,11954.5835,W,1.04,6.90,291013,,*19
$GPGGA,184656.000,3758.7916,N,11954.5833,W,2,06,1.7,1421.2,M,-23.2,M,13.8,0000*4E
$GPGSA,A,3,02,05,25,10,31,12,,,,,,,3.0,1.7,2.5*30
$GPRMC,184656.000,A,3758.7916,N,11954.5833,W,0.67,28.60,291013,,*29
$GPGGA,184657.000,3758.7924,N,11954.5835,W,2,06,1.7,1422.1,M,-23.2,M,14.8,0000*4F
$GPGSA,A,3,02,05,25,10,31,12,,,,,,,3.0,1.7,2.5*30
$GPRMC,184657.000,A,3758.7924,N,11954.5835,W,0.73,11.05,291013,,*23
$GPGGA,184658.000,3758.7931,N,11954.5840,W,2,06,1.7,1423.2,M,-23.2,M,15.8,0000*45
$GPGSA,A,3,02,05,25,10,31,12,,,,,,,3.0,1.7,2.5*30
$GPRMC,184658.000,A,3758.7931,N,11954.5840,W,0.84,12.49,291013,,*29
$GPGGA,184659.000,3758.7928,N,11954.5840,W,2,06,1.7,1422.6,M,-23.2,M,16.8,0000*4A
$GPGSA,A,3,02,05,25,10,31,12,,,,,,,3.0,1.7,2.5*30
$GPRMC,184659.000,A,3758.7928,N,11954.5840,W,0.55,23.50,291013,,*26
$GPGGA,184700.000,3758.7934,N,11954.5842,W,2,06,1.7,1424.1,M,-23.2,M,17.8,0000*48
$GPGSA,A,3,02,05,25,10,31,12,,,,,,,3.0,1.7,2.5*30
$GPGSV,3,1,10,25,66,286,25,12,61,168,18,05,50,118,21,02,47,047,29*76
$GPGSV,3,2,10,29,45,306,,10,25,051,24,31,13,308,19,21,09,238,15*76
$GPGSV,3,3,10,04,05,054,,24,01,194,*73
$GPRMC,184700.000,A,3758.7934,N,11954.5842,W,0.40,350.00,291013,,*12
$GPGGA,184701.000,3758.7935,N,11954.5841,W,1,06,1.7,1425.7,M,-23.2,M,18.8,0000*40
$GPGSA,A,3,02,05,25,10,31,12,,,,,,,3.0,1.7,2.5*30
$GPRMC,184701.000,A,3758.7935,N,11954.5841,W,0.11,153.39,291013,,*1E
$GPGGA,184702.000,3758.7935,N,11954.5841,W,1,06,1.7,1425.2,M,-23.2,M,18.8,0000*46
$GPGSA,A,3,02,05,25,10,31,12,,,,,,,3.0,1.7,2.5*30
$GPRMC,184702.000,A,3758.7935,N,11954.5841,W,0.18,59.52,291013,,*22
$GPGGA,184703.000,3758.7932,N,11954.5841,W,1,06,1.7,1424.7,M,-23.2,M,18.8,0000*44
$GPGSA,A,3,02,05,25,10,31,12,,,,,,,3.0,1.7,2.5*30
$GPRMC,184703.000,A,3758.7932,N,11954.5841,W,0.31,353.43,291013,,*16
$GPGGA,184704.000,3758.7930,N,11954.5840,W,1,06,1.7,1424.1,M,-23.2,M,18.8,0000*46
$GPGSA,A,3,02,05,25,10,31,12,,,,,,,3.0,1.7,2.5*30
$GPRMC,184704.000,A,3758.7930,N,11954.5840,W,0.49,17.44,291013,,*29
$GPGGA,184705.000,3758.7935,N,11954.5841,W,1,07,1.5,1425.3,M,-23.2,M,22.8,0000*4A
$GPGSA,A,3,02,05,25,10,29,31,12,,,,,,2.8,1.5,2.3*36
$GPGSV,3,1,10,25,66,286,25,12,61,168,18,05,50,118,22,02,47,047,28*74
$GPGSV,3,2,10,29,45,306,20,10,25,051,25,31,13,308,21,21,09,238,15*7E
$GPGSV,3,3,10,04,05,054,,24,01,194,*73
$GPRMC,184705.000,A,3758.7935,N,11954.5841,W,0.61,17.80,291013,,*2E
$GPGGA,184706.000,3758.7940,N,11954.5844,W,1,07,1.5,1426.2,M,-23.2,M,22.8,0000*4C
$GPGSA,A,3,02,05,25,10,29,31,12,,,,,,2.8,1.5,2.3*36
$GPRMC,184706.000,A,3758.7940,N,11954.5844,W,0.62,27.62,291013,,*26
$GPGGA,184707.000,3758.7942,N,11954.5844,W,1,07,1.5,1425.5,M,-23.2,M,22.8,0000*4B
$GPGSA,A,3,02,05,25,10,29,31,12,,,,,,2.8,1.5,2.3*36
$GPRMC,184707.000,A,3758.7942,N,11954.5844,W,0.91,358.23,291013,,*17
$GPGGA,184708.000,3758.7947,N,11954.5844,W,1,07,1.5,1425.5,M,-23.2,M,22.8,0000*41
$GPGSA,A,3,02,05,25,10,29,31,12,,,,,,2.8,1.5,2.3*36
$GPRMC,184708.000,A,3758.7947,N,11954.5844,W,1.09,354.22,291013,,*10
$GPGGA,184709.000,3758.7951,N,11954.5844,W,1,07,1.5,1424.9,M,-23.2,M,22.8,0000*4A
$GPGSA,A,3,02,05,25,10,29,31,12,,,,,,2.8,1.5,2.3*36
$GPRMC,184709.000,A,3758.7951,N,11954.5844,W,0.96,12.33,291013,,*20
$GPGGA,184710.000,3758.7955,N,11954.5843,W,1,07,1.5,1425.2,M,-23.2,M,22.8,0000*4B
$GPGSA,A,3,02,05,25,10,29,31,12,,,,,,2.8,1.5,2.3*36
$GPGSV,3,1,10,25,66,286,26,12,61,168,17,05,50,118,22,02,47,047,28*78
$GPGSV,3,2,10,29,45,306,21,10,25,051,25,31,13,308,22,21,09,238,15*7C
$GPGSV,3,3,10,04,05,054,,24,01,194,*73
$GPRMC,184710.000,A,3758.7955,N,11954.5843,W,0.82,7.41,291013,,*1F
$GPGGA,184711.000,3758.7953,N,11954.5841,W,1,07,1.5,1425.0,M,-23.2,M,22.8,0000*4C
$GPGSA,A,3,02,05,25,10,29,31,12,,,,,,2.8,1.5,2.3*36
$GPRMC,184711.000,A,3758.7953,N,11954.5841,W,0.17,63.19,291013,,*29
$GPGGA,184712.000,3758.7952,N,11954.5839,W,1,07,1.5,1425.0,M,-23.2,M,22.8,0000*41
$GPGSA,A,3,02,05,25,10,29,31,12,,,,,,2.8,1.5,2.3*36
$GPRMC,184712.000,A,3758.7952,N,11954.5839,W,0.22,49.72,291013,,*27
$GPGGA,184713.000,3758.7955,N,11954.5837,W,1,07,1.5,1425.7,M,-23.2,M,22.8,0000*4E
$GPGSA,A,3,02,05,25,10,29,31,12,,,,,,2.8,1.5,2.3*36
$GPRMC,184713.000,A,3758.7955,N,11954.5837,W,0.47,49.91,291013,,*21
$GPGGA,184714.000,3758.7953,N,11954.5833,W,1,07,1.5,1425.3,M,-23.2,M,22.8,0000*4F
$GPGSA,A,3,02,05,25,10,29,31,12,,,,,,2.8,1.5,2.3*36
$GPRMC,184714.000,A,3758.7953,N,11954.5833,W,0.54,50.95,291013,,*2A
$GPGGA,184715.000,3758.7950,N,11954.5831,W,1,07,1.5,1424.6,M,-23.2,M,22.8,0000*4B
$GPGSA,A,3,02,05,25,10,29,31,12,,,,,,2.8,1.5,2.3*36
$GPGSV,3,1,10,25,66,286,27,12,61,168,19,05,50,118,22,02,47,047,28*77
$GPGSV,3,2,10,29,45,306,22,10,25,051,26,31,13,308,22,21,09,238,17*7E
$GPGSV,3,3,10,04,05,054,,24,01,194,*73
$GPRMC,184715.000,A,3758.7950,N,11954.5831,W,0.26,92.68,291013,,*23
$GPGGA,184716.000,3758.7943,N,11954.5827,W,1,07,1.5,1423.8,M,-23.2,M,22.8,0000*44
$GPGSA,A,3,02,05,25,10,29,31,12,,,,,,2.8,1.5,2.3*36
$GPRMC,184716.000,A,3758.7943,N,11954.5827,W,0.67,116.41,291013,,*16
$GPGGA,184717.000,3758.7938,N,11954.5823,W,1,07,1.5,1423.2,M,-23.2,M,22.8,0000*47
$GPGSA,A,3,02,05,25,10,29,31,12,,,,,,2.8,1.5,2.3*36
$GPRMC,184717.000,A,3758.7938,N,11954.5823,W,0.56,74.42,291013,,*2B
$GPGGA,184718.000,3758.7938,N,11954.5820,W,1,07,1.5,1423.3,M,-23.2,M,22.8,0000*4A
$GPGSA,A,3,02,05,25,10,29,31,12,,,,,,2.8,1.5,2.3*36
$GPRMC,184718.000,A,3758.7938,N,11954.5820,W,0.83,112.83,291013,,*13
$GPGGA,184719.000,3758.7936,N,11954.5817,W,1,07,1.5,1423.0,M,-23.2,M,22.8,0000*42
$GPGSA,A,3,02,05,25,10,29,31,12,,,,,,2.8,1.5,2.3*36
$GPRMC,184719.000,A,3758.7936,N,11954.5817,W,0.51,110.86,291013,,*10
$GPGGA,184720.000,3758.7935,N,11954.5813,W,1,07,1.5,1423.1,M,-23.2,M,22.8,0000*4E
$GPGSA,A,3,02,05,25,10,29,31,12,,,,,,2.8,1.5,2.3*36
$GPGSV,3,1,10,25,66,286,27,12,61,168,19,05,50,118,21,02,47,047,28*74
$GPGSV,3,2,10,29,45,306,23,10,25,051,27,31,13,308,21,21,09,238,18*72
$GPGSV,3,3,10,04,05,054,,24,01,194,*73
$GPRMC,184720.000,A,3758.7935,N,11954.5813,W,0.47,124.53,291013,,*15
$GPGGA,184721.000,3758.7941,N,11954.5816,W,1,07,1.5,1423.0,M,-23.2,M,22.8,0000*48
$GPGSA,A,3,02,05,25,10,29,31,12,,,,,,2.8,1.5,2.3*36
$GPRMC,184721.000,A,3758.7941,N,11954.5816,W,0.85,343.20,291013,,*1B
$GPGGA,184722.000,3758.7948,N,11954.5820,W,1,07,1.5,1422.9,M,-23.2,M,22.8,0000*4F
$GPGSA,A,3,02,05,25,10,29,31,12,,,,,,2.8,1.5,2.3*36
$GPRMC,184722.000,A,3758.7948,N,11954.5820,W,1.30,345.41,291013,,*1A
$GPGGA,184723.000,3758.7958,N,11954.5821,W,1,07,1.5,1423.7,M,-23.2,M,22.8,0000*41
$GPGSA,A,3,02,05,25,10,29,31,12,,,,,,2.8,1.5,2.3*36
$GPRMC,184723.000,A,3758.7958,N,11954.5821,W,1.09,352.19,291013,,*1A
$GPGGA,184724.000,3758.7965,N,11954.5824,W,1,07,1.5,1424.5,M,-23.2,M,22.8,0000*48
$GPGSA,A,3,02,05,25,10,29,31,12,,,,,,2.8,1.5,2.3*36
$GPRMC,184724.000,A,3758.7965,N,11954.5824,W,1.21,348.04,291013,,*1B
$GPGGA,184725.000,3758.7971,N,11954.5824,W,1,07,1.5,1425.0,M,-23.2,M,22.8,0000*48
$GPGSA,A,3,02,05,25,10,29,31,12,,,,,,2.8,1.5,2.3*36
$GPGSV,3,1,10,25,66,286,27,12,61,168,20,05,50,118,20,02,47,047,28*7F
$GPGSV,3,2,10,29,45,306,23,10,25,051,27,31,13,308,21,21,09,238,18*72
$GPGSV,3,3,10,04,05,054,,24,01,194,*73
$GPRMC,184725.000,A,3758.7971,N,11954.5824,W,0.69,2.02,291013,,*19
$GPGGA,184726.000,3758.7967,N,11954.5818,W,1,07,1.5,1424.5,M,-23.2,M,22.8,0000*47
$GPGSA,A,3,02,05,25,10,29,31,12,,,,,,2.8,1.5,2.3*36
$GPRMC,184726.000,A,3758.7967,N,11954.5818,W,0.45,107.84,291013,,*16
$GPGGA,184727.000,3758.7971,N,11954.5818,W,1,07,1.5,1424.7,M,-23.2,M,22.8,0000*43
$GPGSA,A,3,02,05,25,10,29,31,12,,,,,,2.8,1.5,2.3*36
$GPRMC,184727.000,A,3758.7971,N,11954.5818,W,0.66,1.01,291013,,*1B
$GPGGA,184728.000,3758.7970,N,11954.5816,W,1,07,1.5,1424.8,M,-23.2,M,22.8,0000*4C
$GPGSA,A,3,02,05,25,10,29,31,12,,,,,,2.8,1.5,2.3*36
$GPRMC,184728.000,A,3758.7970,N,11954.5816,W,0.67,6.65,291013,,*1F
$GPGGA,184729.000,3758.7971,N,11954.5814,W,1,07,1.5,1424.7,M,-23.2,M,22.8,0000*41
$GPGSA,A,3,02,05,25,10,29,31,12,,,,,,2.8,1.5,2.3*36
$GPRMC,184729.000,A,3758.7971,N,11954.5814,W,0.45,43.03,291013,,*2C
$GPGGA,184730.000,3758.7968,N,11954.5813,W,1,07,1.5,1424.8,M,-23.2,M,22.8,0000*49
$GPGSA,A,3,02,05,25,10,29,31,12,,,,,,2.8,1.5,2.3*36
$GPGSV,3,1,10,25,66,286,27,12,61,168,21,05,50,118,20,02,47,047,29*7F
$GPGSV,3,2,10,29,45,306,23,10,25,051,27,31,13,308,22,21,09,238,18*71
$GPGSV,3,3,10,04,05,054,,24,01,194,*73
$GPRMC,184730.000,A,3758.7968,N,11954.5813,W,0.40,35.93,291013,,*26
$GPGGA,184731.000,3758.7966,N,11954.5811,W,1,07,1.5,1425.0,M,-23.2,M,22.8,0000*4D
$GPGSA,A,3,02,05,25,10,29,31,12,,,,,,2.8,1.5,2.3*36
$GPRMC,184731.000,A,3758.7966,N,11954.5811,W,0.36,32.08,291013,,*2F
$GPGGA,184732.000,3758.7969,N,11954.5813,W,1,07,1.5,1425.7,M,-23.2,M,22.8,0000*44
$GPGSA,A,3,02,05,25,10,29,31,12,,,,,,2.8,1.5,2.3*36
$GPRMC,184732.000,A,3758.7969,N,11954.5813,W,0.18,31.84,291013,,*2A
$GPGGA,184733.000,3758.7962,N,11954.5808,W,1,07,1.5,1425.6,M,-23.2,M,22.8,0000*45
$GPGSA,A,3,02,05,25,10,29,31,12,,,,,,2.8,1.5,2.3*36
$GPRMC,184733.000,A,3758.7962,N,11954.5808,W,0.34,60.44,291013,,*2C
$GPGGA,184734.000,3758.7960,N,11954.5804,W,1,07,1.5,1425.5,M,-23.2,M,22.8,0000*4F
$GPGSA,A,3,02,05,25,10,29,31,12,,,,,,2.8,1.5,2.3*36
$GPRMC,184734.000,A,3758.7960,N,11954.5804,W,0.61,105.14,291013,,*12
$GPGGA,184735.000,3758.7959,N,11954.5800,W,1,07,1.5,1425.8,M,-23.2,M,22.8,0000*4D
$GPGSA,A,3,02,05,25,10,29,31,12,,,,,,2.8,1.5,2.3*36
$GPGSV,3,1,10,25,66,286,27,12,61,168,21,05,50,118,20,02,47,047,29*7F
$GPGSV,3,2,10,29,45,306,22,10,25,051,27,31,13,308,22,21,09,238,18*70
$GPGSV,3,3,10,04,05,054,,24,01,194,*73
$GPRMC,184735.000,A,3758.7959,N,11954.5800,W,0.66,17.96,291013,,*22
$GPGGA,184736.000,3758.7960,N,11954.5797,W,1,07,1.5,1425.8,M,-23.2,M,22.8,0000*45
$GPGSA,A,3,02,05,25,10,29,31,12,,,,,,2.8,1.5,2.3*36
$GPRMC,184736.000,A,3758.7960,N,11954.5797,W,0.60,14.13,291013,,*22
$GPGGA,184737.000,3758.7967,N,11954.5796,W,1,07,1.5,1426.5,M,-23.2,M,22.8,0000*4C
$GPGSA,A,3,02,05,25,10,29,31,12,,,,,,2.8,1.5,2.3*36
$GPRMC,184737.000,A,3758.7967,N,11954.5796,W,0.53,16.44,291013,,*25
$GPGGA,184738.000,3758.7965,N,11954.5795,W,1,07,1.5,1427.1,M,-23.2,M,22.8,0000*47
$GPGSA,A,3,02,05,25,10,29,31,12,,,,,,2.8,1.5,2.3*36
$GPRMC,184738.000,A,3758.7965,N,11954.5795,W,0.65,21.16,291013,,*2D
$GPGGA,184739.000,3758.7964,N,11954.5793,W,1,07,1.5,1427.4,M,-23.2,M,22.8,0000*44
$GPGSA,A,3,02,05,25,10,29,31,12,,,,,,2.8,1.5,2.3*36
$GPRMC,184739.000,A,3758.7964,N,11954.5793,W,0.44,87.42,291013,,*25
$GPGGA,184740.000,3758.7964,N,11954.5790,W,1,07,1.5,1428.2,M,-23.2,M,22.8,0000*40
$GPGSA,A,3,02,05,25,10,29,31,12,,,,,,2.8,1.5,2.3*36
$GPGSV,3,1,10,25,66,286,27,12,61,168,22,05,50,118,21,02,47,047,29*7D
$GPGSV,3,2,10,29,45,306,23,10,25,051,26,31,13,308,22,21,09,238,18*70
$GPGSV,3,3,10,04,05,054,,24,01,194,*73
$GPRMC,184740.000,A,3758.7964,N,11954.5790,W,0.45,52.40,291013,,*23
$GPGGA,184741.000,3758.7968,N,11954.5790,W,1,07,1.5,1428.7,M,-23.2,M,22.8,0000*48
$GPGSA,A,3,02,05,25,10,29,31,12,,,,,,2.8,1.5,2.3*36
$GPRMC,184741.000,A,3758.7968,N,11954.5790,W,0.38,46.21,291013,,*26
$GPGGA,184742.000,3758.7969,N,11954.5787,W,1,07,1.5,1429.0,M,-23.2,M,22.8,0000*4A
$GPGSA,A,3,02,05,25,10,29,31,12,,,,,,2.8,1.5,2.3*36
$GPRMC,184742.000,A,3758.7969,N,11954.5787,W,0.64,9.63,291013,,*16
$GPGGA,184743.000,3758.7973,N,11954.5788,W,1,07,1.5,1429.8,M,-23.2,M,22.8,0000*47
$GPGSA,A,3,02,05,25,10,29,31,12,,,,,,2.8,1.5,2.3*36
$GPRMC,184743.000,A,3758.7973,N,11954.5788,W,0.74,26.08,291013,,*22
$GPGGA,184744.000,3758.7982,N,11954.5788,W,1,07,1.5,1430.9,M,-23.2,M,22.8,0000*47
$GPGSA,A,3,02,05,25,10,29,31,12,,,,,,2.8,1.5,2.3*36
$GPRMC,184744.000,A,3758.7982,N,11954.5788,W,0.74,16.32,291013,,*21
$GPGGA,184745.000,3758.7985,N,11954.5788,W,1,07,1.5,1431.4,M,-23.2,M,22.8,0000*4D
$GPGSA,A,3,02,05,25,10,29,31,12,,,,,,2.8,1.5,2.3*36
$GPGSV,3,1,10,25,66,286,27,12,61,168,22,05,50,118,22,02,47,047,28*7F
$GPGSV,3,2,10,29,45,306,23,10,25,051,26,31,13,308,19,21,09,238,17*77
$GPGSV,3,3,10,04,05,054,,24,01,194,*73
$GPRMC,184745.000,A,3758.7985,N,11954.5788,W,0.51,26.63,291013,,*27
$GPGGA,184746.000,3758.7987,N,11954.5786,W,1,07,1.5,1431.7,M,-23.2,M,22.8,0000*41
$GPGSA,A,3,02,05,25,10,29,31,12,,,,,,2.8,1.5,2.3*36
$GPRMC,184746.000,A,3758.7987,N,11954.5786,W,0.73,27.89,291013,,*2D
$GPGGA,184747.000,3758.7991,N,11954.5785,W,1,07,1.5,1432.2,M,-23.2,M,22.8,0000*42
$GPGSA,A,3,02,05,25,10,29,31,12,,,,,,2.8,1.5,2.3*36
$GPRMC,184747.000,A,3758.7991,N,11954.5785,W,0.76,34.18,291013,,*27
$GPGGA,184748.000,3758.7993,N,11954.5783,W,1,07,1.5,1432.6,M,-23.2,M,22.8,0000*4D
$GPGSA,A,3,02,05,25,10,29,31,12,,,,,,2.8,1.5,2.3*36
$GPRMC,184748.000,A,3758.7993,N,11954.5783,W,0.76,40.03,291013,,*25
$GPGGA,184749.000,3758.7996,N,11954.5781,W,1,07,1.5,1433.0,M,-23.2,M,22.8,0000*4C
$GPGSA,A,3,02,05,25,10,29,31,12,,,,,,2.8,1.5,2.3*36
$GPRMC,184749.000,A,3758.7996,N,11954.5781,W,0.75,33.15,291013,,*23
$GPGGA,184750.000,3758.8000,N,11954.5780,W,1,07,1.5,1433.3,M,-23.2,M,22.8,0000*4F
$GPGSA,A,3,02,05,25,10,29,31,12,,,,,,2.8,1.5,2.3*36
$GPGSV,3,1,10,25,66,286,29,12,61,168,27,05,50,118,31,02,47,047,28*76
$GPGSV,3,2,10,29,45,306,29,10,25,051,28,31,13,308,20,21,09,238,23*7E
$GPGSV,3,3,10,04,05,054,,24,01,194,*73
$GPRMC,184750.000,A,3758.8000,N,11954.5780,W,0.72,28.00,291013,,*2A
$GPGGA,184751.000,3758.8003,N,11954.5780,W,1,07,1.5,1433.5,M,-23.2,M,22.8,0000*4B
$GPGSA,A,3,02,05,25,10,29,31,12,,,,,,2.8,1.5,2.3*36
$GPRMC,184751.000,A,3758.8003,N,11954.5780,W,0.71,33.46,291013,,*23
$GPGGA,184752.000,3758.8005,N,11954.5778,W,1,07,1.5,1434.1,M,-23.2,M,22.8,0000*4A
$GPGSA,A,3,02,05,25,10,29,31,12,,,,,,2.8,1.5,2.3*36
$GPRMC,184752.000,A,3758.8005,N,11954.5778,W,0.77,60.33,291013,,*23
$GPGGA,184753.000,3758.8007,N,11954.5775,W,1,07,1.5,1434.9,M,-23.2,M,22.8,0000*4C
$GPGSA,A,3,02,05,25,10,29,31,12,,,,,,2.8,1.5,2.3*36
$GPRMC,184753.000,A,3758.8007,N,11954.5775,W,0.80,65.48,291013,,*2C
$GPGGA,184754.000,3758.8009,N,11954.5772,W,1,07,1.5,1435.5,M,-23.2,M,22.8,0000*4F
$GPGSA,A,3,02,05,25,10,29,31,12,,,,,,2.8,1.5,2.3*36
$GPRMC,184754.000,A,3758.8009,N,11954.5772,W,0.81,65.99,291013,,*2F
$GPGGA,184755.000,3758.8011,N,11954.5770,W,1,07,1.5,1435.7,M,-23.2,M,22.8,0000*47
$GPGSA,A,3,02,05,25,10,29,31,12,,,,,,2.8,1.5,2.3*36
$GPGSV,3,1,10,25,66,286,28,12,61,168,29,05,50,118,31,02,47,047,28*79
$GPGSV,3,2,10,29,45,306,28,10,25,051,29,31,13,308,19,21,09,238,23*74
$GPGSV,3,3,10,04,05,054,,24,01,194,17*75
$GPRMC,184755.000,A,3758.8011,N,11954.5770,W,0.73,44.54,291013,,*2A
$GPGGA,184756.000,3758.8012,N,11954.5768,W,1,07,1.5,1435.8,M,-23.2,M,22.8,0000*41
$GPGSA,A,3,02,05,25,10,29,31,12,,,,,,2.8,1.5,2.3*36
$GPRMC,184756.000,A,3758.8012,N,11954.5768,W,0.66,41.73,291013,,*27
$GPGGA,184757.000,3758.8014,N,11954.5768,W,1,07,1.5,1435.6,M,-23.2,M,22.8,0000*48
$GPGSA,A,3,02,05,25,10,29,31,12,,,,,,2.8,1.5,2.3*36
$GPRMC,184757.000,A,3758.8014,N,11954.5768,W,0.65,21.34,291013,,*26
$GPGGA,184758.000,3758.8017,N,11954.5769,W,1,07,1.5,1436.0,M,-23.2,M,22.8,0000*40
$GPGSA,A,3,02,05,25,10,29,31,12,,,,,,2.8,1.5,2.3*36
$GPRMC,184758.000,A,3758.8017,N,11954.5769,W,0.65,42.86,291013,,*27
$GPGGA,184759.000,3758.8019,N,11954.5771,W,1,07,1.5,1435.8,M,-23.2,M,22.8,0000*4D
$GPGSA,A,3,02,05,25,10,29,31,12,,,,,,2.8,1.5,2.3*36
$GPRMC,184759.000,A,3758.8019,N,11954.5771,W,0.62,21.92,291013,,*26
$GPGGA,184800.000,3758.8021,N,11954.5772,W,1,07,1.5,1436.1,M,-23.2,M,22.8,0000*4C
$GPGSA,A,3,02,05,25,10,29,31,12,,,,,,2.8,1.5,2.3*36
$GPGSV,3,1,10,25,66,286,24,12,61,168,30,05,50,118,24,02,47,047,29*78
$GPGSV,3,2,10,29,45,306,28,10,25,051,34,31,13,308,21,21,09,238,23*73
$GPGSV,3,3,10,04,05,054,,24,01,194,*73
$GPRMC,184800.000,A,3758.8021,N,11954.5772,W,0.64,45.53,291013,,*24
$GPGGA,184801.000,3758.8022,N,11954.5773,W,1,07,1.5,1435.8,M,-23.2,M,22.8,0000*45
$GPGSA,A,3,02,05,25,10,29,31,12,,,,,,2.8,1.5,2.3*36
$GPRMC,184801.000,A,3758.8022,N,11954.5773,W,0.58,39.07,291013,,*22
$GPGGA,184802.000,3758.8023,N,11954.5773,W,1,07,1.5,1435.4,M,-23.2,M,22.8,0000*4B
$GPGSA,A,3,02,05,25,10,29,31,12,,,,,,2.8,1.5,2.3*36
$GPRMC,184802.000,A,3758.8023,N,11954.5773,W,0.47,39.91,291013,,*21
$GPGGA,184803.000,3758.8024,N,11954.5774,W,1,07,1.5,1435.1,M,-23.2,M,22.8,0000*4F
$GPGSA,A,3,02,05,25,10,29,31,12,,,,,,2.8,1.5,2.3*36
$GPRMC,184803.000,A,3758.8024,N,11954.5774,W,0.46,46.78,291013,,*2E
$GPGGA,184804.000,3758.8026,N,11954.5774,W,1,07,1.5,1435.2,M,-23.2,M,22.8,0000*49
$GPGSA,A,3,02,05,25,10,29,31,12,,,,,,2.8,1.5,2.3*36
$GPRMC,184804.000,A,3758.8026,N,11954.5774,W,0.68,73.84,291013,,*22
$GPGGA,184805.000,3758.8025,N,11954.5769,W,1,07,1.5,1435.2,M,-23.2,M,22.8,0000*47
$GPGSA,A,3,02,05,25,10,29,31,12,,,,,,2.8,1.5,2.3*36
$GPGSV,3,1,10,25,66,286,24,12,61,168,31,05,50,118,22,02,47,047,33*74
$GPGSV,3,2,10,29,45,306,27,10,25,051,33,31,13,308,20,21,09,238,23*7A
$GPGSV,3,3,10,04,05,054,,24,01,194,*73
$GPRMC,184805.000,A,3758.8025,N,11954.5769,W,0.94,87.89,291013,,*29
$GPGGA,184806.000,3758.8025,N,11954.5763,W,1,07,1.5,1435.3,M,-23.2,M,22.8,0000*4F
$GPGSA,A,3,02,05,25,10,29,31,12,,,,,,2.8,1.5,2.3*36
$GPRMC,184806.000,A,3758.8025,N,11954.5763,W,1.39,97.00,291013,,*26
$GPGGA,184807.000,3758.8023,N,11954.5757,W,1,07,1.5,1435.1,M,-23.2,M,22.8,0000*4D
$GPGSA,A,3,02,05,25,10,29,31,12,,,,,,2.8,1.5,2.3*36
$GPRMC,184807.000,A,3758.8023,N,11954.5757,W,2.14,102.82,291013,,*1D
$GPGGA,184808.000,3758.8022,N,11954.5750,W,1,06,2.1,1435.0,M,-23.2,M,22.8,0000*43
$GPGSA,A,3,02,05,25,10,29,12,,,,,,,5.3,2.1,4.9*33
$GPRMC,184808.000,A,3758.8022,N,11954.5750,W,2.00,104.13,291013,,*1F
$GPGGA,184809.000,3758.8021,N,11954.5746,W,1,05,2.2,1434.9,M,-23.2,M,22.8,0000*4E
$GPGSA,A,3,02,25,10,29,12,,,,,,,,5.4,2.2,4.9*32
$GPRMC,184809.000,A,3758.8021,N,11954.5746,W,0.88,89.14,291013,,*2B
$GPGGA,184810.000,3758.8020,N,11954.5742,W,1,07,1.5,1434.9,M,-23.2,M,22.8,0000*45
$GPGSA,A,3,02,05,25,10,29,31,12,,,,,,2.8,1.5,2.3*36
$GPGSV,3,1,10,25,66,286,22,12,61,168,32,05,50,118,13,02,47,047,33*73
$GPGSV,3,2,10,29,45,306,27,10,25,051,33,31,13,308,13,21,09,238,24*7D
$GPGSV,3,3,10,04,05,054,13,24,01,194,*71
$GPRMC,184810.000,A,3758.8020,N,11954.5742,W,1.01,98.62,291013,,*27
$GPGGA,184811.000,3758.8021,N,11954.5741,W,1,07,1.5,1434.9,M,-23.2,M,22.8,0000*46
$GPGSA,A,3,02,05,25,10,29,31,12,,,,,,2.8,1.5,2.3*36
$GPRMC,184811.000,A,3758.8021,N,11954.5741,W,0.65,84.78,291013,,*21
$GPGGA,184812.000,3758.8022,N,11954.5741,W,1,07,1.5,1434.7,M,-23.2,M,22.8,0000*48
$GPGSA,A,3,02,05,25,10,29,31,12,,,,,,2.8,1.5,2.3*36
$GPRMC,184812.000,A,3758.8022,N,11954.5741,W,0.56,68.24,291013,,*2A
$GPGGA,184813.000,3758.8024,N,11954.5743,W,1,07,1.5,1434.5,M,-23.2,M,22.8,0000*4F
$GPGSA,A,3,02,05,25,10,29,31,12,,,,,,2.8,1.5,2.3*36
$GPRMC,184813.000,A,3758.8024,N,11954.5743,W,0.49,67.72,291013,,*2D
$GPGGA,184814.000,3758.8022,N,11954.5741,W,1,07,1.5,1433.9,M,-23.2,M,22.8,0000*47
$GPGSA,A,3,02,05,25,10,29,31,12,,,,,,2.8,1.5,2.3*36
$GPRMC,184814.000,A,3758.8022,N,11954.5741,W,0.56,86.33,291013,,*2A
$GPGGA,184815.000,3758.8021,N,11954.5739,W,1,07,1.5,1433.7,M,-23.2,M,22.8,0000*44
$GPGSA,A,3,02,05,25,10,29,31,12,,,,,,2.8,1.5,2.3*36
$GPGSV,3,1,10,25,67,283,23,12,60,169,32,05,51,116,27,29,46,308,27*7B
$GPGSV,3,2,10,02,45,047,32,10,24,050,32,31,14,306,14,21,10,239,24*70
$GPGSV,3,3,10,04,04,054,,24,00,193,*74
$GPRMC,184815.000,A,3758.8021,N,11954.5739,W,0.43,56.47,291013,,*2D
$GPGGA,184816.000,3758.8022,N,11954.5738,W,1,07,1.5,1433.6,M,-23.2,M,22.8,0000*44
$GPGSA,A,3,02,05,25,10,29,31,12,,,,,,2.8,1.5,2.3*36
$GPRMC,184816.000,A,3758.8022,N,11954.5738,W,0.69,74.84,291013,,*2B
$GPGGA,184817.000,3758.8023,N,11954.5738,W,1,07,1.5,1433.8,M,-23.2,M,22.8,0000*4A
$GPGSA,A,3,02,05,25,10,29,31,12,,,,,,2.8,1.5,2.3*36
$GPRMC,184817.000,A,3758.8023,N,11954.5738,W,0.73,84.50,291013,,*26
$GPGGA,184818.000,3758.8025,N,11954.5736,W,1,07,1.5,1434.1,M,-23.2,M,22.8,0000*43
$GPGSA,A,3,02,05,25,10,29,31,12,,,,,,2.8,1.5,2.3*36
$GPRMC,184818.000,A,3758.8025,N,11954.5736,W,0.63,82.57,291013,,*21
$GPGGA,184819.000,3758.8026,N,11954.5736,W,1,07,1.5,1434.1,M,-23.2,M,22.8,0000*41
$GPGSA,A,3,02,05,25,10,29,31,12,,,,,,2.8,1.5,2.3*36
$GPRMC,184819.000,A,3758.8026,N,11954.5736,W,0.68,72.78,291013,,*2A
$GPGGA,184820.000,3758.8028,N,11954.5736,W,1,07,1.5,1434.0,M,-23.2,M,22.8,0000*44
$GPGSA,A,3,02,05,25,10,29,31,12,,,,,,2.8,1.5,2.3*36
$GPGSV,3,1,10,25,67,283,23,12,60,169,33,05,51,116,27,29,46,308,28*75
$GPGSV,3,2,10,02,45,047,33,10,24,050,32,31,14,306,14,21,10,239,25*70
$GPGSV,3,3,10,04,04,054,,24,00,193,*74
$GPRMC,184820.000,A,3758.8028,N,11954.5736,W,0.68,69.86,291013,,*25
$GPGGA,184821.000,3758.8029,N,11954.5735,W,1,07,1.5,1433.7,M,-23.2,M,22.8,0000*47
$GPGSA,A,3,02,05,25,10,29,31,12,,,,,,2.8,1.5,2.3*36
$GPRMC,184821.000,A,3758.8029,N,11954.5735,W,0.75,66.62,291013,,*2F
$GPGGA,184822.000,3758.8029,N,11954.5735,W,1,07,1.5,1433.6,M,-23.2,M,22.8,0000*45
$GPGSA,A,3,02,05,25,10,29,31,12,,,,,,2.8,1.5,2.3*36
$GPRMC,184822.000,A,3758.8029,N,11954.5735,W,0.39,43.76,291013,,*26
$GPGGA,184823.000,3758.8030,N,11954.5735,W,1,07,1.5,1433.3,M,-23.2,M,22.8,0000*49
$GPGSA,A,3,02,05,25,10,29,31,12,,,,,,2.8,1.5,2.3*36
$GPRMC,184823.000,A,3758.8030,N,11954.5735,W,0.40,348.99,291013,,*18
$GPGGA,184824.000,3758.8030,N,11954.5736,W,1,07,1.5,1432.7,M,-23.2,M,22.8,0000*48
$GPGSA,A,3,02,05,25,10,29,31,12,,,,,,2.8,1.5,2.3*36
$GPRMC,184824.000,A,3758.8030,N,11954.5736,W,0.42,17.15,291013,,*23
$GPGGA,184825.000,3758.8030,N,11954.5735,W,1,07,1.5,1432.4,M,-23.2,M,22.8,0000*49
$GPGSA,A,3,02,05,25,10,29,31,12,,,,,,2.8,1.5,2.3*36
$GPGSV,3,1,10,25,67,283,24,12,60,169,33,05,51,116,28,29,46,308,28*7D
$GPGSV,3,2,10,02,45,047,33,10,24,050,31,31,14,306,15,21,10,239,24*73
$GPGSV,3,3,10,04,04,054,,24,00,193,*74
$GPRMC,184825.000,A,3758.8030,N,11954.5735,W,0.51,67.98,291013,,*21
$GPGGA,184826.000,3758.8030,N,11954.5734,W,1,07,1.5,1432.3,M,-23.2,M,22.8,0000*4C
$GPGSA,A,3,02,05,25,10,29,31,12,,,,,,2.8,1.5,2.3*36
$GPRMC,184826.000,A,3758.8030,N,11954.5734,W,0.56,77.48,291013,,*28
$GPGGA,184827.000,3758.8030,N,11954.5732,W,1,07,1.5,1432.0,M,-23.2,M,22.8,0000*48
$GPGSA,A,3,02,05,25,10,29,31,12,,,,,,2.8,1.5,2.3*36
$GPRMC,184827.000,A,3758.8030,N,11954.5732,W,0.59,76.10,291013,,*2C
$GPGGA,184828.000,3758.8030,N,11954.5731,W,1,07,1.5,1431.6,M,-23.2,M,22.8,0000*41
$GPGSA,A,3,02,05,25,10,29,31,12,,,,,,2.8,1.5,2.3*36
$GPRMC,184828.000,A,3758.8030,N,11954.5731,W,0.37,51.95,291013,,*20
$GPGGA,184829.000,3758.8031,N,11954.5730,W,1,03,11.9,1431.4,M,-23.2,M,22.8,0000*7B
$GPGSA,A,2,02,10,12,,,,,,,,,,11.9,11.9,1.0*32
$GPRMC,184829.000,A,3758.8031,N,11954.5730,W,0.35,55.03,291013,,*28
$GPGGA,184830.000,3758.8031,N,11954.5729,W,1,06,2.1,1431.1,M,-23.2,M,22.8,0000*41
$GPGSA,A,3,02,05,25,10,12,29,,,,,,,5.3,2.1,4.9*33
$GPGSV,3,1,10,25,67,283,24,12,60,169,33,05,51,116,30,29,46,308,32*7F
$GPGSV,3,2,10,02,45,047,34,10,24,050,32,31,14,306,16,21,10,239,25*75
$GPGSV,3,3,10,04,04,054,,24,00,193,*74
$GPRMC,184830.000,A,3758.8031,N,11954.5729,W,0.77,88.75,291013,,*2F
$GPGGA,184831.000,3758.8033,N,11954.5730,W,1,07,1.5,1431.0,M,-23.2,M,22.8,0000*4D
$GPGSA,A,3,02,05,25,10,31,12,29,,,,,,2.8,1.5,2.3*36
$GPRMC,184831.000,A,3758.8033,N,11954.5730,W,0.54,81.49,291013,,*23
$GPGGA,184832.000,3758.8033,N,11954.5727,W,1,07,1.5,1430.7,M,-23.2,M,22.8,0000*4E
$GPGSA,A,3,02,05,25,10,31,12,29,,,,,,2.8,1.5,2.3*36
$GPRMC,184832.000,A,3758.8033,N,11954.5727,W,0.37,63.99,291013,,*22
$GPGGA,184833.000,3758.8034,N,11954.5728,W,1,07,1.5,1430.4,M,-23.2,M,22.8,0000*44
$GPGSA,A,3,02,05,25,10,31,12,29,,,,,,2.8,1.5,2.3*36
$GPRMC,184833.000,A,3758.8034,N,11954.5728,W,0.29,35.69,291013,,*28
$GPGGA,184834.000,3758.8034,N,11954.5726,W,1,07,1.5,1430.1,M,-23.2,M,22.8,0000*48
$GPGSA,A,3,02,05,25,10,31,12,29,,,,,,2.8,1.5,2.3*36
$GPRMC,184834.000,A,3758.8034,N,11954.5726,W,0.27,39.12,291013,,*2F
$GPGGA,184835.000,3758.8033,N,11954.5724,W,1,07,1.5,1429.7,M,-23.2,M,22.8,0000*42
$GPGSA,A,3,02,05,25,10,31,12,29,,,,,,2.8,1.5,2.3*36
$GPGSV,3,1,10,25,67,283,25,12,60,169,32,05,51,116,31,29,46,308,31*7D
$GPGSV,3,2,10,02,45,047,31,10,24,050,33,31,14,306,23,21,10,239,17*76
$GPGSV,3,3,10,04,04,054,,24,00,193,*74
$GPRMC,184835.000,A,3758.8033,N,11954.5724,W,0.22,44.86,291013,,*29
$GPGGA,184836.000,3758.8032,N,11954.5721,W,1,07,1.5,1429.6,M,-23.2,M,22.8,0000*44
$GPGSA,A,3,02,05,25,10,31,12,29,,,,,,2.8,1.5,2.3*36
$GPRMC,184836.000,A,3758.8032,N,11954.5721,W,0.43,90.78,291013,,*21
$GPGGA,184837.000,3758.8033,N,11954.5718,W,1,07,1.5,1429.9,M,-23.2,M,22.8,0000*41
$GPGSA,A,3,02,05,25,10,31,12,29,,,,,,2.8,1.5,2.3*36
$GPRMC,184837.000,A,3758.8033,N,11954.5718,W,0.43,84.02,291013,,*23
$GPGGA,184838.000,3758.8034,N,11954.5720,W,1,07,1.5,1429.6,M,-23.2,M,22.8,0000*4D
$GPGSA,A,3,02,05,25,10,31,12,29,,,,,,2.8,1.5,2.3*36
$GPRMC,184838.000,A,3758.8034,N,11954.5720,W,0.24,29.73,291013,,*20
$GPGGA,184839.000,3758.8034,N,11954.5717,W,1,06,2.1,1429.7,M,-23.2,M,22.8,0000*4F
$GPGSA,A,3,02,05,25,10,12,29,,,,,,,5.3,2.1,4.9*33
$GPRMC,184839.000,A,3758.8034,N,11954.5717,W,0.29,65.82,291013,,*2E
$GPGGA,184840.000,3758.8034,N,11954.5714,W,1,06,2.1,1430.0,M,-23.2,M,22.8,0000*4D
$GPGSA,A,3,02,05,25,10,12,29,,,,,,,5.3,2.1,4.9*33
$GPGSV,3,1,10,25,67,283,27,12,60,169,30,05,51,116,31,29,46,308,31*7D
$GPGSV,3,2,10,02,45,047,26,10,24,050,33,31,14,306,11,21,10,239,18*7E
$GPGSV,3,3,10,04,04,054,,24,00,193,*74
$GPRMC,184840.000,A,3758.8034,N,11954.5714,W,0.34,74.21,291013,,*26
$GPGGA,184841.000,3758.8034,N,11954.5712,W,1,06,2.1,1430.2,M,-23.2,M,22.8,0000*48
$GPGSA,A,3,02,05,25,10,12,29,,,,,,,5.3,2.1,4.9*33
$GPRMC,184841.000,A,3758.8034,N,11954.5712,W,0.29,68.42,291013,,*25
$GPGGA,184842.000,3758.8035,N,11954.5711,W,1,06,2.1,1430.4,M,-23.2,M,22.8,0000*4F
$GPGSA,A,3,02,05,25,10,12,29,,,,,,,5.3,2.1,4.9*33
$GPRMC,184842.000,A,3758.8035,N,11954.5711,W,0.33,62.49,291013,,*2E
$GPGGA,184843.000,3758.8036,N,11954.5709,W,1,06,2.1,1430.6,M,-23.2,M,22.8,0000*46
$GPGSA,A,3,02,05,25,10,12,29,,,,,,,5.3,2.1,4.9*33
$GPRMC,184843.000,A,3758.8036,N,11954.5709,W,0.29,63.41,291013,,*27
$GPGGA,184844.000,3758.8036,N,11954.5708,W,1,06,2.1,1430.8,M,-23.2,M,22.8,0000*4E
$GPGSA,A,3,02,05,25,10,12,29,,,,,,,5.3,2.1,4.9*33
$GPRMC,184844.000,A,3758.8036,N,11954.5708,W,0.31,60.54,291013,,*2F
$GPGGA,184845.000,3758.8037,N,11954.5707,W,1,06,2.1,1431.0,M,-23.2,M,22.8,0000*48
$GPGSA,A,3,02,05,25,10,12,29,,,,,,,5.3,2.1,4.9*33
$GPGSV,3,1,10,25,67,283,28,12,60,169,27,05,51,116,30,29,46,308,31*75
$GPGSV,3,2,10,02,45,047,26,10,24,050,29,31,14,306,,21,10,239,25*7B
$GPGSV,3,3,10,04,04,054,,24,00,193,*74
$GPRMC,184845.000,A,3758.8037,N,11954.5707,W,0.32,53.28,291013,,*28
$GPGGA,184846.000,3758.8038,N,11954.5705,W,1,06,2.1,1431.2,M,-23.2,M,22.8,0000*44
$GPGSA,A,3,02,05,25,10,12,29,,,,,,,5.3,2.1,4.9*33
$GPRMC,184846.000,A,3758.8038,N,11954.5705,W,0.36,56.66,291013,,*2D
$GPGGA,184847.000,3758.8039,N,11954.5704,W,1,06,2.1,1431.4,M,-23.2,M,22.8,0000*43
$GPGSA,A,3,02,05,25,10,12,29,,,,,,,5.3,2.1,4.9*33
$GPRMC,184847.000,A,3758.8039,N,11954.5704,W,0.34,53.35,291013,,*2D
$GPGGA,184848.000,3758.8040,N,11954.5703,W,1,06,2.1,1431.7,M,-23.2,M,22.8,0000*46
$GPGSA,A,3,02,05,25,10,12,29,,,,,,,5.3,2.1,4.9*33
$GPRMC,184848.000,A,3758.8040,N,11954.5703,W,0.31,51.69,291013,,*25
$GPGGA,184849.000,3758.8041,N,11954.5701,W,1,06,2.1,1432.0,M,-23.2,M,22.8,0000*40
$GPGSA,A,3,02,05,25,10,12,29,,,,,,,5.3,2.1,4.9*33
$GPRMC,184849.000,A,3758.8041,N,11954.5701,W,0.34,58.74,291013,,*27
$GPGGA,184850.000,3758.8042,N,11954.5700,W,1,06,2.1,1432.3,M,-23.2,M,22.8,0000*49
$GPGSA,A,3,02,05,25,10,12,29,,,,,,,5.3,2.1,4.9*33
$GPGSV,3,1,10,25,67,283,29,12,60,169,27,05,51,116,29,29,46,308,31*7C
$GPGSV,3,2,10,02,45,047,26,10,24,050,28,31,14,306,,21,10,239,26*79
$GPGSV,3,3,10,04,04,054,,24,00,193,*74
$GPRMC,184850.000,A,3758.8042,N,11954.5700,W,0.36,52.07,291013,,*21
$GPGGA,184851.000,3758.8042,N,11954.5699,W,1,06,2.1,1432.5,M,-23.2,M,22.8,0000*4F
$GPGSA,A,3,02,05,25,10,12,29,,,,,,,5.3,2.1,4.9*33
$GPRMC,184851.000,A,3758.8042,N,11954.5699,W,0.39,53.86,291013,,*26
$GPGGA,184852.000,3758.8044,N,11954.5697,W,1,06,2.1,1433.2,M,-23.2,M,22.8,0000*42
$GPGSA,A,3,02,05,25,10,12,29,,,,,,,5.3,2.1,4.9*33
$GPRMC,184852.000,A,3758.8044,N,11954.5697,W,0.46,49.55,291013,,*20
$GPGGA,184853.000,3758.8041,N,11954.5700,W,1,06,2.1,1431.6,M,-23.2,M,22.8,0000*4F
$GPGSA,A,3,02,05,25,10,12,29,,,,,,,5.3,2.1,4.9*33
$GPRMC,184853.000,A,3758.8041,N,11954.5700,W,0.43,39.18,291013,,*20
$GPGGA,184854.000,3758.8039,N,11954.5702,W,1,06,2.1,1430.6,M,-23.2,M,22.8,0000*44
$GPGSA,A,3,02,05,25,10,12,29,,,,,,,5.3,2.1,4.9*33
$GPRMC,184854.000,A,3758.8039,N,11954.5702,W,0.21,72.04,291013,,*2C
$GPGGA,184855.000,3758.8035,N,11954.5703,W,1,06,2.1,1429.0,M,-23.2,M,22.8,0000*46
$GPGSA,A,3,02,05,25,10,12,29,,,,,,,5.3,2.1,4.9*33
$GPGSV,3,1,10,25,67,283,30,12,60,169,27,05,51,116,23,29,46,308,32*7D
$GPGSV,3,2,10,02,45,047,23,10,24,050,27,31,14,306,14,21,10,239,26*76
$GPGSV,3,3,10,04,04,054,,24,00,193,*74
$GPRMC,184855.000,A,3758.8035,N,11954.5703,W,0.40,97.08,291013,,*20
$GPGGA,184856.000,3758.8033,N,11954.5705,W,1,06,2.1,1428.0,M,-23.2,M,22.8,0000*44
$GPGSA,A,3,02,05,25,10,12,29,,,,,,,5.4,2.1,4.9*34
$GPRMC,184856.000,A,3758.8033,N,11954.5705,W,0.56,83.26,291013,,*2D
$GPGGA,184857.000,3758.8027,N,11954.5709,W,1,06,2.1,1424.5,M,-23.2,M,22.8,0000*45
$GPGSA,A,3,02,05,25,10,12,29,,,,,,,5.4,2.1,4.9*34
$GPRMC,184857.000,A,3758.8027,N,11954.5709,W,0.28,91.10,291013,,*2A
$GPGGA,184858.000,3758.8030,N,11954.5709,W,1,06,2.1,1424.7,M,-23.2,M,22.8,0000*4E
$GPGSA,A,3,02,05,25,10,12,29,,,,,,,5.4,2.1,4.9*34
$GPRMC,184858.000,A,3758.8030,N,11954.5709,W,0.14,61.09,291013,,*2B
$GPGGA,184859.000,3758.8032,N,11954.5710,W,1,06,2.1,1425.1,M,-23.2,M,22.8,0000*42
$GPGSA,A,3,02,05,25,10,12,29,,,,,,,5.4,2.1,4.9*34
$GPRMC,184859.000,A,3758.8032,N,11954.5710,W,0.20,57.27,291013,,*2E
$GPGGA,184900.000,3758.8036,N,11954.5712,W,1,07,1.5,1425.4,M,-23.2,M,22.8,0000*4A
$GPGSA,A,3,02,05,31,25,10,12,29,,,,,,2.8,1.5,2.3*36
$GPGSV,3,1,10,25,67,283,31,12,60,169,27,05,51,116,25,29,46,308,31*79
$GPGSV,3,2,10,02,45,047,23,10,24,050,21,31,14,306,17,21,10,239,25*70
$GPGSV,3,3,10,04,04,054,,24,00,193,*74
$GPRMC,184900.000,A,3758.8036,N,11954.5712,W,0.28,47.98,291013,,*28
$GPGGA,184901.000,3758.8030,N,11954.5719,W,1,07,1.5,1423.4,M,-23.2,M,22.8,0000*40
$GPGSA,A,3,02,05,31,25,10,12,29,,,,,,2.8,1.5,2.3*36
$GPRMC,184901.000,A,3758.8030,N,11954.5719,W,0.56,177.31,291013,,*1C
$GPGGA,184902.000,3758.8031,N,11954.5718,W,1,07,1.5,1423.4,M,-23.2,M,22.8,0000*43
$GPGSA,A,3,02,05,31,25,10,12,29,,,,,,2.8,1.5,2.3*36
$GPRMC,184902.000,A,3758.8031,N,11954.5718,W,0.19,33.62,291013,,*23
$GPGGA,184903.000,3758.8033,N,11954.5715,W,1,07,1.5,1423.2,M,-23.2,M,22.8,0000*4B
$GPGSA,A,3,02,05,31,25,10,12,29,,,,,,2.8,1.5,2.3*36
$GPRMC,184903.000,A,3758.8033,N,11954.5715,W,0.23,50.89,291013,,*24
$GPGGA,184904.000,3758.8034,N,11954.5713,W,1,07,1.5,1423.2,M,-23.2,M,22.8,0000*4D
$GPGSA,A,3,02,05,31,25,10,12,29,,,,,,2.8,1.5,2.3*36
$GPRMC,184904.000,A,3758.8034,N,11954.5713,W,0.08,195.31,291013,,*10
$GPGGA,184905.000,3758.8034,N,11954.5712,W,1,07,1.5,1423.5,M,-23.2,M,22.8,0000*4A
$GPGSA,A,3,02,05,31,25,10,12,29,,,,,,2.8,1.5,2.3*36
$GPGSV,3,1,10,25,67,283,31,12,60,169,28,05,51,116,17,29,46,308,28*7F
$GPGSV,3,2,10,02,45,047,29,10,24,050,21,31,14,306,19,21,10,239,24*75
$GPGSV,3,3,10,04,04,054,,24,00,193,*74
$GPRMC,184905.000,A,3758.8034,N,11954.5712,W,0.32,160.96,291013,,*1E
$GPGGA,184906.000,3758.8035,N,11954.5711,W,1,07,1.5,1423.4,M,-23.2,M,22.8,0000*4A
$GPGSA,A,3,02,05,31,25,10,12,29,,,,,,2.8,1.5,2.3*36
$GPRMC,184906.000,A,3758.8035,N,11954.5711,W,0.06,50.40,291013,,*21
$GPGGA,184907.000,3758.8036,N,11954.5710,W,1,07,1.5,1423.6,M,-23.2,M,22.8,0000*4B
$GPGSA,A,3,02,05,31,25,10,12,29,,,,,,2.8,1.5,2.3*36
$GPRMC,184907.000,A,3758.8036,N,11954.5710,W,0.43,50.60,291013,,*21
$GPGGA,184908.000,3758.8037,N,11954.5709,W,1,07,1.5,1423.5,M,-23.2,M,22.8,0000*4E
$GPGSA,A,3,02,05,31,25,10,12,29,,,,,,2.8,1.5,2.3*36
$GPRMC,184908.000,A,3758.8037,N,11954.5709,W,0.39,347.05,291013,,*1C
$GPGGA,184909.000,3758.8038,N,11954.5708,W,1,07,1.5,1423.4,M,-23.2,M,22.8,0000*40
$GPGSA,A,3,02,05,31,25,10,12,29,,,,,,2.8,1.5,2.3*36
$GPRMC,184909.000,A,3758.8038,N,11954.5708,W,0.29,49.47,291013,,*29
$GPGGA,184910.000,3758.8039,N,11954.5707,W,1,07,1.5,1423.6,M,-23.2,M,22.8,0000*44
$GPGSA,A,3,02,05,31,25,10,12,29,,,,,,2.8,1.5,2.3*36
$GPGSV,3,1,10,25,67,283,31,12,60,169,28,05,51,116,28,29,46,308,27*7C
$GPGSV,3,2,10,02,45,047,30,10,24,050,21,31,14,306,21,21,10,239,15*74
$GPGSV,3,3,10,04,04,054,,24,00,193,*74
$GPRMC,184910.000,A,3758.8039,N,11954.5707,W,0.37,77.22,291013,,*2E
$GPGGA,184911.000,3758.8039,N,11954.5706,W,1,07,1.5,1423.3,M,-23.2,M,22.8,0000*41
$GPGSA,A,3,02,05,31,25,10,12,29,,,,,,2.8,1.5,2.3*36
$GPRMC,184911.000,A,3758.8039,N,11954.5706,W,0.09,30.12,291013,,*23
$GPGGA,184912.000,3758.8039,N,11954.5705,W,1,07,1.5,1423.3,M,-23.2,M,22.8,0000*41
$GPGSA,A,3,02,05,31,25,10,12,29,,,,,,2.8,1.5,2.3*36
$GPRMC,184912.000,A,3758.8039,N,11954.5705,W,0.03,152.33,291013,,*1F
$GPGGA,184913.000,3758.8039,N,11954.5704,W,1,07,1.5,1423.3,M,-23.2,M,22.8,0000*41
$GPGSA,A,3,02,05,31,25,10,12,29,,,,,,2.8,1.5,2.3*36
$GPRMC,184913.000,A,3758.8039,N,11954.5704,W,0.13,119.88,291013,,*11
$GPGGA,184914.000,3758.8039,N,11954.5702,W,1,07,1.5,1423.5,M,-23.2,M,22.8,0000*46
$GPGSA,A,3,02,05,31,25,10,12,29,,,,,,2.8,1.5,2.3*36
$GPRMC,184914.000,A,3758.8039,N,11954.5702,W,0.27,126.35,291013,,*1D
$GPGGA,184915.000,3758.8038,N,11954.5702,W,1,07,1.5,1423.2,M,-23.2,M,22.8,0000*41
$GPGSA,A,3,02,05,31,25,10,12,29,,,,,,2.8,1.5,2.3*36
$GPGSV,3,1,10,25,67,283,32,12,60,169,28,05,51,116,27,29,46,308,27*70
$GPGSV,3,2,10,02,45,047,30,10,24,050,22,31,14,306,21,21,10,239,15*77
$GPGSV,3,3,10,04,04,054,,24,00,193,*74
$GPRMC,184915.000,A,3758.8038,N,11954.5702,W,0.03,4.90,291013,,*15
$GPGGA,184916.000,3758.8038,N,11954.5700,W,1,07,1.5,1423.5,M,-23.2,M,22.8,0000*47
$GPGSA,A,3,02,05,31,25,10,12,29,,,,,,2.8,1.5,2.3*36
$GPRMC,184916.000,A,3758.8038,N,11954.5700,W,0.25,133.64,291013,,*1E
$GPGGA,184917.000,3758.8038,N,11954.5699,W,1,07,1.5,1424.1,M,-23.2,M,22.8,0000*44
$GPGSA,A,3,02,05,31,25,10,12,29,,,,,,2.8,1.5,2.3*36
$GPRMC,184917.000,A,3758.8038,N,11954.5699,W,0.36,144.99,291013,,*1E
$GPGGA,184918.000,3758.8037,N,11954.5697,W,1,07,1.5,1424.4,M,-23.2,M,22.8,0000*4F
$GPGSA,A,3,02,05,31,25,10,12,29,,,,,,2.8,1.5,2.3*36
$GPRMC,184918.000,A,3758.8037,N,11954.5697,W,0.07,196.02,291013,,*1F
$GPGGA,184919.000,3758.8036,N,11954.5695,W,1,07,1.5,1424.8,M,-23.2,M,22.8,0000*41
$GPGSA,A,3,02,05,31,25,10,12,29,,,,,,2.8,1.5,2.3*36
$GPRMC,184919.000,A,3758.8036,N,11954.5695,W,0.07,265.62,291013,,*14
$GPGGA,184920.000,3758.8036,N,11954.5693,W,1,07,1.5,1425.6,M,-23.2,M,22.8,0000*42
$GPGSA,A,3,02,05,31,25,10,12,29,,,,,,2.8,1.5,2.3*36
$GPGSV,3,1,10,25,67,283,31,12,60,169,28,05,51,116,27,29,46,308,26*72
$GPGSV,3,2,10,02,45,047,30,10,24,050,22,31,14,306,21,21,10,239,23*72
$GPGSV,3,3,10,04,04,054,,24,00,193,*74
$GPRMC,184920.000,A,3758.8036,N,11954.5693,W,0.35,100.57,291013,,*1F
$GPGGA,184921.000,3758.8036,N,11954.5690,W,1,07,1.5,1426.3,M,-23.2,M,22.8,0000*46
$GPGSA,A,3,02,05,31,25,10,12,29,,,,,,2.8,1.5,2.3*36
$GPRMC,184921.000,A,3758.8036,N,11954.5690,W,0.23,100.99,291013,,*18
$GPGGA,184922.000,3758.8035,N,11954.5692,W,1,07,1.5,1426.2,M,-23.2,M,22.8,0000*45
$GPGSA,A,3,02,05,31,25,10,12,29,,,,,,2.8,1.5,2.3*36
$GPRMC,184922.000,A,3758.8035,N,11954.5692,W,0.23,23.80,291013,,*22
$GPGGA,184923.000,3758.8032,N,11954.5693,W,1,07,1.5,1425.8,M,-23.2,M,22.8,0000*4B
$GPGSA,A,3,02,05,31,25,10,12,29,,,,,,2.8,1.5,2.3*36
$GPRMC,184923.000,A,3758.8032,N,11954.5693,W,0.26,51.32,291013,,*2C
$GPGGA,184924.000,3758.8031,N,11954.5694,W,1,06,2.1,1427.6,M,-23.2,M,22.8,0000*42
$GPGSA,A,3,02,05,25,10,12,29,,,,,,,5.4,2.1,4.9*34
$GPRMC,184924.000,A,3758.8031,N,11954.5694,W,0.10,138.14,291013,,*10
$GPGGA,184925.000,3758.8028,N,11954.5697,W,1,07,1.5,1428.6,M,-23.2,M,22.8,0000*41
$GPGSA,A,3,02,05,31,25,10,12,29,,,,,,2.8,1.5,2.3*36
$GPGSV,3,1,09,25,67,282,31,12,59,169,28,05,51,115,27,29,47,308,28*7D
$GPGSV,3,2,09,02,45,048,20,10,24,050,23,31,14,306,12,21,10,239,23*75
$GPGSV,3,3,09,04,04,054,*41
$GPRMC,184925.000,A,3758.8028,N,11954.5697,W,0.14,70.91,291013,,*2E
$GPGGA,184926.000,3758.8027,N,11954.5698,W,1,07,1.5,1429.6,M,-23.2,M,22.8,0000*43
$GPGSA,A,3,02,05,31,25,10,12,29,,,,,,2.8,1.5,2.3*36
$GPRMC,184926.000,A,3758.8027,N,11954.5698,W,0.13,68.66,291013,,*2B
$GPGGA,184927.000,3758.8028,N,11954.5696,W,1,05,3.8,1429.4,M,-23.2,M,22.8,0000*4C
$GPGSA,A,3,05,25,10,12,29,,,,,,,,9.5,3.8,8.7*31
$GPRMC,184927.000,A,3758.8028,N,11954.5696,W,0.17,92.05,291013,,*2F
$GPGGA,184928.000,3758.8027,N,11954.5696,W,1,06,2.1,1428.4,M,-23.2,M,22.8,0000*46
$GPGSA,A,3,02,05,25,10,12,29,,,,,,,5.4,2.1,4.9*34
$GPRMC,184928.000,A,3758.8027,N,11954.5696,W,0.18,79.23,291013,,*21
$GPGGA,184929.000,3758.8025,N,11954.5696,W,1,06,2.1,1427.1,M,-23.2,M,22.8,0000*4F
$GPGSA,A,3,02,05,25,10,12,29,,,,,,,5.4,2.1,4.9*34
$GPRMC,184929.000,A,3758.8025,N,11954.5696,W,0.45,58.67,291013,,*29
$GPGGA,184930.000,3758.8032,N,11954.5690,W,1,06,2.1,1428.8,M,-23.2,M,22.8,0000*41
$GPGSA,A,3,02,05,25,10,12,29,,,,,,,5.4,2.1,4.9*34
$GPGSV,3,1,09,25,67,282,31,12,59,169,28,05,51,115,27,29,47,308,33*77
$GPGSV,3,2,09,02,45,048,19,10,24,050,29,31,14,306,,21,10,239,23*76
$GPGSV,3,3,09,04,04,054,*41
$GPRMC,184930.000,A,3758.8032,N,11954.5690,W,0.49,55.86,291013,,*2F
$GPGGA,184931.000,3758.8039,N,11954.5682,W,1,06,2.1,1431.3,M,-23.2,M,22.8,0000*4B
$GPGSA,A,3,02,05,25,10,12,29,,,,,,,5.4,2.1,4.9*34
$GPRMC,184931.000,A,3758.8039,N,11954.5682,W,0.64,48.74,291013,,*28
$GPGGA,184932.000,3758.8047,N,11954.5674,W,1,06,2.1,1434.0,M,-23.2,M,22.8,0000*4E
$GPGSA,A,3,02,05,25,10,12,29,,,,,,,5.4,2.1,4.9*34
$GPRMC,184932.000,A,3758.8047,N,11954.5674,W,0.73,50.56,291013,,*24
$GPGGA,184933.000,3758.8053,N,11954.5668,W,1,06,2.1,1436.1,M,-23.2,M,22.8,0000*44
$GPGSA,A,3,02,05,25,10,12,29,,,,,,,5.4,2.1,4.9*34
$GPRMC,184933.000,A,3758.8053,N,11954.5668,W,0.83,46.04,291013,,*22
$GPGGA,184934.000,3758.8058,N,11954.5664,W,1,06,2.1,1437.7,M,-23.2,M,22.8,0000*43
$GPGSA,A,3,02,05,25,10,12,29,,,,,,,5.4,2.1,4.9*34
$GPRMC,184934.000,A,3758.8058,N,11954.5664,W,0.84,46.27,291013,,*24
$GPGGA,184935.000,3758.8062,N,11954.5660,W,1,06,2.1,1439.1,M,-23.2,M,22.8,0000*47
$GPGSA,A,3,02,05,25,10,12,29,,,,,,,5.4,2.1,4.9*34
$GPGSV,3,1,09,25,67,282,31,12,59,169,29,05,51,115,27,29,47,308,33*76
$GPGSV,3,2,09,02,45,048,26,10,24,050,34,31,14,306,,21,10,239,15*73
$GPGSV,3,3,09,04,04,054,*41
$GPRMC,184935.000,A,3758.8062,N,11954.5660,W,0.86,46.23,291013,,*2E
$GPGGA,184936.000,3758.8065,N,11954.5656,W,1,06,2.1,1440.4,M,-23.2,M,22.8,0000*4D
$GPGSA,A,3,02,05,25,10,12,29,,,,,,,5.4,2.1,4.9*34
$GPRMC,184936.000,A,3758.8065,N,11954.5656,W,0.88,45.55,291013,,*23
$GPGGA,184937.000,3758.8069,N,11954.5653,W,1,06,2.1,1441.5,M,-23.2,M,22.8,0000*45
$GPGSA,A,3,02,05,25,10,12,29,,,,,,,5.4,2.1,4.9*34
$GPRMC,184937.000,A,3758.8069,N,11954.5653,W,0.88,44.14,291013,,*2F
$GPGGA,184938.000,3758.8071,N,11954.5650,W,1,06,2.1,1442.4,M,-23.2,M,22.8,0000*42
$GPGSA,A,3,02,05,25,10,12,29,,,,,,,5.4,2.1,4.9*34
$GPRMC,184938.000,A,3758.8071,N,11954.5650,W,0.87,46.36,291013,,*27
$GPGGA,184939.000,3758.8073,N,11954.5648,W,1,06,2.1,1443.1,M,-23.2,M,22.8,0000*4C
$GPGSA,A,3,02,05,25,10,12,29,,,,,,,5.4,2.1,4.9*34
$GPRMC,184939.000,A,3758.8073,N,11954.5648,W,0.81,46.19,291013,,*26
$GPGGA,184940.000,3758.8075,N,11954.5647,W,1,06,2.1,1443.6,M,-23.2,M,22.8,0000*4C
$GPGSA,A,3,02,05,25,10,12,29,,,,,,,5.4,2.1,4.9*34
$GPGSV,3,1,09,25,67,282,25,12,59,169,30,05,51,115,32,29,47,308,33*7F
$GPGSV,3,2,09,02,45,048,36,10,24,050,34,31,14,306,,21,10,239,*76
$GPGSV,3,3,09,04,04,054,*41
$GPRMC,184940.000,A,3758.8075,N,11954.5647,W,0.80,44.67,291013,,*2B
$GPGGA,184941.000,3758.8077,N,11954.5645,W,1,06,2.1,1444.0,M,-23.2,M,22.8,0000*4C
$GPGSA,A,3,02,05,25,10,12,29,,,,,,,5.4,2.1,4.9*34
$GPRMC,184941.000,A,3758.8077,N,11954.5645,W,0.75,43.24,291013,,*20
$GPGGA,184942.000,3758.8078,N,11954.5644,W,1,06,2.1,1444.2,M,-23.2,M,22.8,0000*43
$GPGSA,A,3,02,05,25,10,12,29,,,,,,,5.4,2.1,4.9*34
$GPRMC,184942.000,A,3758.8078,N,11954.5644,W,0.75,44.15,291013,,*28
$GPGGA,184943.000,3758.8080,N,11954.5643,W,1,06,2.1,1444.4,M,-23.2,M,22.8,0000*44
$GPGSA,A,3,02,05,25,10,12,29,,,,,,,5.4,2.1,4.9*34
$GPRMC,184943.000,A,3758.8080,N,11954.5643,W,0.63,37.74,291013,,*2D
$GPGGA,184944.000,3758.8081,N,11954.5642,W,1,06,2.1,1444.5,M,-23.2,M,22.8,0000*42
$GPGSA,A,3,02,05,25,10,12,29,,,,,,,5.4,2.1,4.9*34
$GPRMC,184944.000,A,3758.8081,N,11954.5642,W,0.65,42.14,291013,,*28
$GPGGA,184945.000,3758.8082,N,11954.5642,W,1,07,1.5,1444.1,M,-23.2,M,22.8,0000*42
$GPGSA,A,3,02,05,31,25,10,12,29,,,,,,2.8,1.5,2.3*36
$GPGSV,3,1,10,25,67,282,18,12,59,169,30,05,51,115,24,29,47,308,32*7F
$GPGSV,3,2,10,02,45,048,31,10,24,050,30,31,14,306,18,21,10,239,28*7E
$GPGSV,3,3,10,04,04,054,,51,44,160,30*79
$GPRMC,184945.000,A,3758.8082,N,11954.5642,W,0.57,25.24,291013,,*29
$GPGGA,184946.000,3758.8083,N,11954.5642,W,1,07,1.5,1443.5,M,-23.2,M,22.8,0000*43
$GPGSA,A,3,02,05,31,25,10,12,29,,,,,,2.8,1.5,2.3*36
$GPRMC,184946.000,A,3758.8083,N,11954.5642,W,0.64,18.71,291013,,*25
$GPGGA,184947.000,3758.8083,N,11954.5642,W,2,07,1.5,1442.7,M,-23.2,M,0.8,0000*72
$GPGSA,A,3,02,05,31,25,10,12,29,,,,,,2.8,1.5,2.3*36
$GPRMC,184947.000,A,3758.8083,N,11954.5642,W,0.58,40.41,291013,,*25
$GPGGA,184948.000,3758.8084,N,11954.5641,W,2,07,1.5,1442.1,M,-23.2,M,0.8,0000*7F
$GPGSA,A,3,02,05,31,25,10,12,29,,,,,,2.8,1.5,2.3*36
$GPRMC,184948.000,A,3758.8084,N,11954.5641,W,0.55,39.00,291013,,*28
$GPGGA,184949.000,3758.8085,N,11954.5641,W,2,07,1.5,1441.6,M,-23.2,M,0.8,0000*7B
$GPGSA,A,3,02,05,31,25,10,12,29,,,,,,2.8,1.5,2.3*36
$GPRMC,184949.000,A,3758.8085,N,11954.5641,W,0.56,28.32,291013,,*2A
$GPGGA,184950.000,3758.8084,N,11954.5643,W,2,07,1.5,1439.5,M,-23.2,M,1.8,0000*7D
$GPGSA,A,3,02,05,31,25,10,12,29,,,,,,2.8,1.5,2.3*36
$GPGSV,3,1,10,25,67,282,21,12,59,169,30,05,51,115,20,29,47,308,31*72
$GPGSV,3,2,10,02,45,048,28,10,24,050,29,31,14,306,25,21,10,239,27*7F
$GPGSV,3,3,10,04,04,054,,51,44,160,28*70
$GPRMC,184950.000,A,3758.8084,N,11954.5643,W,0.57,12.17,291013,,*2E
$GPGGA,184951.000,3758.8082,N,11954.5646,W,2,07,1.5,1436.9,M,-23.2,M,2.8,0000*7F
$GPGSA,A,3,02,05,31,25,10,12,29,,,,,,2.8,1.5,2.3*36
$GPRMC,184951.000,A,3758.8082,N,11954.5646,W,0.53,39.15,291013,,*23
$GPGGA,184952.000,3758.8082,N,11954.5646,W,2,07,1.5,1435.7,M,-23.2,M,3.8,0000*70
$GPGSA,A,3,02,05,31,25,10,12,29,,,,,,2.8,1.5,2.3*36
$GPRMC,184952.000,A,3758.8082,N,11954.5646,W,0.46,64.71,291013,,*2E
$GPGGA,184953.000,3758.8078,N,11954.5648,W,2,07,1.5,1433.2,M,-23.2,M,0.8,0000*7A
$GPGSA,A,3,02,05,31,25,10,12,29,,,,,,2.8,1.5,2.3*36
$GPRMC,184953.000,A,3758.8078,N,11954.5648,W,0.38,73.82,291013,,*27
$GPGGA,184954.000,3758.8076,N,11954.5650,W,2,07,1.5,1431.4,M,-23.2,M,0.8,0000*7E
$GPGSA,A,3,02,05,31,25,10,12,29,,,,,,2.8,1.5,2.3*36
$GPRMC,184954.000,A,3758.8076,N,11954.5650,W,0.20,87.86,291013,,*21
$GPGGA,184955.000,3758.8074,N,11954.5651,W,2,07,1.5,1429.6,M,-23.2,M,0.8,0000*77
$GPGSA,A,3,02,05,31,25,10,12,29,,,,,,2.8,1.5,2.3*36
$GPGSV,3,1,10,25,67,282,23,12,59,169,30,05,51,115,23,29,47,308,31*73
$GPGSV,3,2,10,02,45,048,23,10,24,050,28,31,14,306,24,21,10,239,26*75
$GPGSV,3,3,10,04,04,054,,51,44,160,26*7E
$GPRMC,184955.000,A,3758.8074,N,11954.5651,W,0.39,69.81,291013,,*2C
$GPGGA,184956.000,3758.8076,N,11954.5651,W,2,07,1.5,1428.7,M,-23.2,M,1.8,0000*77
$GPGSA,A,3,02,05,31,25,10,12,29,,,,,,2.8,1.5,2.3*36
$GPRMC,184956.000,A,3758.8076,N,11954.5651,W,0.39,75.03,291013,,*2A
$GPGGA,184957.000,3758.8078,N,11954.5651,W,2,07,1.5,1428.1,M,-23.2,M,2.8,0000*7D
$GPGSA,A,3,02,05,31,25,10,12,29,,,,,,2.8,1.5,2.3*36
$GPRMC,184957.000,A,3758.8078,N,11954.5651,W,0.29,58.52,291013,,*2F
$GPGGA,184958.000,3758.8079,N,11954.5651,W,2,07,1.5,1427.1,M,-23.2,M,3.8,0000*7D
$GPGSA,A,3,02,05,31,25,10,12,29,,,,,,2.8,1.5,2.3*36
$GPRMC,184958.000,A,3758.8079,N,11954.5651,W,0.45,87.32,291013,,*2F
$GPGGA,184959.000,3758.8081,N,11954.5650,W,2,07,1.5,1427.6,M,-23.2,M,0.8,0000*7E
$GPGSA,A,3,02,05,31,25,10,12,29,,,,,,2.8,1.5,2.3*36
$GPRMC,184959.000,A,3758.8081,N,11954.5650,W,0.48,94.49,291013,,*2B
$GPGGA,185000.000,3758.8081,N,11954.5650,W,2,07,1.5,1426.1,M,-23.2,M,0.8,0000*7C
$GPGSA,A,3,02,05,31,25,10,12,29,,,,,,2.8,1.5,2.3*36
$GPGSV,3,1,10,25,67,282,24,12,59,169,31,05,51,115,27,29,47,308,30*70
$GPGSV,3,2,10,02,45,048,23,10,24,050,28,31,14,306,23,21,10,239,20*74
$GPGSV,3,3,10,04,04,054,,51,44,160,26*7E
$GPRMC,185000.000,A,3758.8081,N,11954.5650,W,0.06,104.87,291013,,*1F
$GPGGA,185001.000,3758.8081,N,11954.5651,W,2,07,1.5,1424.7,M,-23.2,M,0.8,0000*78
$GPGSA,A,3,02,05,31,25,10,12,29,,,,,,2.8,1.5,2.3*36
$GPRMC,185001.000,A,3758.8081,N,11954.5651,W,0.12,337.11,291013,,*17
$GPGGA,185002.000,3758.8082,N,11954.5652,W,2,07,1.5,1424.3,M,-23.2,M,0.8,0000*7F
$GPGSA,A,3,02,05,31,25,10,12,29,,,,,,2.8,1.5,2.3*36
$GPRMC,185002.000,A,3758.8082,N,11954.5652,W,0.20,290.93,291013,,*13
$GPGGA,185003.000,3758.8083,N,11954.5653,W,2,07,1.5,1423.4,M,-23.2,M,1.8,0000*7F
$GPGSA,A,3,02,05,31,25,10,12,29,,,,,,2.8,1.5,2.3*36
$GPRMC,185003.000,A,3758.8083,N,11954.5653,W,0.09,329.30,291013,,*13
$GPGGA,185004.000,3758.8086,N,11954.5650,W,2,07,1.5,1424.5,M,-23.2,M,2.8,0000*7B
$GPGSA,A,3,02,05,31,25,10,12,29,,,,,,2.8,1.5,2.3*36
$GPRMC,185004.000,A,3758.8086,N,11954.5650,W,0.47,91.52,291013,,*2C
$GPGGA,185005.000,3758.8089,N,11954.5649,W,2,07,1.5,1425.2,M,-23.2,M,0.8,0000*79
$GPGSA,A,3,02,05,31,25,10,12,29,,,,,,2.7,1.5,2.3*39
$GPGSV,3,1,10,25,67,282,25,12,59,169,31,05,51,115,27,29,47,308,30*71
$GPGSV,3,2,10,02,45,048,19,10,24,050,28,31,14,306,23,21,10,239,21*7C
$GPGSV,3,3,10,04,04,054,,51,44,160,27*7F
$GPRMC,185005.000,A,3758.8089,N,11954.5649,W,0.11,294.00,291013,,*19
$GPGGA,185006.000,3758.8088,N,11954.5649,W,2,07,1.5,1423.8,M,-23.2,M,0.8,0000*77
$GPGSA,A,3,02,05,31,25,10,12,29,,,,,,2.7,1.5,2.3*39
$GPRMC,185006.000,A,3758.8088,N,11954.5649,W,0.43,115.42,291013,,*10
$GPGGA,185007.000,3758.8086,N,11954.5647,W,2,07,1.5,1422.0,M,-23.2,M,0.8,0000*7F
$GPGSA,A,3,02,05,31,25,10,12,29,,,,,,2.7,1.5,2.3*39
$GPRMC,185007.000,A,3758.8086,N,11954.5647,W,0.27,110.04,291013,,*14
$GPGGA,185008.000,3758.8091,N,11954.5645,W,2,07,1.5,1422.7,M,-23.2,M,1.8,0000*72
$GPGSA,A,3,02,05,31,25,10,12,29,,,,,,2.7,1.5,2.3*39
$GPRMC,185008.000,A,3758.8091,N,11954.5645,W,0.50,70.55,291013,,*2C
$GPGGA,185009.000,3758.8092,N,11954.5643,W,2,07,1.5,1422.3,M,-23.2,M,2.8,0000*71
$GPGSA,A,3,02,05,31,25,10,12,29,,,,,,2.7,1.5,2.3*39
$GPRMC,185009.000,A,3758.8092,N,11954.5643,W,0.34,92.82,291013,,*2C
$GPGGA,185010.000,3758.8093,N,11954.5640,W,2,07,1.5,1422.3,M,-23.2,M,0.8,0000*79
$GPGSA,A,3,02,05,31,25,10,12,29,,,,,,2.7,1.5,2.3*39
$GPGSV,3,1,10,25,67,282,24,12,59,169,31,05,51,115,22,29,47,308,30*75
$GPGSV,3,2,10,02,45,048,25,10,24,050,28,31,14,306,22,21,10,239,23*70
$GPGSV,3,3,10,04,04,054,,51,44,160,28*70
$GPRMC,185010.000,A,3758.8093,N,11954.5640,W,0.52,99.38,291013,,*2C
$GPGGA,185011.000,3758.8093,N,11954.5639,W,2,07,1.5,1421.7,M,-23.2,M,0.8,0000*71
$GPGSA,A,3,02,05,31,25,10,12,29,,,,,,2.7,1.5,2.3*39
$GPRMC,185011.000,A,3758.8093,N,11954.5639,W,0.30,96.92,291013,,*28
$GPGGA,185012.000,3758.8089,N,11954.5641,W,2,07,1.5,1420.2,M,-23.2,M,0.8,0000*72
$GPGSA,A,3,02,05,31,25,10,12,29,,,,,,2.7,1.5,2.3*39
$GPRMC,185012.000,A,3758.8089,N,11954.5641,W,0.03,15.34,291013,,*28
$GPGGA,185013.000,3758.8087,N,11954.5643,W,2,07,1.5,1418.7,M,-23.2,M,0.8,0000*71
$GPGSA,A,3,02,05,31,25,10,12,29,,,,,,2.7,1.5,2.3*39
$GPRMC,185013.000,A,3758.8087,N,11954.5643,W,0.07,266.79,291013,,*1E
$GPGGA,185014.000,3758.8086,N,11954.5644,W,2,07,1.5,1417.6,M,-23.2,M,1.8,0000*7F
$GPGSA,A,3,02,05,31,25,10,12,29,,,,,,2.7,1.5,2.3*39
$GPRMC,185014.000,A,3758.8086,N,11954.5644,W,0.25,112.99,291013,,*11
$GPGGA,185015.000,3758.8085,N,11954.5645,W,2,07,1.5,1416.5,M,-23.2,M,2.8,0000*7D
$GPGSA,A,3,02,05,31,25,10,12,29,,,,,,2.7,1.5,2.3*39
$GPGSV,3,1,10,25,67,282,24,12,59,169,31,05,51,115,21,29,47,308,30*76
$GPGSV,3,2,10,02,45,048,27,10,24,050,28,31,14,306,22,21,10,239,24*75
$GPGSV,3,3,10,04,04,054,,51,44,160,31*78
$GPRMC,185015.000,A,3758.8085,N,11954.5645,W,0.06,282.77,291013,,*19
$GPGGA,185016.000,3758.8084,N,11954.5644,W,2,07,1.5,1415.8,M,-23.2,M,0.8,0000*72
$GPGSA,A,3,02,05,31,25,10,12,29,,,,,,2.7,1.5,2.3*39
$GPRMC,185016.000,A,3758.8084,N,11954.5644,W,0.35,127.72,291013,,*13
$GPGGA,185017.000,3758.8084,N,11954.5644,W,2,06,2.1,1414.9,M,-23.2,M,0.8,0000*75
$GPGSA,A,3,02,05,25,10,12,29,,,,,,,5.4,2.1,5.0*3C
$GPRMC,185017.000,A,3758.8084,N,11954.5644,W,0.44,107.97,291013,,*1D
$GPGGA,185018.000,3758.8083,N,11954.5642,W,2,07,1.5,1414.2,M,-23.2,M,0.8,0000*76
$GPGSA,A,3,02,05,31,25,10,12,29,,,,,,2.7,1.5,2.3*39
$GPRMC,185018.000,A,3758.8083,N,11954.5642,W,0.69,106.68,291013,,*1D
$GPGGA,185019.000,3758.8084,N,11954.5639,W,2,07,1.5,1413.8,M,-23.2,M,0.8,0000*71
$GPGSA,A,3,02,05,31,25,10,12,29,,,,,,2.7,1.5,2.3*39
$GPRMC,185019.000,A,3758.8084,N,11954.5639,W,0.79,96.19,291013,,*28
$GPGGA,185020.000,3758.8084,N,11954.5637,W,2,07,1.5,1413.6,M,-23.2,M,0.8,0000*7B
$GPGSA,A,3,02,05,31,25,10,12,29,,,,,,2.7,1.5,2.3*39
$GPGSV,3,1,10,25,67,282,19,12,59,169,31,05,51,115,21,29,47,308,31*79
$GPGSV,3,2,10,02,45,048,34,10,24,050,28,31,14,306,13,21,10,239,24*75
$GPGSV,3,3,10,04,04,054,,51,44,160,31*78
$GPRMC,185020.000,A,3758.8084,N,11954.5637,W,0.52,103.28,291013,,*1A
$GPGGA,185021.000,3758.8084,N,11954.5635,W,2,07,1.5,1413.0,M,-23.2,M,1.8,0000*7F
$GPGSA,A,3,02,05,31,25,10,12,29,,,,,,2.7,1.5,2.3*39
$GPRMC,185021.000,A,3758.8084,N,11954.5635,W,0.25,95.70,291013,,*2A
$GPGGA,185022.000,3758.8084,N,11954.5635,W,2,07,1.5,1412.3,M,-23.2,M,2.8,0000*7D
$GPGSA,A,3,02,05,31,25,10,12,29,,,,,,2.7,1.5,2.3*39
$GPRMC,185022.000,A,3758.8084,N,11954.5635,W,0.17,355.87,291013,,*1F
$GPGGA,185023.000,3758.8084,N,11954.5634,W,2,07,1.5,1411.5,M,-23.2,M,0.8,0000*7A
$GPGSA,A,3,02,05,31,25,10,12,29,,,,,,2.7,1.5,2.3*39
$GPRMC,185023.000,A,3758.8084,N,11954.5634,W,0.39,96.16,291013,,*27
$GPGGA,185024.000,3758.8085,N,11954.5633,W,2,07,1.5,1410.7,M,-23.2,M,0.8,0000*78
$GPGSA,A,3,02,05,31,25,10,12,29,,,,,,2.7,1.5,2.3*39
$GPRMC,185024.000,A,3758.8085,N,11954.5633,W,0.32,62.90,291013,,*28
$GPGGA,185025.000,3758.8085,N,11954.5633,W,2,07,1.5,1410.0,M,-23.2,M,0.8,0000*7E
$GPGSA,A,3,02,05,31,25,10,12,29,,,,,,2.7,1.5,2.3*39
$GPGSV,3,1,10,25,67,282,20,12,59,169,31,05,51,115,23,29,47,308,31*71
$GPGSV,3,2,10,02,45,048,33,10,24,050,29,31,14,306,12,21,10,239,24*72
$GPGSV,3,3,10,04,04,054,,51,44,160,30*79
$GPRMC,185025.000,A,3758.8085,N,11954.5633,W,0.36,83.45,291013,,*2A
$GPGGA,185026.000,3758.8086,N,11954.5632,W,2,07,1.5,1409.5,M,-23.2,M,1.8,0000*73
$GPGSA,A,3,02,05,31,25,10,12,29,,,,,,2.7,1.5,2.3*39
$GPRMC,185026.000,A,3758.8086,N,11954.5632,W,0.20,353.90,291013,,*1A
$GPGGA,185027.000,3758.8087,N,11954.5632,W,2,07,1.5,1409.0,M,-23.2,M,2.8,0000*75
$GPGSA,A,3,02,05,31,25,10,12,29,,,,,,2.7,1.5,2.3*39
$GPRMC,185027.000,A,3758.8087,N,11954.5632,W,0.08,88.52,291013,,*2B
$GPGGA,185028.000,3758.8088,N,11954.5632,W,2,07,1.5,1408.5,M,-23.2,M,3.8,0000*70
$GPGSA,A,3,02,05,31,25,10,12,29,,,,,,2.7,1.5,2.3*39
$GPRMC,185028.000,A,3758.8088,N,11954.5632,W,0.25,1.76,291013,,*13
$GPGGA,185029.000,3758.8090,N,11954.5632,W,2,07,1.5,1408.0,M,-23.2,M,4.8,0000*7A
$GPGSA,A,3,02,05,31,25,10,12,29,,,,,,2.7,1.5,2.3*39
$GPRMC,185029.000,A,3758.8090,N,11954.5632,W,0.19,356.88,291013,,*14
$GPGGA,185030.000,3758.8090,N,11954.5632,W,2,07,1.5,1407.5,M,-23.2,M,5.8,0000*79
$GPGSA,A,3,02,05,31,25,10,12,29,,,,,,2.7,1.5,2.3*39
$GPGSV,3,1,10,25,67,282,19,12,59,169,30,05,51,115,24,29,47,308,31*7D
$GPGSV,3,2,10,02,45,048,27,10,24,050,29,31,14,306,13,21,10,239,23*71
$GPGSV,3,3,10,04,04,054,,51,44,160,25*7D
$GPRMC,185030.000,A,3758.8090,N,11954.5632,W,0.28,79.23,291013,,*21
$GPGGA,185031.000,3758.8090,N,11954.5631,W,2,06,2.1,1407.0,M,-23.2,M,6.8,0000*7B
$GPGSA,A,3,02,05,25,10,12,29,,,,,,,5.4,2.1,5.0*3C
$GPRMC,185031.000,A,3758.8090,N,11954.5631,W,0.18,11.05,291013,,*2A
$GPGGA,185032.000,3758.8092,N,11954.5632,W,2,06,2.1,1406.5,M,-23.2,M,7.8,0000*7C
$GPGSA,A,3,02,05,25,10,12,29,,,,,,,5.4,2.1,5.0*3C
$GPRMC,185032.000,A,3758.8092,N,11954.5632,W,0.14,63.60,291013,,*22
$GPGGA,185033.000,3758.8091,N,11954.5630,W,2,07,1.5,1406.4,M,-23.2,M,8.8,0000*74
$GPGSA,A,3,02,05,31,25,10,12,29,,,,,,2.7,1.5,2.3*39
$GPRMC,185033.000,A,3758.8091,N,11954.5630,W,0.20,18.62,291013,,*2B
$GPGGA,185034.000,3758.8094,N,11954.5628,W,2,07,1.5,1408.0,M,-23.2,M,9.8,0000*74
$GPGSA,A,3,02,05,31,25,10,12,29,,,,,,2.7,1.5,2.3*39
$GPRMC,185034.000,A,3758.8094,N,11954.5628,W,0.21,51.18,291013,,*21
$GPGGA,185035.000,3758.8095,N,11954.5621,W,2,07,1.5,1409.4,M,-23.2,M,10.8,0000*40
$GPGSA,A,3,02,05,31,25,10,12,29,,,,,,2.7,1.5,2.3*39
$GPGSV,3,1,10,25,67,282,19,12,59,169,30,05,51,115,27,29,47,308,24*7A
$GPGSV,3,2,10,02,45,048,27,10,24,050,29,31,14,306,26,21,10,239,16*71
$GPGSV,3,3,10,04,04,054,,51,44,160,24*7C
$GPRMC,185035.000,A,3758.8095,N,11954.5621,W,0.41,73.74,291013,,*24
$GPGGA,185036.000,3758.8096,N,11954.5618,W,2,07,1.5,1410.3,M,-23.2,M,11.8,0000*44
$GPGSA,A,3,02,05,31,25,10,12,29,,,,,,2.7,1.5,2.3*39
$GPRMC,185036.000,A,3758.8096,N,11954.5618,W,0.38,52.17,291013,,*26
$GPGGA,185037.000,3758.8096,N,11954.5614,W,2,07,1.5,1409.7,M,-23.2,M,12.8,0000*46
$GPGSA,A,3,02,05,31,25,10,12,29,,,,,,2.7,1.5,2.3*39
$GPRMC,185037.000,A,3758.8096,N,11954.5614,W,0.46,63.96,291013,,*29
$GPGGA,185038.000,3758.8097,N,11954.5612,W,2,07,1.5,1409.9,M,-23.2,M,13.8,0000*41
$GPGSA,A,3,02,05,31,25,10,12,29,,,,,,2.7,1.5,2.3*39
$GPRMC,185038.000,A,3758.8097,N,11954.5612,W,0.56,63.11,291013,,*2F
$GPGGA,185039.000,3758.8099,N,11954.5612,W,2,07,1.5,1409.9,M,-23.2,M,14.8,0000*49
$GPGSA,A,3,02,05,31,25,10,12,29,,,,,,2.7,1.5,2.3*39
$GPRMC,185039.000,A,3758.8099,N,11954.5612,W,0.58,55.27,291013,,*2E
$GPGGA,185040.000,3758.8106,N,11954.5611,W,2,07,1.5,1413.6,M,-23.2,M,15.8,0000*46
$GPGSA,A,3,02,05,31,25,10,12,29,,,,,,2.7,1.5,2.3*39
$GPGSV,3,1,10,25,67,282,21,12,59,169,30,05,51,115,29,29,47,308,32*78
$GPGSV,3,2,10,02,45,048,27,10,24,050,29,31,14,306,26,21,10,239,21*75
$GPGSV,3,3,10,04,04,054,,48,43,200,28*7A
$GPRMC,185040.000,A,3758.8106,N,11954.5611,W,0.53,33.35,291013,,*2C
$GPGGA,185041.000,3758.8109,N,11954.5610,W,2,07,1.5,1414.0,M,-23.2,M,16.8,0000*4B
$GPGSA,A,3,02,05,31,25,10,12,29,,,,,,2.7,1.5,2.3*39
$GPRMC,185041.000,A,3758.8109,N,11954.5610,W,0.54,29.25,291013,,*2E
$GPGGA,185042.000,3758.8110,N,11954.5609,W,2,07,1.5,1414.1,M,-23.2,M,17.8,0000*48
$GPGSA,A,3,02,05,31,25,10,12,29,,,,,,2.7,1.5,2.3*39
$GPRMC,185042.000,A,3758.8110,N,11954.5609,W,0.58,36.16,291013,,*2F
$GPGGA,185043.000,3758.8112,N,11954.5608,W,1,07,1.5,1414.1,M,-23.2,M,18.8,0000*46
$GPGSA,A,3,02,05,31,25,10,12,29,,,,,,2.7,1.5,2.3*39
$GPRMC,185043.000,A,3758.8112,N,11954.5608,W,0.61,34.17,291013,,*24
$GPGGA,185044.000,3758.8113,N,11954.5606,W,1,07,1.5,1414.4,M,-23.2,M,18.8,0000*4B
$GPGSA,A,3,02,05,31,25,10,12,29,,,,,,2.7,1.5,2.3*39
$GPRMC,185044.000,A,3758.8113,N,11954.5606,W,0.71,59.94,291013,,*2D
$GPGGA,185045.000,3758.8115,N,11954.5604,W,1,07,1.5,1414.8,M,-23.2,M,18.8,0000*42
$GPGSA,A,3,02,05,31,25,10,12,29,,,,,,2.7,1.5,2.3*39
$GPGSV,3,1,10,25,67,282,31,12,59,169,36,05,51,115,29,29,47,308,33*7E
$GPGSV,3,2,10,02,45,048,36,10,24,050,35,31,14,306,21,21,10,239,21*7F
$GPGSV,3,3,10,04,04,054,,48,43,200,29*7B
$GPRMC,185045.000,A,3758.8115,N,11954.5604,W,0.71,62.80,291013,,*25
$GPGGA,185046.000,3758.8116,N,11954.5602,W,1,07,1.5,1414.8,M,-23.2,M,18.8,0000*44
$GPGSA,A,3,02,05,31,25,10,12,29,,,,,,2.7,1.5,2.3*39
$GPRMC,185046.000,A,3758.8116,N,11954.5602,W,0.63,42.44,291013,,*2A
$GPGGA,185047.000,3758.8118,N,11954.5602,W,1,07,1.5,1414.8,M,-23.2,M,18.8,0000*4B
$GPGSA,A,3,02,05,31,25,10,12,29,,,,,,2.7,1.5,2.3*39
$GPRMC,185047.000,A,3758.8118,N,11954.5602,W,0.60,37.27,291013,,*21
$GPGGA,185048.000,3758.8119,N,11954.5600,W,1,07,1.5,1414.8,M,-23.2,M,18.8,0000*47
$GPGSA,A,3,02,05,31,25,10,12,29,,,,,,2.7,1.5,2.3*39
$GPRMC,185048.000,A,3758.8119,N,11954.5600,W,0.59,50.51,291013,,*27
$GPGGA,185049.000,3758.8121,N,11954.5599,W,1,06,1.7,1414.9,M,-23.2,M,18.8,0000*4C
$GPGSA,A,3,02,31,25,10,12,29,,,,,,,2.9,1.7,2.3*30
$GPRMC,185049.000,A,3758.8121,N,11954.5599,W,0.61,54.95,291013,,*29
$GPGGA,185050.000,3758.8122,N,11954.5597,W,1,07,1.5,1415.0,M,-23.2,M,18.8,0000*42
$GPGSA,A,3,02,05,31,25,10,12,29,,,,,,2.7,1.5,2.3*39
$GPGSV,3,1,10,25,67,282,32,12,59,169,36,05,51,115,31,29,47,308,34*73
$GPGSV,3,2,10,02,45,048,33,10,24,050,35,31,14,306,26,21,10,239,26*7A
$GPGSV,3,3,10,04,04,054,,48,43,200,29*7B
$GPRMC,185050.000,A,3758.8122,N,11954.5597,W,0.63,50.92,291013,,*2D
$GPGGA,185051.000,3758.8123,N,11954.5595,W,1,07,1.5,1414.7,M,-23.2,M,18.8,0000*46
$GPGSA,A,3,02,05,31,25,10,12,29,,,,,,2.7,1.5,2.3*39
$GPRMC,185051.000,A,3758.8123,N,11954.5595,W,0.61,49.31,291013,,*2C
$GPGGA,185052.000,3758.8124,N,11954.5593,W,1,07,1.5,1414.6,M,-23.2,M,18.8,0000*45
$GPGSA,A,3,02,05,31,25,10,12,29,,,,,,2.7,1.5,2.3*39
$GPRMC,185052.000,A,3758.8124,N,11954.5593,W,0.74,63.15,291013,,*24
$GPGGA,185053.000,3758.8126,N,11954.5591,W,1,07,1.5,1414.8,M,-23.2,M,18.8,0000*4A
$GPGSA,A,3,02,05,31,25,10,12,29,,,,,,2.7,1.5,2.3*39
$GPRMC,185053.000,A,3758.8126,N,11954.5591,W,0.89,66.67,291013,,*27
$GPGGA,185054.000,3758.8127,N,11954.5588,W,1,07,1.5,1414.9,M,-23.2,M,18.8,0000*45
$GPGSA,A,3,02,05,31,25,10,12,29,,,,,,2.7,1.5,2.3*39
$GPRMC,185054.000,A,3758.8127,N,11954.5588,W,0.67,56.90,291013,,*22
$GPGGA,185055.000,3758.8129,N,11954.5587,W,1,07,1.5,1415.1,M,-23.2,M,18.8,0000*4C
$GPGSA,A,3,02,05,31,25,10,12,29,,,,,,2.7,1.5,2.3*39
$GPGSV,3,1,10,25,67,282,31,12,59,169,35,05,51,115,30,29,47,308,33*75
$GPGSV,3,2,10,02,45,048,33,10,24,050,27,31,14,306,21,21,10,239,26*7E
$GPGSV,3,3,10,04,04,054,,48,43,200,28*7A
$GPRMC,185055.000,A,3758.8129,N,11954.5587,W,0.62,59.12,291013,,*22
$GPGGA,185056.000,3758.8130,N,11954.5586,W,1,07,1.5,1415.1,M,-23.2,M,18.8,0000*46
$GPGSA,A,3,02,05,31,25,10,12,29,,,,,,2.7,1.5,2.3*39
$GPRMC,185056.000,A,3758.8130,N,11954.5586,W,0.72,44.33,291013,,*26
$GPGGA,185057.000,3758.8132,N,11954.5585,W,1,07,1.5,1415.1,M,-23.2,M,18.8,0000*46
$GPGSA,A,3,02,05,31,25,10,12,29,,,,,,2.7,1.5,2.3*39
$GPRMC,185057.000,A,3758.8132,N,11954.5585,W,0.50,33.83,291013,,*2D
$GPGGA,185058.000,3758.8133,N,11954.5584,W,1,07,1.5,1415.1,M,-23.2,M,18.8,0000*49
$GPGSA,A,3,02,05,31,25,10,12,29,,,,,,2.7,1.5,2.3*39
$GPRMC,185058.000,A,3758.8133,N,11954.5584,W,0.58,34.45,291013,,*27
$GPGGA,185059.000,3758.8135,N,11954.5583,W,1,07,1.5,1415.2,M,-23.2,M,18.8,0000*4A
$GPGSA,A,3,02,05,31,25,10,12,29,,,,,,2.7,1.5,2.3*39
$GPRMC,185059.000,A,3758.8135,N,11954.5583,W,0.60,42.51,291013,,*28
$GPGGA,185100.000,3758.8137,N,11954.5581,W,1,07,1.5,1415.4,M,-23.2,M,18.8,0000*41
$GPGSA,A,3,02,05,31,25,10,12,29,,,,,,2.7,1.5,2.3*39
$GPGSV,3,1,10,25,67,282,32,12,59,169,35,05,51,115,30,29,47,308,34*71
$GPGSV,3,2,10,02,45,048,33,10,24,050,29,31,14,306,22,21,10,239,26*73
