$GPGGA,214204.000,3759.1142,N,11954.3640,W,1,07,1.0,1420.0,M,-23.2,M,37.8,0000*45
$GPGSA,A,3,29,21,18,16,22,15,26,,,,,,2.0,1.0,1.7*31
$GPGSV,3,1,10,21,62,315,21,29,55,134,33,18,54,221,30,15,37,112,17*7A
$GPGSV,3,2,10,26,25,066,25,16,21,310,22,22,18,224,26,05,10,046,*74
$GPGSV,3,3,10,06,09,314,,25,08,188,*7F
$GPRMC,214204.000,A,3759.1142,N,11954.3640,W,3.55,12.74,291013,,*2C
$GPGGA,214205.000,3759.1154,N,11954.3639,W,1,07,1.0,1419.8,M,-23.2,M,37.8,0000*4F
$GPGSA,A,3,29,21,18,16,22,15,26,,,,,,2.0,1.0,1.7*31
$GPRMC,214205.000,A,3759.1154,N,11954.3639,W,3.52,17.04,291013,,*21
$GPGGA,214206.000,3759.1163,N,11954.3636,W,1,08,1.0,1420.0,M,-23.2,M,37.8,0000*4A
$GPGSA,A,3,29,21,18,16,22,15,06,26,,,,,1.9,1.0,1.6*3C
$GPRMC,214206.000,A,3759.1163,N,11954.3636,W,3.39,18.31,291013,,*2D
$GPGGA,214207.000,3759.1173,N,11954.3634,W,1,08,1.0,1419.8,M,-23.2,M,37.8,0000*4A
$GPGSA,A,3,29,21,18,16,22,15,06,26,,,,,1.9,1.0,1.6*3C
$GPRMC,214207.000,A,3759.1173,N,11954.3634,W,3.22,18.70,291013,,*20
$GPGGA,214208.000,3759.1184,N,11954.3633,W,1,08,1.0,1419.6,M,-23.2,M,37.8,0000*44
$GPGSA,A,3,29,21,18,16,22,15,06,26,,,,,1.9,1.0,1.6*3C
$GPRMC,214208.000,A,3759.1184,N,11954.3633,W,3.18,20.30,291013,,*26
$GPGGA,214209.000,3759.1193,N,11954.3630,W,1,09,0.9,1419.2,M,-23.2,M,37.8,0000*4D
$GPGSA,A,3,29,21,18,16,22,15,06,26,25,,,,1.6,0.9,1.3*39
$GPGSV,3,1,11,21,62,315,18,29,55,134,33,18,54,221,30,15,37,112,17*71
$GPGSV,3,2,11,26,25,066,27,16,21,310,22,22,18,224,26,05,10,046,*77
$GPGSV,3,3,11,06,09,314,15,25,08,188,18,48,43,200,27*4F
$GPRMC,214209.000,A,3759.1193,N,11954.3630,W,3.18,20.50,291013,,*24
$GPGGA,214210.000,3759.1202,N,11954.3627,W,1,09,0.9,1418.8,M,-23.2,M,37.8,0000*43
$GPGSA,A,3,29,21,18,16,22,15,06,26,25,,,,1.6,0.9,1.3*39
$GPRMC,214210.000,A,3759.1202,N,11954.3627,W,3.19,19.45,291013,,*2E
$GPGGA,214211.000,3759.1215,N,11954.3625,W,2,08,1.1,1420.0,M,-23.2,M,0.8,0000*7A
$GPGSA,A,3,29,21,18,16,22,15,06,25,,,,,1.8,1.1,1.4*3D
$GPRMC,214211.000,A,3759.1215,N,11954.3625,W,3.13,23.07,291013,,*2E
$GPGGA,214212.000,3759.1223,N,11954.3621,W,2,09,0.8,1419.9,M,-23.2,M,0.8,0000*72
$GPGSA,A,3,29,21,18,16,22,15,06,25,05,,,,1.4,0.8,1.2*3A
$GPRMC,214212.000,A,3759.1223,N,11954.3621,W,2.89,25.55,291013,,*2F
$GPGGA,214213.000,3759.1228,N,11954.3615,W,2,09,0.8,1419.6,M,-23.2,M,0.8,0000*70
$GPGSA,A,3,29,18,16,22,15,06,26,25,05,,,,1.7,0.8,1.5*39
$GPRMC,214213.000,A,3759.1228,N,11954.3615,W,2.92,25.26,291013,,*2C
$GPGGA,214214.000,3759.1235,N,11954.3610,W,2,08,0.9,1419.0,M,-23.2,M,1.8,0000*79
$GPGSA,A,3,29,18,16,15,06,26,25,05,,,,,1.7,0.9,1.5*38
$GPGSV,3,1,11,21,62,315,,29,55,134,33,18,54,221,30,15,37,112,17*78
$GPGSV,3,2,11,26,25,066,29,16,21,310,23,22,18,224,,05,10,046,18*75
$GPGSV,3,3,11,06,09,314,16,25,08,188,16,48,43,200,28*4D
$GPRMC,214214.000,A,3759.1235,N,11954.3610,W,3.00,16.78,291013,,*23
$GPGGA,214215.000,3759.1245,N,11954.3609,W,2,08,0.9,1419.4,M,-23.2,M,0.8,0000*72
$GPGSA,A,3,29,18,16,15,06,26,25,05,,,,,1.7,0.9,1.5*38
$GPRMC,214215.000,A,3759.1245,N,11954.3609,W,3.58,12.77,291013,,*2B
$GPGGA,214216.000,3759.1254,N,11954.3610,W,2,09,0.8,1419.2,M,-23.2,M,1.8,0000*7E
$GPGSA,A,3,29,18,16,22,15,06,26,25,05,,,,1.7,0.8,1.5*39
$GPRMC,214216.000,A,3759.1254,N,11954.3610,W,3.56,5.47,291013,,*1B
$GPGGA,214217.000,3759.1265,N,11954.3609,W,2,10,0.8,1418.3,M,-23.2,M,2.8,0000*7E
$GPGSA,A,3,29,21,18,16,22,15,06,26,25,05,,,1.4,0.8,1.2*3E
$GPRMC,214217.000,A,3759.1265,N,11954.3609,W,3.48,7.73,291013,,*1A
$GPGGA,214218.000,3759.1273,N,11954.3607,W,2,10,0.8,1418.0,M,-23.2,M,0.8,0000*79
$GPGSA,A,3,29,21,18,16,22,15,06,26,25,05,,,1.4,0.8,1.2*3E
$GPRMC,214218.000,A,3759.1273,N,11954.3607,W,3.39,11.97,291013,,*27
$GPGGA,214219.000,3759.1282,N,11954.3603,W,2,10,0.8,1418.2,M,-23.2,M,0.8,0000*70
$GPGSA,A,3,29,21,18,16,22,15,06,26,25,05,,,1.4,0.8,1.2*3E
$GPGSV,3,1,11,21,62,315,19,29,55,134,34,18,54,221,30,15,37,112,16*76
$GPGSV,3,2,11,26,25,066,29,16,21,310,22,22,18,224,25,05,10,046,19*72
$GPGSV,3,3,11,06,09,314,16,25,08,188,16,48,43,200,28*4D
$GPRMC,214219.000,A,3759.1282,N,11954.3603,W,3.45,17.88,291013,,*2F
$GPGGA,214220.000,3759.1291,N,11954.3599,W,2,10,0.8,1417.9,M,-23.2,M,1.8,0000*7D
$GPGSA,A,3,29,21,18,16,22,15,06,26,25,05,,,1.4,0.8,1.2*3E
$GPRMC,214220.000,A,3759.1291,N,11954.3599,W,3.18,19.91,291013,,*29
$GPGGA,214221.000,3759.1300,N,11954.3596,W,2,09,0.9,1418.1,M,-23.2,M,2.8,0000*77
$GPGSA,A,3,29,21,18,16,22,15,06,26,25,,,,1.6,0.9,1.3*39
$GPRMC,214221.000,A,3759.1300,N,11954.3596,W,3.03,19.36,291013,,*29
$GPGGA,214222.000,3759.1308,N,11954.3593,W,2,09,0.9,1418.2,M,-23.2,M,3.8,0000*7B
$GPGSA,A,3,29,21,18,16,22,15,06,26,25,,,,1.6,0.9,1.3*39
$GPRMC,214222.000,A,3759.1308,N,11954.3593,W,2.81,19.34,291013,,*2E
$GPGGA,214223.000,3759.1316,N,11954.3590,W,2,08,0.9,1418.1,M,-23.2,M,4.8,0000*73
$GPGSA,A,3,29,21,18,16,22,15,26,25,,,,,1.7,0.9,1.4*39
$GPRMC,214223.000,A,3759.1316,N,11954.3590,W,2.92,15.58,291013,,*27
$GPGGA,214224.000,3759.1324,N,11954.3589,W,2,08,0.9,1418.0,M,-23.2,M,5.8,0000*7D
$GPGSA,A,3,29,21,18,16,22,15,26,25,,,,,1.7,0.9,1.4*39
$GPGSV,3,1,10,21,62,315,21,29,55,134,33,18,54,221,30,15,37,112,18*75
$GPGSV,3,2,10,26,25,066,29,16,21,310,23,22,18,224,26,05,10,046,*79
$GPGSV,3,3,10,06,09,314,,25,08,188,14*7A
$GPRMC,214224.000,A,3759.1324,N,11954.3589,W,3.18,8.95,291013,,*17
$GPGGA,214225.000,3759.1331,N,11954.3585,W,2,08,0.9,1418.3,M,-23.2,M,6.8,0000*74
$GPGSA,A,3,29,21,18,16,22,15,26,25,,,,,1.7,0.9,1.4*39
$GPRMC,214225.000,A,3759.1331,N,11954.3585,W,3.19,9.55,291013,,*12
$GPGGA,214226.000,3759.1342,N,11954.3585,W,2,08,0.9,1418.5,M,-23.2,M,7.8,0000*74
$GPGSA,A,3,29,21,18,16,22,15,26,25,,,,,1.7,0.9,1.4*39
$GPRMC,214226.000,A,3759.1342,N,11954.3585,W,3.22,8.92,291013,,*17
$GPGGA,214227.000,3759.1353,N,11954.3584,W,2,08,0.9,1418.7,M,-23.2,M,8.8,0000*79
$GPGSA,A,3,29,21,18,16,22,15,26,25,,,,,1.7,0.9,1.4*39
$GPRMC,214227.000,A,3759.1353,N,11954.3584,W,3.18,12.07,291013,,*29
$GPGGA,214228.000,3759.1362,N,11954.3582,W,2,08,1.0,1418.7,M,-23.2,M,9.8,0000*7B
$GPGSA,A,3,29,05,21,18,16,22,15,26,,,,,1.8,1.0,1.5*3D
$GPRMC,214228.000,A,3759.1362,N,11954.3582,W,3.38,13.01,291013,,*27
$GPGGA,214229.000,3759.1372,N,11954.3580,W,2,08,1.0,1418.9,M,-23.2,M,10.8,0000*4F
$GPGSA,A,3,29,05,21,18,16,22,15,26,,,,,1.8,1.0,1.5*3D
$GPGSV,3,1,10,21,62,315,22,29,55,134,33,18,54,221,30,15,37,112,23*7E
$GPGSV,3,2,10,26,25,066,29,16,21,310,24,22,18,224,26,05,10,046,16*79
$GPGSV,3,3,10,06,09,314,,25,08,188,*7F
$GPRMC,214229.000,A,3759.1372,N,11954.3580,W,3.59,6.52,291013,,*10
$GPGGA,214230.000,3759.1382,N,11954.3580,W,2,08,1.0,1419.2,M,-23.2,M,11.8,0000*43
$GPGSA,A,3,29,21,18,16,22,15,06,26,,,,,1.9,1.0,1.6*3C
$GPRMC,214230.000,A,3759.1382,N,11954.3580,W,3.61,6.34,291013,,*1C
$GPGGA,214231.000,3759.1392,N,11954.3579,W,2,08,1.0,1419.3,M,-23.2,M,12.8,0000*47
$GPGSA,A,3,29,21,18,16,22,15,06,26,,,,,1.9,1.0,1.6*3C
$GPRMC,214231.000,A,3759.1392,N,11954.3579,W,3.38,9.03,291013,,*1D
$GPGGA,214232.000,3759.1400,N,11954.3575,W,2,08,1.0,1419.3,M,-23.2,M,13.8,0000*45
$GPGSA,A,3,29,21,18,16,22,15,06,26,,,,,1.9,1.0,1.6*3C
$GPRMC,214232.000,A,3759.1400,N,11954.3575,W,3.56,11.11,291013,,*2C
$GPGGA,214233.000,3759.1409,N,11954.3573,W,2,08,1.0,1419.4,M,-23.2,M,14.8,0000*4B
$GPGSA,A,3,29,21,18,16,22,15,06,26,,,,,1.9,1.0,1.6*3C
$GPRMC,214233.000,A,3759.1409,N,11954.3573,W,3.31,11.18,291013,,*2A
$GPGGA,214234.000,3759.1417,N,11954.3569,W,2,08,1.0,1419.7,M,-23.2,M,15.8,0000*4A
$GPGSA,A,3,29,21,18,16,22,15,06,26,,,,,1.9,1.0,1.6*3C
$GPGSV,3,1,10,21,62,315,22,29,55,134,33,18,54,221,30,15,37,112,22*7F
$GPGSV,3,2,10,26,25,066,28,16,21,310,23,22,18,224,26,05,10,046,*78
$GPGSV,3,3,10,06,09,314,23,25,08,188,*7E
$GPRMC,214234.000,A,3759.1417,N,11954.3569,W,3.12,17.48,291013,,*2B
$GPGGA,214235.000,3759.1425,N,11954.3566,W,2,08,1.0,1419.7,M,-23.2,M,16.8,0000*46
$GPGSA,A,3,29,21,18,16,22,15,06,26,,,,,1.9,1.0,1.6*3C
$GPRMC,214235.000,A,3759.1425,N,11954.3566,W,3.48,13.58,291013,,*2E
$GPGGA,214236.000,3759.1437,N,11954.3564,W,2,07,1.1,1420.2,M,-23.2,M,17.8,0000*44
$GPGSA,A,3,29,21,18,16,22,06,26,,,,,,1.9,1.1,1.6*39
$GPRMC,214236.000,A,3759.1437,N,11954.3564,W,3.88,7.31,291013,,*1A
$GPGGA,214237.000,3759.1446,N,11954.3562,W,1,07,1.1,1420.2,M,-23.2,M,18.8,0000*49
$GPGSA,A,3,29,21,18,16,22,06,26,,,,,,1.9,1.1,1.6*39
$GPRMC,214237.000,A,3759.1446,N,11954.3562,W,3.31,14.70,291013,,*2E
$GPGGA,214238.000,3759.1452,N,11954.3558,W,1,07,1.1,1419.1,M,-23.2,M,18.8,0000*43
$GPGSA,A,3,29,21,18,16,22,06,26,,,,,,1.9,1.1,1.6*39
$GPRMC,214238.000,A,3759.1452,N,11954.3558,W,3.44,11.45,291013,,*2C
$GPGGA,214239.000,3759.1463,N,11954.3557,W,1,07,1.1,1419.7,M,-23.2,M,18.8,0000*49
$GPGSA,A,3,29,21,18,16,22,06,26,,,,,,1.9,1.1,1.6*39
$GPGSV,3,1,10,21,62,315,22,29,55,134,33,18,54,221,30,15,37,112,*7F
$GPGSV,3,2,10,26,25,066,27,16,21,310,22,22,18,224,26,05,10,046,*76
$GPGSV,3,3,10,06,09,314,19,25,08,188,*77
$GPRMC,214239.000,A,3759.1463,N,11954.3557,W,3.38,14.51,291013,,*2B
$GPGGA,214240.000,3759.1472,N,11954.3554,W,1,07,1.1,1419.4,M,-23.2,M,18.8,0000*47
$GPGSA,A,3,29,21,18,16,22,06,26,,,,,,1.9,1.1,1.6*39
$GPRMC,214240.000,A,3759.1472,N,11954.3554,W,3.30,14.26,291013,,*2E
$GPGGA,214241.000,3759.1480,N,11954.3551,W,1,08,1.0,1419.2,M,-23.2,M,22.8,0000*4F
$GPGSA,A,3,29,15,21,18,16,22,06,26,,,,,1.9,1.0,1.6*3C
$GPRMC,214241.000,A,3759.1480,N,11954.3551,W,3.53,14.12,291013,,*25
$GPGGA,214242.000,3759.1489,N,11954.3548,W,1,08,1.0,1419.0,M,-23.2,M,22.8,0000*4F
$GPGSA,A,3,29,15,21,18,16,22,06,26,,,,,1.9,1.0,1.6*3C
$GPRMC,214242.000,A,3759.1489,N,11954.3548,W,3.41,16.55,291013,,*25
$GPGGA,214243.000,3759.1497,N,11954.3545,W,1,08,1.0,1419.0,M,-23.2,M,22.8,0000*4C
$GPGSA,A,3,29,15,21,18,16,22,06,26,,,,,1.9,1.0,1.6*3C
$GPRMC,214243.000,A,3759.1497,N,11954.3545,W,3.25,17.55,291013,,*25
$GPGGA,214244.000,3759.1508,N,11954.3544,W,1,08,1.0,1419.8,M,-23.2,M,22.8,0000*45
$GPGSA,A,3,29,15,21,18,16,22,06,26,,,,,1.9,1.0,1.6*3C
$GPGSV,3,1,10,21,62,315,22,29,55,134,33,18,54,221,29,15,37,112,18*7E
$GPGSV,3,2,10,26,25,066,27,16,21,310,21,22,18,224,26,05,10,046,*75
$GPGSV,3,3,10,06,09,314,20,25,08,188,*7D
$GPRMC,214244.000,A,3759.1508,N,11954.3544,W,3.37,12.42,291013,,*24
$GPGGA,214245.000,3759.1519,N,11954.3543,W,1,08,1.0,1420.2,M,-23.2,M,22.8,0000*43
$GPGSA,A,3,29,15,21,18,16,22,06,26,,,,,1.9,1.0,1.6*3C
$GPRMC,214245.000,A,3759.1519,N,11954.3543,W,3.08,14.13,291013,,*2C
$GPGGA,214246.000,3759.1525,N,11954.3539,W,1,08,1.0,1420.3,M,-23.2,M,22.8,0000*43
$GPGSA,A,3,29,15,21,18,16,22,06,26,,,,,1.9,1.0,1.6*3C
$GPRMC,214246.000,A,3759.1525,N,11954.3539,W,2.95,16.30,291013,,*2B
$GPGGA,214247.000,3759.1531,N,11954.3536,W,1,08,1.0,1419.7,M,-23.2,M,22.8,0000*46
$GPGSA,A,3,29,15,21,18,16,22,06,26,,,,,1.9,1.0,1.6*3C
$GPRMC,214247.000,A,3759.1531,N,11954.3536,W,3.16,11.92,291013,,*25
$GPGGA,214248.000,3759.1542,N,11954.3535,W,1,08,1.0,1420.2,M,-23.2,M,22.8,0000*41
$GPGSA,A,3,29,15,21,18,16,22,06,26,,,,,1.9,1.0,1.6*3C
$GPRMC,214248.000,A,3759.1542,N,11954.3535,W,3.55,10.85,291013,,*2D
$GPGGA,214249.000,3759.1551,N,11954.3533,W,1,08,1.0,1420.0,M,-23.2,M,22.8,0000*46
$GPGSA,A,3,29,15,21,18,16,22,06,26,,,,,1.9,1.0,1.6*3C
$GPGSV,3,1,10,21,62,315,22,29,55,134,33,18,54,221,29,15,37,112,19*7F
$GPGSV,3,2,10,26,25,066,27,16,21,310,21,22,18,224,26,05,10,046,*75
$GPGSV,3,3,10,06,09,314,22,25,08,188,*7F
$GPRMC,214249.000,A,3759.1551,N,11954.3533,W,3.46,10.35,291013,,*21
$GPGGA,214250.000,3759.1565,N,11954.3533,W,1,08,1.0,1421.6,M,-23.2,M,22.8,0000*4E
$GPGSA,A,3,29,15,21,18,16,22,06,26,,,,,1.9,1.0,1.6*3C
$GPRMC,214250.000,A,3759.1565,N,11954.3533,W,3.64,6.27,291013,,*1A
$GPGGA,214251.000,3759.1575,N,11954.3530,W,1,07,1.0,1422.2,M,-23.2,M,22.8,0000*45
$GPGSA,A,3,29,15,21,18,16,22,26,,,,,,2.0,1.0,1.7*31
$GPRMC,214251.000,A,3759.1575,N,11954.3530,W,3.38,9.56,291013,,*19
$GPGGA,214252.000,3759.1585,N,11954.3528,W,1,08,1.0,1422.7,M,-23.2,M,33.8,0000*4A
$GPGSA,A,3,29,15,21,18,16,22,05,26,,,,,1.8,1.0,1.5*3D
$GPRMC,214252.000,A,3759.1585,N,11954.3528,W,3.27,14.21,291013,,*2E
$GPGGA,214253.000,3759.1594,N,11954.3526,W,1,09,0.9,1422.7,M,-23.2,M,33.8,0000*4C
$GPGSA,A,3,29,15,21,18,16,22,05,06,26,,,,1.7,0.9,1.5*3C
$GPRMC,214253.000,A,3759.1594,N,11954.3526,W,3.52,10.09,291013,,*2D
$GPGGA,214254.000,3759.1603,N,11954.3524,W,1,08,1.0,1422.5,M,-23.2,M,33.8,0000*4F
$GPGSA,A,3,29,15,21,18,22,05,06,26,,,,,1.8,1.0,1.5*3C
$GPGSV,3,1,10,21,62,315,23,29,55,134,32,18,54,221,28,15,37,112,17*70
$GPGSV,3,2,10,26,25,066,27,16,21,310,,22,18,224,26,05,10,046,16*71
$GPGSV,3,3,10,06,09,314,18,25,08,188,*76
$GPRMC,214254.000,A,3759.1603,N,11954.3524,W,3.70,9.48,291013,,*18
$GPGGA,214255.000,3759.1613,N,11954.3522,W,1,06,1.2,1422.7,M,-23.2,M,33.8,0000*47
$GPGSA,A,3,29,21,18,22,05,06,,,,,,,1.9,1.2,1.5*3F
$GPRMC,214255.000,A,3759.1613,N,11954.3522,W,3.82,8.77,291013,,*1E
$GPGGA,214256.000,3759.1620,N,11954.3518,W,1,07,1.0,1421.8,M,-23.2,M,33.8,0000*42
$GPGSA,A,3,29,15,21,18,22,05,06,,,,,,1.8,1.0,1.5*38
$GPRMC,214256.000,A,3759.1620,N,11954.3518,W,3.78,15.35,291013,,*2B
$GPGGA,214257.000,3759.1630,N,11954.3515,W,1,08,1.0,1421.6,M,-23.2,M,33.8,0000*4E
$GPGSA,A,3,29,15,21,18,22,05,06,26,,,,,1.8,1.0,1.5*3C
$GPRMC,214257.000,A,3759.1630,N,11954.3515,W,3.72,11.44,291013,,*2E
$GPGGA,214258.000,3759.1639,N,11954.3512,W,1,08,1.0,1421.3,M,-23.2,M,33.8,0000*4A
$GPGSA,A,3,29,15,21,18,22,05,06,26,,,,,1.8,1.0,1.5*3C
$GPRMC,214258.000,A,3759.1639,N,11954.3512,W,3.36,20.82,291013,,*27
$GPGGA,214259.000,3759.1648,N,11954.3507,W,2,09,0.9,1421.2,M,-23.2,M,0.8,0000*72
$GPGSA,A,3,29,15,21,18,16,22,05,06,26,,,,1.7,0.9,1.5*3C
$GPGSV,3,1,11,21,62,315,24,29,55,134,32,18,54,221,28,15,37,112,14*75
$GPGSV,3,2,11,26,25,066,26,16,21,310,21,22,18,224,26,05,10,046,15*71
$GPGSV,3,3,11,06,09,314,17,25,08,188,,48,43,200,29*4A
$GPRMC,214259.000,A,3759.1648,N,11954.3507,W,3.08,25.53,291013,,*20
$GPGGA,214300.000,3759.1651,N,11954.3501,W,2,10,0.8,1420.4,M,-23.2,M,0.8,0000*7F
$GPGSA,A,3,29,15,21,18,16,22,05,06,25,26,,,1.4,0.8,1.2*3E
$GPRMC,214300.000,A,3759.1651,N,11954.3501,W,3.20,20.72,291013,,*2F
$GPGGA,214301.000,3759.1659,N,11954.3495,W,2,10,0.8,1419.4,M,-23.2,M,0.8,0000*70
$GPGSA,A,3,29,15,21,18,16,22,05,06,25,26,,,1.4,0.8,1.2*3E
$GPRMC,214301.000,A,3759.1659,N,11954.3495,W,3.41,15.50,291013,,*2B
$GPGGA,214302.000,3759.1670,N,11954.3494,W,2,09,0.9,1419.8,M,-23.2,M,1.8,0000*7D
$GPGSA,A,3,29,15,21,18,16,22,05,06,26,,,,1.7,0.9,1.5*3C
$GPRMC,214302.000,A,3759.1670,N,11954.3494,W,3.66,15.49,291013,,*2F
$GPGGA,214303.000,3759.1678,N,11954.3492,W,2,08,1.0,1419.4,M,-23.2,M,2.8,0000*74
$GPGSA,A,3,29,15,21,18,16,22,06,26,,,,,1.9,1.0,1.6*3C
$GPRMC,214303.000,A,3759.1678,N,11954.3492,W,3.23,18.66,291013,,*21
$GPGGA,214304.000,3759.1686,N,11954.3489,W,2,08,1.0,1419.1,M,-23.2,M,3.8,0000*7C
$GPGSA,A,3,29,15,21,18,16,22,06,26,,,,,1.9,1.0,1.6*3C
$GPGSV,3,1,10,21,62,315,24,29,55,134,31,18,54,221,28,15,37,112,15*76
$GPGSV,3,2,10,26,25,066,26,16,21,310,22,22,18,224,25,05,10,046,*74
$GPGSV,3,3,10,06,09,314,16,25,08,188,*78
$GPRMC,214304.000,A,3759.1686,N,11954.3489,W,3.29,16.70,291013,,*2E
$GPGGA,214305.000,3759.1693,N,11954.3489,W,2,08,1.0,1419.3,M,-23.2,M,4.8,0000*7C
$GPGSA,A,3,29,15,21,18,16,22,06,26,,,,,1.9,1.0,1.6*3C
$GPRMC,214305.000,A,3759.1693,N,11954.3489,W,3.41,13.17,291013,,*21
$GPGGA,214306.000,3759.1702,N,11954.3487,W,2,08,1.0,1418.4,M,-23.2,M,5.8,0000*7F
$GPGSA,A,3,29,15,21,18,16,22,06,26,,,,,1.9,1.0,1.6*3C
$GPRMC,214306.000,A,3759.1702,N,11954.3487,W,3.55,12.27,291013,,*22
$GPGGA,214307.000,3759.1705,N,11954.3481,W,2,08,1.0,1417.1,M,-23.2,M,6.8,0000*76
$GPGSA,A,3,29,15,21,18,16,22,06,26,,,,,1.9,1.0,1.6*3C
$GPRMC,214307.000,A,3759.1705,N,11954.3481,W,3.03,25.21,291013,,*23
$GPGGA,214308.000,3759.1717,N,11954.3480,W,2,08,1.0,1417.6,M,-23.2,M,7.8,0000*7D
$GPGSA,A,3,29,15,21,18,16,22,06,26,,,,,1.9,1.0,1.6*3C
$GPRMC,214308.000,A,3759.1717,N,11954.3480,W,3.53,12.72,291013,,*29
$GPGGA,214309.000,3759.1728,N,11954.3479,W,2,07,1.0,1417.6,M,-23.2,M,8.8,0000*76
$GPGSA,A,3,29,15,21,16,22,06,26,,,,,,2.0,1.0,1.7*3E
$GPGSV,3,1,11,21,62,315,23,29,55,134,31,18,54,221,,15,37,112,23*7F
$GPGSV,3,2,11,26,25,066,26,16,21,310,22,22,18,224,25,05,10,046,*75
$GPGSV,3,3,11,06,09,314,16,25,08,188,,48,43,200,33*40
$GPRMC,214309.000,A,3759.1728,N,11954.3479,W,3.54,14.69,291013,,*29
$GPGGA,214310.000,3759.1737,N,11954.3476,W,2,08,0.9,1417.1,M,-23.2,M,9.8,0000*7E
$GPGSA,A,3,29,15,21,16,22,25,06,26,,,,,1.8,0.9,1.5*38
$GPRMC,214310.000,A,3759.1737,N,11954.3476,W,3.25,17.99,291013,,*2A
$GPGGA,214311.000,3759.1746,N,11954.3475,W,2,09,0.9,1417.3,M,-23.2,M,0.8,0000*70
$GPGSA,A,3,29,15,21,18,16,22,25,06,26,,,,1.6,0.9,1.3*39
$GPRMC,214311.000,A,3759.1746,N,11954.3475,W,3.85,10.22,291013,,*23
$GPGGA,214312.000,3759.1759,N,11954.3475,W,2,09,0.9,1417.7,M,-23.2,M,0.8,0000*79
$GPGSA,A,3,29,15,21,18,16,22,25,06,26,,,,1.6,0.9,1.3*39
$GPRMC,214312.000,A,3759.1759,N,11954.3475,W,3.77,13.04,291013,,*24
$GPGGA,214313.000,3759.1769,N,11954.3471,W,2,09,0.9,1417.5,M,-23.2,M,0.8,0000*7D
$GPGSA,A,3,29,15,21,18,16,22,25,06,26,,,,1.6,0.9,1.3*39
$GPRMC,214313.000,A,3759.1769,N,11954.3471,W,3.72,15.24,291013,,*23
$GPGGA,214314.000,3759.1778,N,11954.3468,W,2,09,0.9,1417.3,M,-23.2,M,1.8,0000*75
$GPGSA,A,3,29,15,21,18,16,22,25,06,26,,,,1.6,0.9,1.3*39
$GPGSV,3,1,11,21,62,315,23,29,55,134,31,18,54,221,31,15,37,112,16*7B
$GPGSV,3,2,11,26,25,066,27,16,21,310,23,22,18,224,26,05,10,046,*76
$GPGSV,3,3,11,06,09,314,17,25,08,188,22,48,43,200,31*43
$GPRMC,214314.000,A,3759.1778,N,11954.3468,W,3.13,19.13,291013,,*23
$GPGGA,214315.000,3759.1787,N,11954.3465,W,2,08,0.9,1417.2,M,-23.2,M,2.8,0000*7A
$GPGSA,A,3,29,21,18,16,22,25,06,26,,,,,1.6,0.9,1.3*3D
$GPRMC,214315.000,A,3759.1787,N,11954.3465,W,2.95,20.65,291013,,*2B
$GPGGA,214316.000,3759.1794,N,11954.3463,W,2,08,1.0,1417.1,M,-23.2,M,3.8,0000*77
$GPGSA,A,3,29,21,18,16,22,06,05,26,,,,,1.8,1.0,1.5*3F
$GPRMC,214316.000,A,3759.1794,N,11954.3463,W,3.29,18.66,291013,,*22
$GPGGA,214317.000,3759.1802,N,11954.3459,W,2,09,0.9,1416.5,M,-23.2,M,0.8,0000*70
$GPGSA,A,3,29,15,21,18,16,22,06,05,26,,,,1.7,0.9,1.5*3C
$GPRMC,214317.000,A,3759.1802,N,11954.3459,W,3.38,17.46,291013,,*27
$GPGGA,214318.000,3759.1813,N,11954.3455,W,2,09,0.9,1416.7,M,-23.2,M,0.8,0000*71
$GPGSA,A,3,29,15,21,18,16,22,06,05,26,,,,1.7,0.9,1.5*3C
$GPRMC,214318.000,A,3759.1813,N,11954.3455,W,3.43,14.81,291013,,*20
$GPGGA,214319.000,3759.1823,N,11954.3452,W,2,08,1.0,1416.9,M,-23.2,M,0.8,0000*73
$GPGSA,A,3,29,21,18,16,22,06,05,26,,,,,1.8,1.0,1.5*3F
$GPGSV,3,1,11,21,62,315,24,29,55,134,31,18,54,221,31,15,37,112,*7B
$GPGSV,3,2,11,26,25,066,27,16,21,310,22,22,18,224,26,05,10,046,19*7F
$GPGSV,3,3,11,06,09,314,17,25,08,188,,48,43,200,29*4A
$GPRMC,214319.000,A,3759.1823,N,11954.3452,W,3.78,13.66,291013,,*23
$GPGGA,214320.000,3759.1833,N,11954.3451,W,2,08,1.0,1417.0,M,-23.2,M,0.8,0000*73
$GPGSA,A,3,29,21,18,16,22,06,05,26,,,,,1.8,1.0,1.5*3F
$GPRMC,214320.000,A,3759.1833,N,11954.3451,W,3.52,11.29,291013,,*2A
$GPGGA,214321.000,3759.1846,N,11954.3452,W,2,07,1.1,1418.3,M,-23.2,M,0.8,0000*71
$GPGSA,A,3,29,21,18,22,06,05,26,,,,,,1.8,1.1,1.5*39
$GPRMC,214321.000,A,3759.1846,N,11954.3452,W,3.46,5.95,291013,,*1D
$GPGGA,214322.000,3759.1857,N,11954.3452,W,2,08,0.9,1418.6,M,-23.2,M,1.8,0000*70
$GPGSA,A,3,29,15,21,22,25,06,05,26,,,,,1.6,0.9,1.3*32
$GPRMC,214322.000,A,3759.1857,N,11954.3452,W,3.63,7.43,291013,,*10
$GPGGA,214323.000,3759.1871,N,11954.3454,W,2,09,0.8,1419.7,M,-23.2,M,2.8,0000*70
$GPGSA,A,3,29,15,21,16,22,25,06,05,26,,,,1.5,0.8,1.3*37
$GPRMC,214323.000,A,3759.1871,N,11954.3454,W,3.67,7.47,291013,,*13
$GPGGA,214324.000,3759.1881,N,11954.3454,W,2,10,0.8,1419.8,M,-23.2,M,3.8,0000*7E
$GPGSA,A,3,29,15,21,16,18,22,25,06,05,26,,,1.4,0.8,1.2*3E
$GPGSV,3,1,10,21,62,315,24,29,55,134,30,18,54,221,21,15,37,112,19*72
$GPGSV,3,2,10,26,25,066,27,16,21,310,27,22,18,224,26,05,10,046,20*71
$GPGSV,3,3,10,06,09,314,15,25,08,188,16*7C
$GPRMC,214324.000,A,3759.1881,N,11954.3454,W,3.37,4.97,291013,,*10
$GPGGA,214325.000,3759.1890,N,11954.3452,W,2,09,0.9,1419.1,M,-23.2,M,4.8,0000*7E
$GPGSA,A,3,29,15,21,16,18,22,25,06,26,,,,1.6,0.9,1.3*39
$GPRMC,214325.000,A,3759.1890,N,11954.3452,W,3.52,5.80,291013,,*13
$GPGGA,214326.000,3759.1899,N,11954.3451,W,2,09,0.9,1419.0,M,-23.2,M,5.8,0000*77
$GPGSA,A,3,29,15,21,16,18,22,25,06,26,,,,1.6,0.9,1.3*39
$GPRMC,214326.000,A,3759.1899,N,11954.3451,W,3.77,7.31,291013,,*15
$GPGGA,214327.000,3759.1906,N,11954.3448,W,2,08,1.1,1419.1,M,-23.2,M,6.8,0000*73
$GPGSA,A,3,29,15,21,16,18,22,25,06,,,,,1.8,1.1,1.4*3D
$GPRMC,214327.000,A,3759.1906,N,11954.3448,W,3.33,10.68,291013,,*21
$GPGGA,214328.000,3759.1914,N,11954.3446,W,2,08,1.1,1419.6,M,-23.2,M,7.8,0000*77
$GPGSA,A,3,29,15,21,16,18,22,25,06,,,,,1.8,1.1,1.4*3D
$GPRMC,214328.000,A,3759.1914,N,11954.3446,W,3.51,13.39,291013,,*20
$GPGGA,214329.000,3759.1922,N,11954.3438,W,2,08,1.1,1418.9,M,-23.2,M,8.8,0000*7B
$GPGSA,A,3,29,15,21,16,18,22,25,06,,,,,1.8,1.1,1.4*3D
$GPGSV,3,1,11,21,62,315,25,29,55,134,30,18,54,221,27,15,37,112,25*7B
$GPGSV,3,2,11,26,25,066,,16,21,310,25,22,18,224,25,05,10,046,*76
$GPGSV,3,3,11,06,09,314,23,25,08,188,16,48,43,200,28*4B
$GPRMC,214329.000,A,3759.1922,N,11954.3438,W,3.58,17.48,291013,,*26
$GPGGA,214330.000,3759.1930,N,11954.3435,W,2,08,1.1,1419.3,M,-23.2,M,9.8,0000*77
$GPGSA,A,3,29,15,21,16,18,22,25,06,,,,,1.8,1.1,1.4*3D
$GPRMC,214330.000,A,3759.1930,N,11954.3435,W,3.21,16.75,291013,,*21
$GPGGA,214331.000,3759.1938,N,11954.3431,W,2,09,0.8,1419.1,M,-23.2,M,10.8,0000*49
$GPGSA,A,3,29,15,21,16,18,22,25,06,05,,,,1.4,0.8,1.2*3A
$GPRMC,214331.000,A,3759.1938,N,11954.3431,W,3.26,19.79,291013,,*28
$GPGGA,214332.000,3759.1945,N,11954.3428,W,2,09,0.8,1419.0,M,-23.2,M,11.8,0000*48
$GPGSA,A,3,29,15,21,16,18,22,25,06,05,,,,1.4,0.8,1.2*3A
$GPRMC,214332.000,A,3759.1945,N,11954.3428,W,3.15,19.71,291013,,*21
$GPGGA,214333.000,3759.1954,N,11954.3429,W,2,09,0.8,1420.0,M,-23.2,M,12.8,0000*41
$GPGSA,A,3,29,15,21,16,18,22,25,06,05,,,,1.4,0.8,1.2*3A
$GPRMC,214333.000,A,3759.1954,N,11954.3429,W,2.91,13.77,291013,,*20
$GPGGA,214334.000,3759.1960,N,11954.3431,W,2,09,0.8,1420.2,M,-23.2,M,13.8,0000*4B
$GPGSA,A,3,29,15,21,16,18,22,25,06,05,,,,1.4,0.8,1.2*3A
$GPGSV,3,1,11,21,62,315,26,29,55,134,30,18,54,221,26,15,37,112,24*78
$GPGSV,3,2,11,26,25,066,,16,21,310,18,22,18,224,25,05,10,046,18*71
$GPGSV,3,3,11,06,09,314,22,25,08,188,16,48,43,200,29*4B
$GPRMC,214334.000,A,3759.1960,N,11954.3431,W,2.81,10.73,291013,,*2F
$GPGGA,214335.000,3759.1968,N,11954.3435,W,2,09,0.8,1420.9,M,-23.2,M,14.8,0000*4A
$GPGSA,A,3,29,15,21,16,18,22,25,06,05,,,,1.4,0.8,1.2*3A
$GPRMC,214335.000,A,3759.1968,N,11954.3435,W,3.38,14.57,291013,,*23
$GPGGA,214336.000,3759.1977,N,11954.3437,W,2,09,0.8,1421.9,M,-23.2,M,15.8,0000*45
$GPGSA,A,3,29,15,21,16,18,22,25,06,05,,,,1.4,0.8,1.2*3A
$GPRMC,214336.000,A,3759.1977,N,11954.3437,W,3.56,13.54,291013,,*20
$GPGGA,214337.000,3759.1985,N,11954.3433,W,2,09,0.8,1421.7,M,-23.2,M,16.8,0000*40
$GPGSA,A,3,29,15,21,16,18,22,25,06,05,,,,1.4,0.8,1.2*3A
$GPRMC,214337.000,A,3759.1985,N,11954.3433,W,3.55,19.80,291013,,*28
$GPGGA,214338.000,3759.1994,N,11954.3432,W,2,09,0.8,1421.9,M,-23.2,M,17.8,0000*41
$GPGSA,A,3,29,15,21,16,18,22,25,06,05,,,,1.4,0.8,1.2*3A
$GPRMC,214338.000,A,3759.1994,N,11954.3432,W,3.78,16.66,291013,,*2E
$GPGGA,214339.000,3759.2003,N,11954.3430,W,1,08,0.9,1421.6,M,-23.2,M,18.8,0000*45
$GPGSA,A,3,29,15,21,16,18,22,25,05,,,,,1.5,0.9,1.2*3C
$GPGSV,3,1,11,21,62,315,26,29,55,134,30,18,54,221,26,15,37,112,23*7F
$GPGSV,3,2,11,26,25,066,,16,21,310,20,22,18,224,25,05,10,046,17*75
$GPGSV,3,3,11,06,09,314,12,25,08,188,14,48,43,200,27*44
$GPRMC,214339.000,A,3759.2003,N,11954.3430,W,3.97,13.69,291013,,*22
$GPGGA,214340.000,3759.2015,N,11954.3424,W,1,10,0.8,1420.7,M,-23.2,M,19.8,0000*40
$GPGSA,A,3,29,15,21,16,18,22,25,06,26,05,,,1.4,0.8,1.2*3E
$GPRMC,214340.000,A,3759.2015,N,11954.3424,W,4.16,21.06,291013,,*28
$GPGGA,214341.000,3759.2026,N,11954.3418,W,1,09,0.8,1420.4,M,-23.2,M,19.8,0000*45
$GPGSA,A,3,29,15,21,16,18,22,25,26,05,,,,1.5,0.8,1.2*39
$GPRMC,214341.000,A,3759.2026,N,11954.3418,W,3.90,17.77,291013,,*2C
$GPGGA,214342.000,3759.2036,N,11954.3412,W,1,10,0.8,1419.5,M,-23.2,M,19.8,0000*4E
$GPGSA,A,3,29,15,21,16,18,22,25,06,26,05,,,1.4,0.8,1.2*3E
$GPRMC,214342.000,A,3759.2036,N,11954.3412,W,3.60,21.00,291013,,*2E
$GPGGA,214343.000,3759.2045,N,11954.3410,W,1,09,0.8,1419.4,M,-23.2,M,19.8,0000*40
$GPGSA,A,3,29,15,21,16,18,22,25,26,05,,,,1.5,0.8,1.2*39
$GPRMC,214343.000,A,3759.2045,N,11954.3410,W,3.42,6.32,291013,,*1D
$GPGGA,214344.000,3759.2056,N,11954.3408,W,1,08,1.0,1419.8,M,-23.2,M,19.8,0000*48
$GPGSA,A,3,29,15,21,16,18,22,06,26,,,,,1.9,1.0,1.6*3C
$GPGSV,3,1,10,21,62,315,19,29,55,134,25,18,54,221,24,15,37,112,28*7F
$GPGSV,3,2,10,26,25,066,31,16,21,310,27,22,18,224,25,05,10,046,*77
$GPGSV,3,3,10,06,09,314,12,25,08,188,*7C
$GPRMC,214344.000,A,3759.2056,N,11954.3408,W,3.40,5.84,291013,,*1D
$GPGGA,214345.000,3759.2064,N,11954.3409,W,1,07,1.1,1420.4,M,-23.2,M,19.8,0000*41
$GPGSA,A,3,29,15,21,16,18,22,26,,,,,,2.0,1.1,1.8*3F
$GPRMC,214345.000,A,3759.2064,N,11954.3409,W,3.17,359.31,291013,,*1A
$GPGGA,214346.000,3759.2071,N,11954.3408,W,1,07,1.1,1419.5,M,-23.2,M,19.8,0000*4C
$GPGSA,A,3,29,15,21,16,18,22,26,,,,,,2.0,1.1,1.8*3F
$GPRMC,214346.000,A,3759.2071,N,11954.3408,W,3.36,5.24,291013,,*11
$GPGGA,214347.000,3759.2082,N,11954.3402,W,1,06,1.1,1420.0,M,-23.2,M,19.8,0000*45
$GPGSA,A,3,15,21,16,18,22,26,,,,,,,2.2,1.1,1.9*37
$GPRMC,214347.000,A,3759.2082,N,11954.3402,W,3.57,5.97,291013,,*19
$GPGGA,214348.000,3759.2093,N,11954.3398,W,1,06,1.1,1420.9,M,-23.2,M,19.8,0000*47
$GPGSA,A,3,15,21,16,18,22,26,,,,,,,2.2,1.1,1.9*37
$GPRMC,214348.000,A,3759.2093,N,11954.3398,W,3.62,2.32,291013,,*1C
$GPGGA,214349.000,3759.2103,N,11954.3398,W,1,09,0.8,1421.3,M,-23.2,M,19.8,0000*42
$GPGSA,A,3,25,15,21,16,18,22,05,29,26,,,,1.5,0.8,1.2*39
$GPGSV,3,1,10,21,62,315,20,29,55,134,26,18,54,221,25,15,37,112,21*7E
$GPGSV,3,2,10,26,25,066,31,16,21,310,28,22,18,224,20,05,10,046,20*7F
$GPGSV,3,3,10,06,09,314,,25,08,188,19*77
$GPRMC,214349.000,A,3759.2103,N,11954.3398,W,3.90,1.11,291013,,*1A
$GPGGA,214350.000,3759.2112,N,11954.3398,W,1,09,0.8,1421.9,M,-23.2,M,19.8,0000*40
$GPGSA,A,3,25,15,21,16,18,22,05,29,26,,,,1.5,0.8,1.2*39
$GPRMC,214350.000,A,3759.2112,N,11954.3398,W,3.89,1.93,291013,,*10
$GPGGA,214351.000,3759.2122,N,11954.3398,W,1,09,0.8,1422.1,M,-23.2,M,19.8,0000*49
$GPGSA,A,3,25,15,16,18,22,05,06,29,26,,,,1.6,0.8,1.4*39
$GPRMC,214351.000,A,3759.2122,N,11954.3398,W,3.57,3.84,291013,,*15
$GPGGA,214352.000,3759.2133,N,11954.3398,W,1,10,0.8,1422.7,M,-23.2,M,19.8,0000*44
$GPGSA,A,3,25,15,21,16,18,22,05,06,29,26,,,1.4,0.8,1.2*3E
$GPRMC,214352.000,A,3759.2133,N,11954.3398,W,3.73,2.77,291013,,*1D
$GPGGA,214353.000,3759.2144,N,11954.3396,W,1,09,0.8,1423.4,M,-23.2,M,19.8,0000*41
$GPGSA,A,3,25,15,21,16,18,05,06,29,26,,,,1.5,0.8,1.2*3F
$GPRMC,214353.000,A,3759.2144,N,11954.3396,W,3.78,5.63,291013,,*1B
$GPGGA,214354.000,3759.2155,N,11954.3395,W,1,10,0.8,1423.1,M,-23.2,M,19.8,0000*48
$GPGSA,A,3,25,15,21,16,18,22,05,06,29,26,,,1.4,0.8,1.2*3E
$GPGSV,3,1,10,21,62,315,17,29,55,134,25,18,54,221,27,15,37,112,28*72
$GPGSV,3,2,10,26,25,066,27,16,21,310,28,22,18,224,24,05,10,046,21*7D
$GPGSV,3,3,10,06,09,314,13,25,08,188,19*75
$GPRMC,214354.000,A,3759.2155,N,11954.3395,W,3.94,6.64,291013,,*19
$GPGGA,214355.000,3759.2165,N,11954.3394,W,1,09,0.8,1422.7,M,-23.2,M,19.8,0000*44
$GPGSA,A,3,25,15,21,16,18,22,05,29,26,,,,1.5,0.8,1.2*39
$GPRMC,214355.000,A,3759.2165,N,11954.3394,W,3.41,3.70,291013,,*12
$GPGGA,214356.000,3759.2175,N,11954.3394,W,1,09,0.8,1422.4,M,-23.2,M,19.8,0000*45
$GPGSA,A,3,25,15,21,16,18,22,05,29,26,,,,1.5,0.8,1.2*39
$GPRMC,214356.000,A,3759.2175,N,11954.3394,W,3.62,6.60,291013,,*15
$GPGGA,214357.000,3759.2185,N,11954.3394,W,1,08,0.9,1422.6,M,-23.2,M,19.8,0000*49
$GPGSA,A,3,25,15,21,16,18,05,29,26,,,,,1.6,0.9,1.3*3A
$GPRMC,214357.000,A,3759.2185,N,11954.3394,W,3.83,6.21,291013,,*11
$GPGGA,214358.000,3759.2196,N,11954.3393,W,1,08,0.9,1423.7,M,-23.2,M,19.8,0000*43
$GPGSA,A,3,25,15,21,16,18,22,05,29,,,,,1.5,0.9,1.2*3C
$GPRMC,214358.000,A,3759.2196,N,11954.3393,W,4.04,9.75,291013,,*1D
$GPGGA,214359.000,3759.2207,N,11954.3391,W,1,00,50.0,1423.9,M,-23.2,M,19.8,0000*71
$GPGSA,A,2,,,,,,,,,,,,,50.0,50.0,50.0*06
$GPGSV,3,1,10,21,62,315,18,29,55,134,25,18,54,221,27,15,37,112,27*72
$GPGSV,3,2,10,26,25,066,,16,21,310,28,22,18,224,20,05,10,046,21*7C
$GPGSV,3,3,10,06,09,314,,25,08,188,19*77
$GPRMC,214359.000,A,3759.2207,N,11954.3391,W,4.04,9.75,291013,,*15
$GPGGA,214400.000,3759.2217,N,11954.3389,W,1,09,0.8,1423.7,M,-23.2,M,19.8,0000*48
$GPGSA,A,3,25,15,21,16,18,22,05,29,26,,,,1.5,0.8,1.2*39
$GPRMC,214400.000,A,3759.2217,N,11954.3389,W,3.39,7.67,291013,,*12
$GPGGA,214401.000,3759.2226,N,11954.3387,W,1,09,0.8,1424.3,M,-23.2,M,19.8,0000*46
$GPGSA,A,3,25,15,21,16,18,22,05,29,26,,,,1.5,0.8,1.2*39
$GPRMC,214401.000,A,3759.2226,N,11954.3387,W,3.08,4.92,291013,,*14
$GPGGA,214402.000,3759.2237,N,11954.3387,W,1,10,0.8,1423.8,M,-23.2,M,19.8,0000*41
$GPGSA,A,3,25,15,21,16,18,22,05,06,29,26,,,1.4,0.8,1.2*3E
$GPRMC,214402.000,A,3759.2237,N,11954.3387,W,3.57,1.90,291013,,*1A
$GPGGA,214403.000,3759.2246,N,11954.3389,W,1,09,0.8,1424.0,M,-23.2,M,19.8,0000*4F
$GPGSA,A,3,25,15,16,18,22,05,06,29,26,,,,1.6,0.8,1.4*39
$GPRMC,214403.000,A,3759.2246,N,11954.3389,W,3.62,1.77,291013,,*1C
$GPGGA,214404.000,3759.2257,N,11954.3389,W,1,10,0.8,1423.8,M,-23.2,M,19.8,0000*4F
$GPGSA,A,3,25,15,21,16,18,22,05,06,29,26,,,1.4,0.8,1.2*3E
$GPGSV,3,1,10,21,62,315,13,29,55,134,24,18,54,221,27,15,37,112,27*78
$GPGSV,3,2,10,26,25,066,33,16,21,310,28,22,18,224,20,05,10,046,21*7C
$GPGSV,3,3,10,06,09,314,18,25,08,188,18*7F
$GPRMC,214404.000,A,3759.2257,N,11954.3389,W,3.92,4.08,291013,,*19
$GPGGA,214405.000,3759.2268,N,11954.3389,W,1,10,0.8,1424.4,M,-23.2,M,19.8,0000*49
$GPGSA,A,3,25,15,21,16,18,22,05,06,29,26,,,1.4,0.8,1.2*3E
$GPRMC,214405.000,A,3759.2268,N,11954.3389,W,3.81,0.49,291013,,*17
$GPGGA,214406.000,3759.2276,N,11954.3389,W,1,10,0.8,1425.1,M,-23.2,M,19.8,0000*41
$GPGSA,A,3,25,15,21,16,18,22,05,06,29,26,,,1.4,0.8,1.2*3E
$GPRMC,214406.000,A,3759.2276,N,11954.3389,W,3.91,359.46,291013,,*1A
$GPGGA,214407.000,3759.2287,N,11954.3389,W,1,09,0.8,1425.4,M,-23.2,M,19.8,0000*43
$GPGSA,A,3,25,15,21,16,18,22,05,06,26,,,,1.5,0.8,1.3*35
$GPRMC,214407.000,A,3759.2287,N,11954.3389,W,4.33,0.81,291013,,*1E
$GPGGA,214408.000,3759.2302,N,11954.3388,W,1,09,0.8,1426.4,M,-23.2,M,19.8,0000*42
$GPGSA,A,3,25,15,21,16,18,22,05,06,26,,,,1.5,0.8,1.3*35
$GPRMC,214408.000,A,3759.2302,N,11954.3388,W,4.32,0.49,291013,,*19
$GPGGA,214409.000,3759.2311,N,11954.3387,W,1,09,0.8,1425.4,M,-23.2,M,19.8,0000*4D
$GPGSA,A,3,25,15,21,16,18,22,05,29,26,,,,1.5,0.8,1.2*39
$GPGSV,3,1,10,21,62,315,17,29,55,134,26,18,54,221,27,15,37,112,26*7F
$GPGSV,3,2,10,26,25,066,32,16,21,310,28,22,18,224,20,05,10,046,21*7D
$GPGSV,3,3,10,06,09,314,,25,08,188,17*79
$GPRMC,214409.000,A,3759.2311,N,11954.3387,W,4.19,1.55,291013,,*10
$GPGGA,214410.000,3759.2318,N,11954.3386,W,1,08,0.9,1424.8,M,-23.2,M,19.8,0000*40
$GPGSA,A,3,25,15,21,16,18,05,29,26,,,,,1.6,0.9,1.3*3A
$GPRMC,214410.000,A,3759.2318,N,11954.3386,W,3.60,1.16,291013,,*1E
$GPGGA,214411.000,3759.2326,N,11954.3389,W,1,09,0.8,1424.6,M,-23.2,M,19.8,0000*4D
$GPGSA,A,3,25,15,21,16,18,05,06,29,26,,,,1.5,0.8,1.2*3F
$GPRMC,214411.000,A,3759.2326,N,11954.3389,W,3.17,359.14,291013,,*11
$GPGGA,214412.000,3759.2330,N,11954.3387,W,1,09,0.8,1423.3,M,-23.2,M,19.8,0000*45
$GPGSA,A,3,25,15,21,16,18,05,06,29,26,,,,1.5,0.8,1.2*3F
$GPRMC,214412.000,A,3759.2330,N,11954.3387,W,2.88,3.83,291013,,*1E
$GPGGA,214413.000,3759.2340,N,11954.3387,W,1,10,0.8,1424.3,M,-23.2,M,19.8,0000*4C
$GPGSA,A,3,25,15,21,16,18,22,05,06,29,26,,,1.4,0.8,1.2*3E
$GPRMC,214413.000,A,3759.2340,N,11954.3387,W,2.87,359.35,291013,,*16
$GPGGA,214414.000,3759.2349,N,11954.3389,W,1,10,0.8,1424.8,M,-23.2,M,19.8,0000*47
$GPGSA,A,3,25,15,21,16,18,22,05,06,29,26,,,1.4,0.8,1.2*3E
$GPGSV,3,1,10,21,62,315,22,29,55,134,27,18,54,221,27,15,37,112,21*7F
$GPGSV,3,2,10,26,25,066,32,16,21,310,29,22,18,224,24,05,10,046,21*78
$GPGSV,3,3,10,06,09,314,15,25,08,188,18*72
$GPRMC,214414.000,A,3759.2349,N,11954.3389,W,3.24,358.47,291013,,*1A
$GPGGA,214415.000,3759.2355,N,11954.3391,W,1,10,0.8,1424.5,M,-23.2,M,19.8,0000*4F
$GPGSA,A,3,25,15,21,16,18,22,05,06,29,26,,,1.4,0.8,1.2*3E
$GPRMC,214415.000,A,3759.2355,N,11954.3391,W,3.46,356.39,291013,,*1C
$GPGGA,214416.000,3759.2362,N,11954.3395,W,1,10,0.8,1422.4,M,-23.2,M,19.8,0000*4B
$GPGSA,A,3,25,15,21,16,18,22,05,06,29,26,,,1.4,0.8,1.2*3E
$GPRMC,214416.000,A,3759.2362,N,11954.3395,W,3.51,356.30,291013,,*10
$GPGGA,214417.000,3759.2369,N,11954.3397,W,1,10,0.8,1421.3,M,-23.2,M,19.8,0000*47
$GPGSA,A,3,25,15,21,16,18,22,05,06,29,26,,,1.4,0.8,1.2*3E
$GPRMC,214417.000,A,3759.2369,N,11954.3397,W,3.03,354.39,291013,,*14
$GPGGA,214418.000,3759.2378,N,11954.3400,W,1,10,0.8,1420.3,M,-23.2,M,19.8,0000*40
$GPGSA,A,3,25,15,21,16,18,22,05,06,29,26,,,1.4,0.8,1.2*3E
$GPRMC,214418.000,A,3759.2378,N,11954.3400,W,3.31,351.59,291013,,*10
$GPGGA,214419.000,3759.2387,N,11954.3403,W,1,10,0.8,1420.5,M,-23.2,M,19.8,0000*44
$GPGSA,A,3,25,15,21,16,18,22,05,06,29,26,,,1.4,0.8,1.2*3E
$GPGSV,3,1,10,21,62,315,22,29,55,134,27,18,54,221,26,15,37,112,21*7E
$GPGSV,3,2,10,26,25,066,32,16,21,310,29,22,18,224,23,05,10,046,20*7E
$GPGSV,3,3,10,06,09,314,14,25,08,188,17*7C
$GPRMC,214419.000,A,3759.2387,N,11954.3403,W,3.46,354.82,291013,,*11
$GPGGA,214420.000,3759.2396,N,11954.3404,W,1,09,0.8,1419.8,M,-23.2,M,19.8,0000*46
$GPGSA,A,3,25,15,21,16,18,05,06,29,26,,,,1.5,0.8,1.2*3F
$GPRMC,214420.000,A,3759.2396,N,11954.3404,W,3.17,354.22,291013,,*12
$GPGGA,214421.000,3759.2406,N,11954.3406,W,1,09,0.8,1420.3,M,-23.2,M,19.8,0000*4A
$GPGSA,A,3,25,15,21,16,18,05,06,29,26,,,,1.5,0.8,1.2*3F
$GPRMC,214421.000,A,3759.2406,N,11954.3406,W,3.23,358.24,291013,,*12
$GPGGA,214422.000,3759.2414,N,11954.3405,W,1,10,0.8,1419.9,M,-23.2,M,19.8,0000*41
$GPGSA,A,3,25,15,21,16,18,22,05,06,29,26,,,1.4,0.8,1.2*3E
$GPRMC,214422.000,A,3759.2414,N,11954.3405,W,3.08,358.93,291013,,*14
$GPGGA,214423.000,3759.2422,N,11954.3408,W,1,10,0.8,1420.5,M,-23.2,M,19.8,0000*4E
$GPGSA,A,3,25,15,21,16,18,22,05,06,29,26,,,1.4,0.8,1.2*3E
$GPRMC,214423.000,A,3759.2422,N,11954.3408,W,2.94,359.24,291013,,*14
$GPGGA,214424.000,3759.2430,N,11954.3408,W,1,10,0.8,1420.3,M,-23.2,M,19.8,0000*4C
$GPGSA,A,3,25,15,21,16,18,22,05,06,29,26,,,1.4,0.8,1.2*3E
$GPGSV,3,1,10,21,62,315,22,29,55,134,27,18,54,221,25,15,37,112,21*7D
$GPGSV,3,2,10,26,25,066,31,16,21,310,29,22,18,224,23,05,10,046,19*77
$GPGSV,3,3,10,06,09,314,13,25,08,188,18*74
$GPRMC,214424.000,A,3759.2430,N,11954.3408,W,2.92,355.71,291013,,*1A
$GPGGA,214425.000,3759.2438,N,11954.3409,W,1,10,0.8,1420.3,M,-23.2,M,19.8,0000*44
$GPGSA,A,3,25,15,21,16,18,22,05,06,29,26,,,1.4,0.8,1.2*3E
$GPRMC,214425.000,A,3759.2438,N,11954.3409,W,2.86,358.96,291013,,*13
$GPGGA,214426.000,3759.2447,N,11954.3408,W,1,10,0.8,1419.8,M,-23.2,M,19.8,0000*4F
$GPGSA,A,3,25,15,21,16,18,22,05,06,29,26,,,1.4,0.8,1.2*3E
$GPRMC,214426.000,A,3759.2447,N,11954.3408,W,3.02,2.96,291013,,*18
$GPGGA,214427.000,3759.2455,N,11954.3409,W,1,10,0.8,1419.6,M,-23.2,M,19.8,0000*42
$GPGSA,A,3,25,15,21,16,18,22,05,06,29,26,,,1.4,0.8,1.2*3E
$GPRMC,214427.000,A,3759.2455,N,11954.3409,W,3.12,1.59,291013,,*1A
$GPGGA,214428.000,3759.2464,N,11954.3409,W,1,10,0.8,1419.7,M,-23.2,M,19.8,0000*4E
$GPGSA,A,3,25,15,21,16,18,22,05,06,29,26,,,1.4,0.8,1.2*3E
$GPRMC,214428.000,A,3759.2464,N,11954.3409,W,3.26,3.52,291013,,*19
$GPGGA,214429.000,3759.2472,N,11954.3409,W,1,10,0.8,1419.0,M,-23.2,M,19.8,0000*4F
$GPGSA,A,3,25,15,21,16,18,22,05,06,29,26,,,1.4,0.8,1.2*3E
$GPGSV,3,1,10,21,62,315,22,29,55,134,27,18,54,221,26,15,37,112,21*7E
$GPGSV,3,2,10,26,25,066,31,16,21,310,30,22,18,224,23,05,10,046,20*75
$GPGSV,3,3,10,06,09,314,13,25,08,188,17*7B
$GPRMC,214429.000,A,3759.2472,N,11954.3409,W,3.29,0.66,291013,,*14
$GPGGA,214430.000,3759.2481,N,11954.3409,W,1,09,0.8,1418.9,M,-23.2,M,19.8,0000*4B
$GPGSA,A,3,25,21,16,18,22,05,06,29,26,,,,1.4,0.8,1.2*3A
$GPRMC,214430.000,A,3759.2481,N,11954.3409,W,3.35,0.63,291013,,*18
$GPGGA,214431.000,3759.2494,N,11954.3410,W,1,09,0.8,1419.4,M,-23.2,M,19.8,0000*4A
$GPGSA,A,3,25,21,16,18,22,05,06,29,26,,,,1.4,0.8,1.2*3A
$GPRMC,214431.000,A,3759.2494,N,11954.3410,W,3.58,4.15,291013,,*1B
$GPGGA,214432.000,3759.2504,N,11954.3409,W,1,10,0.8,1419.7,M,-23.2,M,19.8,0000*42
$GPGSA,A,3,25,15,21,16,18,22,05,06,29,26,,,1.4,0.8,1.2*3E
$GPRMC,214432.000,A,3759.2504,N,11954.3409,W,3.38,4.22,291013,,*1A
$GPGGA,214433.000,3759.2513,N,11954.3406,W,1,10,0.8,1420.1,M,-23.2,M,19.8,0000*46
$GPGSA,A,3,25,15,21,16,18,22,05,06,29,26,,,1.4,0.8,1.2*3E
$GPRMC,214433.000,A,3759.2513,N,11954.3406,W,3.32,5.42,291013,,*1F
$GPGGA,214434.000,3759.2522,N,11954.3408,W,1,10,0.8,1419.8,M,-23.2,M,19.8,0000*4E
$GPGSA,A,3,25,15,21,16,18,22,05,06,29,26,,,1.4,0.8,1.2*3E
$GPGSV,3,1,10,21,62,315,23,29,55,134,18,18,54,221,22,15,37,112,23*75
$GPGSV,3,2,10,26,25,066,19,16,21,310,22,22,18,224,27,05,10,046,20*78
$GPGSV,3,3,10,06,09,314,20,25,08,188,16*7A
$GPRMC,214434.000,A,3759.2522,N,11954.3408,W,3.73,352.77,291013,,*16
$GPGGA,214435.000,3759.2531,N,11954.3410,W,1,10,0.8,1420.0,M,-23.2,M,19.8,0000*46
$GPGSA,A,3,25,15,21,16,18,22,05,06,29,26,,,1.4,0.8,1.2*3E
$GPRMC,214435.000,A,3759.2531,N,11954.3410,W,3.35,358.90,291013,,*1D
$GPGGA,214436.000,3759.2541,N,11954.3410,W,1,09,0.9,1420.1,M,-23.2,M,19.8,0000*4A
$GPGSA,A,3,25,15,21,16,18,22,06,29,26,,,,1.6,0.9,1.3*39
$GPRMC,214436.000,A,3759.2541,N,11954.3410,W,3.37,6.16,291013,,*1D
$GPGGA,214437.000,3759.2550,N,11954.3408,W,1,09,0.9,1419.8,M,-23.2,M,19.8,0000*41
$GPGSA,A,3,25,15,21,16,18,22,06,29,26,,,,1.6,0.9,1.3*39
$GPRMC,214437.000,A,3759.2550,N,11954.3408,W,3.63,2.87,291013,,*18
$GPGGA,214438.000,3759.2561,N,11954.3406,W,1,08,0.9,1419.8,M,-23.2,M,19.8,0000*43
$GPGSA,A,3,25,15,21,16,18,06,29,26,,,,,1.6,0.9,1.3*39
$GPRMC,214438.000,A,3759.2561,N,11954.3406,W,3.82,2.71,291013,,*1D
$GPGGA,214439.000,3759.2571,N,11954.3405,W,1,08,0.9,1420.3,M,-23.2,M,19.8,0000*41
$GPGSA,A,3,25,15,21,16,18,06,29,26,,,,,1.6,0.9,1.3*39
$GPGSV,3,1,10,21,62,315,16,29,55,134,28,18,54,221,27,15,37,112,19*7C
$GPGSV,3,2,10,26,25,066,25,16,21,310,20,22,18,224,,05,10,046,*72
$GPGSV,3,3,10,06,09,314,22,25,08,188,17*79
$GPRMC,214439.000,A,3759.2571,N,11954.3405,W,3.92,1.28,291013,,*10
$GPGGA,214440.000,3759.2580,N,11954.3405,W,1,09,0.9,1420.4,M,-23.2,M,19.8,0000*47
$GPGSA,A,3,25,15,21,16,18,22,06,29,26,,,,1.6,0.9,1.3*39
$GPRMC,214440.000,A,3759.2580,N,11954.3405,W,3.28,6.45,291013,,*1D
$GPGGA,214441.000,3759.2589,N,11954.3406,W,1,08,0.9,1420.2,M,-23.2,M,19.8,0000*4B
$GPGSA,A,3,25,15,21,16,18,22,29,26,,,,,1.7,0.9,1.4*39
$GPRMC,214441.000,A,3759.2589,N,11954.3406,W,3.37,5.49,291013,,*17
$GPGGA,214442.000,3759.2597,N,11954.3405,W,1,08,0.9,1419.9,M,-23.2,M,19.8,0000*45
$GPGSA,A,3,25,15,21,16,18,22,29,26,,,,,1.7,0.9,1.4*39
$GPRMC,214442.000,A,3759.2597,N,11954.3405,W,3.67,5.59,291013,,*1C
$GPGGA,214443.000,3759.2604,N,11954.3404,W,1,07,1.0,1419.0,M,-23.2,M,19.8,0000*42
$GPGSA,A,3,25,15,21,16,18,29,26,,,,,,1.8,1.0,1.5*3F
$GPRMC,214443.000,A,3759.2604,N,11954.3404,W,3.42,2.15,291013,,*1D
$GPGGA,214444.000,3759.2611,N,11954.3404,W,1,07,1.0,1418.3,M,-23.2,M,19.8,0000*43
$GPGSA,A,3,25,15,21,16,18,29,26,,,,,,1.8,1.0,1.5*3F
$GPGSV,3,1,10,21,62,315,24,29,55,134,28,18,54,221,26,15,37,112,24*72
$GPGSV,3,2,10,26,25,066,25,16,21,310,21,22,18,224,,05,10,046,*73
$GPGSV,3,3,10,06,09,314,,25,08,188,17*79
$GPRMC,214444.000,A,3759.2611,N,11954.3404,W,3.44,358.09,291013,,*19
$GPGGA,214445.000,3759.2617,N,11954.3402,W,1,07,1.3,1417.4,M,-23.2,M,19.8,0000*49
$GPGSA,A,3,25,15,21,18,22,29,26,,,,,,2.1,1.3,1.7*33
$GPRMC,214445.000,A,3759.2617,N,11954.3402,W,3.53,9.25,291013,,*17
$GPGGA,214446.000,3759.2623,N,11954.3399,W,1,07,1.3,1416.5,M,-23.2,M,19.8,0000*48
$GPGSA,A,3,25,15,21,18,22,29,26,,,,,,2.1,1.3,1.7*33
$GPRMC,214446.000,A,3759.2623,N,11954.3399,W,3.61,6.08,291013,,*17
$GPGGA,214447.000,3759.2632,N,11954.3396,W,1,06,1.4,1416.4,M,-23.2,M,19.8,0000*41
$GPGSA,A,3,15,21,18,22,29,26,,,,,,,2.4,1.4,2.0*32
$GPRMC,214447.000,A,3759.2632,N,11954.3396,W,3.30,6.92,291013,,*1E
$GPGGA,214448.000,3759.2640,N,11954.3393,W,1,06,1.4,1416.3,M,-23.2,M,19.8,0000*49
$GPGSA,A,3,15,21,18,22,29,26,,,,,,,2.4,1.4,2.0*32
$GPRMC,214448.000,A,3759.2640,N,11954.3393,W,3.29,7.27,291013,,*16
$GPGGA,214449.000,3759.2652,N,11954.3389,W,1,06,1.4,1415.7,M,-23.2,M,19.8,0000*47
$GPGSA,A,3,15,21,18,22,29,26,,,,,,,2.4,1.4,2.0*32
$GPGSV,3,1,10,21,62,315,25,29,55,134,28,18,54,221,20,15,37,112,25*74
$GPGSV,3,2,10,26,25,066,24,16,21,310,,22,18,224,30,05,10,046,*72
$GPGSV,3,3,10,06,09,314,,25,08,188,*7F
$GPRMC,214449.000,A,3759.2652,N,11954.3389,W,3.53,9.46,291013,,*1B
$GPGGA,214450.000,3759.2661,N,11954.3384,W,1,06,1.4,1414.2,M,-23.2,M,19.8,0000*46
$GPGSA,A,3,15,21,18,22,29,26,,,,,,,2.4,1.4,2.0*32
$GPRMC,214450.000,A,3759.2661,N,11954.3384,W,3.08,11.06,291013,,*2D
$GPGGA,214451.000,3759.2675,N,11954.3386,W,1,07,1.1,1415.1,M,-23.2,M,19.8,0000*46
$GPGSA,A,3,15,21,16,18,22,29,26,,,,,,2.1,1.1,1.8*3E
$GPRMC,214451.000,A,3759.2675,N,11954.3386,W,3.56,3.03,291013,,*16
$GPGGA,214452.000,3759.2685,N,11954.3384,W,1,07,1.1,1414.0,M,-23.2,M,19.8,0000*48
$GPGSA,A,3,15,21,16,18,22,29,26,,,,,,2.1,1.1,1.8*3E
$GPRMC,214452.000,A,3759.2685,N,11954.3384,W,3.64,7.93,291013,,*14
$GPGGA,214453.000,3759.2694,N,11954.3384,W,1,09,0.9,1414.3,M,-23.2,M,19.8,0000*4D
$GPGSA,A,3,25,15,21,16,18,22,06,29,26,,,,1.6,0.9,1.3*39
$GPRMC,214453.000,A,3759.2694,N,11954.3384,W,3.59,9.73,291013,,*1B
$GPGGA,214454.000,3759.2701,N,11954.3383,W,1,10,0.8,1414.7,M,-23.2,M,19.8,0000*4D
$GPGSA,A,3,25,15,21,16,18,05,22,06,29,26,,,1.4,0.8,1.2*3E
$GPGSV,3,1,11,21,63,318,25,18,56,222,20,29,54,135,29,15,38,111,26*76
$GPGSV,3,2,11,26,25,064,24,16,21,308,17,22,19,225,30,06,11,315,20*7B
$GPGSV,3,3,11,05,09,046,17,25,07,187,13,27,00,315,*4F
$GPRMC,214454.000,A,3759.2701,N,11954.3383,W,3.39,7.21,291013,,*19
$GPGGA,214455.000,3759.2710,N,11954.3380,W,1,10,0.8,1414.0,M,-23.2,M,19.8,0000*48
$GPGSA,A,3,25,15,21,16,18,05,22,06,29,26,,,1.4,0.8,1.2*3E
$GPRMC,214455.000,A,3759.2710,N,11954.3380,W,3.55,11.60,291013,,*23
$GPGGA,214456.000,3759.2721,N,11954.3378,W,1,09,0.9,1413.6,M,-23.2,M,19.8,0000*46
$GPGSA,A,3,15,21,16,18,05,22,06,29,26,,,,1.7,0.9,1.5*3C
$GPRMC,214456.000,A,3759.2721,N,11954.3378,W,3.30,12.43,291013,,*24
$GPGGA,214457.000,3759.2729,N,11954.3375,W,1,09,0.9,1413.0,M,-23.2,M,19.8,0000*44
$GPGSA,A,3,15,21,16,18,05,22,06,29,26,,,,1.7,0.9,1.5*3C
$GPRMC,214457.000,A,3759.2729,N,11954.3375,W,3.13,13.36,291013,,*22
$GPGGA,214458.000,3759.2738,N,11954.3374,W,1,10,0.8,1413.4,M,-23.2,M,19.8,0000*47
$GPGSA,A,3,25,15,21,16,18,05,22,06,29,26,,,1.4,0.8,1.2*3E
$GPRMC,214458.000,A,3759.2738,N,11954.3374,W,3.12,13.38,291013,,*23
$GPGGA,214459.000,3759.2746,N,11954.3372,W,1,00,50.0,1413.3,M,-23.2,M,19.8,0000*72
$GPGSA,A,2,,,,,,,,,,,,,50.0,50.0,50.0*06
$GPGSV,3,1,11,21,63,318,25,18,56,222,20,29,54,135,,15,38,111,26*7D
$GPGSV,3,2,11,26,25,064,25,16,21,308,17,22,19,225,30,06,11,315,20*7A
$GPGSV,3,3,11,05,09,046,08,25,07,187,13,27,00,315,*41
$GPRMC,214459.000,A,3759.2746,N,11954.3372,W,3.12,13.38,291013,,*2D
$GPGGA,214500.000,3759.2753,N,11954.3370,W,1,08,0.9,1414.0,M,-23.2,M,19.8,0000*49
$GPGSA,A,3,25,15,21,16,18,22,06,26,,,,,1.6,0.9,1.4*35
$GPRMC,214500.000,A,3759.2753,N,11954.3370,W,2.76,20.89,291013,,*2F
$GPGGA,214501.000,3759.2763,N,11954.3369,W,1,09,0.9,1415.8,M,-23.2,M,19.8,0000*4B
$GPGSA,A,3,25,15,21,16,18,29,22,06,26,,,,1.6,0.9,1.3*39
$GPRMC,214501.000,A,3759.2763,N,11954.3369,W,3.03,15.15,291013,,*25
$GPGGA,214502.000,3759.2774,N,11954.3369,W,1,09,0.9,1417.3,M,-23.2,M,19.8,0000*47
$GPGSA,A,3,25,15,21,16,18,29,22,06,26,,,,1.6,0.9,1.3*39
$GPRMC,214502.000,A,3759.2774,N,11954.3369,W,2.44,18.35,291013,,*2D
$GPGGA,214503.000,3759.2775,N,11954.3360,W,1,08,0.9,1418.7,M,-23.2,M,19.8,0000*44
$GPGSA,A,3,25,15,16,18,29,22,06,26,,,,,1.8,0.9,1.6*31
$GPRMC,214503.000,A,3759.2775,N,11954.3360,W,2.77,24.96,291013,,*22
$GPGGA,214504.000,3759.2782,N,11954.3356,W,1,08,0.9,1419.7,M,-23.2,M,19.8,0000*4F
$GPGSA,A,3,25,15,16,18,29,22,06,26,,,,,1.8,0.9,1.6*31
$GPGSV,3,1,11,21,63,318,,18,56,222,20,29,54,135,32,15,38,111,19*77
$GPGSV,3,2,11,26,25,064,18,16,21,308,25,22,19,225,24,06,11,315,20*70
$GPGSV,3,3,11,05,09,046,,25,07,187,21,27,00,315,*48
$GPRMC,214504.000,A,3759.2782,N,11954.3356,W,3.29,21.79,291013,,*26
$GPGGA,214505.000,3759.2794,N,11954.3357,W,1,07,1.0,1419.0,M,-23.2,M,19.8,0000*48
$GPGSA,A,3,25,15,16,18,29,22,26,,,,,,1.9,1.0,1.6*3E
$GPRMC,214505.000,A,3759.2794,N,11954.3357,W,3.86,8.88,291013,,*11
$GPGGA,214506.000,3759.2806,N,11954.3352,W,1,05,4.2,1418.6,M,-23.2,M,19.8,0000*48
$GPGSA,A,3,15,29,22,05,26,,,,,,,,6.8,4.2,5.3*32
$GPRMC,214506.000,A,3759.2806,N,11954.3352,W,3.18,7.50,291013,,*1E
$GPGGA,214507.000,3759.2816,N,11954.3350,W,1,06,2.1,1418.2,M,-23.2,M,19.8,0000*48
$GPGSA,A,3,15,18,29,22,05,26,,,,,,,3.1,2.1,2.4*32
$GPRMC,214507.000,A,3759.2816,N,11954.3350,W,3.27,10.93,291013,,*29
$GPGGA,214508.000,3759.2823,N,11954.3351,W,1,06,2.0,1419.5,M,-23.2,M,19.8,0000*47
$GPGSA,A,3,15,18,29,05,26,21,,,,,,,4.1,2.0,3.5*37
$GPRMC,214508.000,A,3759.2823,N,11954.3351,W,3.40,13.24,291013,,*2F
$GPGGA,214509.000,3759.2834,N,11954.3352,W,1,05,2.2,1420.2,M,-23.2,M,19.8,0000*4F
$GPGSA,A,3,15,18,29,05,21,,,,,,,,4.3,2.2,3.7*31
$GPGSV,3,1,11,21,63,318,21,18,56,222,17,29,54,135,31,15,38,111,28*71
$GPGSV,3,2,11,26,25,064,,16,21,308,,22,19,225,,06,11,315,*7A
$GPGSV,3,3,11,05,09,046,14,25,07,187,,27,00,315,*4E
$GPRMC,214509.000,A,3759.2834,N,11954.3352,W,3.56,7.74,291013,,*1C
$GPGGA,214510.000,3759.2842,N,11954.3351,W,1,06,1.3,1420.1,M,-23.2,M,19.8,0000*47
$GPGSA,A,3,15,22,18,29,05,21,,,,,,,2.0,1.3,1.6*35
$GPRMC,214510.000,A,3759.2842,N,11954.3351,W,2.86,7.53,291013,,*1F
$GPGGA,214511.000,3759.2855,N,11954.3352,W,1,06,1.3,1421.3,M,-23.2,M,19.8,0000*40
$GPGSA,A,3,16,15,22,18,29,21,,,,,,,2.4,1.3,2.1*37
$GPRMC,214511.000,A,3759.2855,N,11954.3352,W,3.01,4.88,291013,,*10
$GPGGA,214512.000,3759.2864,N,11954.3354,W,1,06,1.3,1419.9,M,-23.2,M,19.8,0000*46
$GPGSA,A,3,16,15,22,18,29,21,,,,,,,2.4,1.3,2.1*37
$GPRMC,214512.000,A,3759.2864,N,11954.3354,W,2.79,0.70,291013,,*1A
$GPGGA,214513.000,3759.2874,N,11954.3357,W,1,06,1.3,1418.9,M,-23.2,M,19.8,0000*44
$GPGSA,A,3,16,15,22,18,29,21,,,,,,,2.4,1.3,2.1*37
$GPRMC,214513.000,A,3759.2874,N,11954.3357,W,3.17,356.40,291013,,*13
$GPGGA,214514.000,3759.2881,N,11954.3357,W,1,07,1.1,1418.1,M,-23.2,M,19.8,0000*42
$GPGSA,A,3,16,15,26,22,18,29,21,,,,,,2.1,1.1,1.8*3E
$GPGSV,3,1,11,21,63,318,22,18,56,222,25,29,54,135,21,15,38,111,29*73
$GPGSV,3,2,11,26,25,064,25,16,21,308,25,22,19,225,22,06,11,315,*7A
$GPGSV,3,3,11,05,09,046,,25,07,187,,27,00,315,*4B
$GPRMC,214514.000,A,3759.2881,N,11954.3357,W,3.22,352.91,291013,,*10
$GPGGA,214515.000,3759.2894,N,11954.3360,W,1,07,1.1,1419.3,M,-23.2,M,19.8,0000*40
$GPGSA,A,3,16,15,26,22,18,29,21,,,,,,2.1,1.1,1.8*3E
$GPRMC,214515.000,A,3759.2894,N,11954.3360,W,3.70,359.68,291013,,*1B
$GPGGA,214516.000,3759.2907,N,11954.3362,W,1,07,1.1,1418.4,M,-23.2,M,19.8,0000*4C
$GPGSA,A,3,16,15,26,22,18,29,21,,,,,,2.1,1.1,1.8*3E
$GPRMC,214516.000,A,3759.2907,N,11954.3362,W,3.48,359.36,291013,,*11
$GPGGA,214517.000,3759.2919,N,11954.3363,W,1,07,1.1,1418.0,M,-23.2,M,19.8,0000*47
$GPGSA,A,3,16,15,26,22,18,29,21,,,,,,2.1,1.1,1.8*3E
$GPRMC,214517.000,A,3759.2919,N,11954.3363,W,3.39,359.79,291013,,*13
$GPGGA,214518.000,3759.2928,N,11954.3364,W,1,07,1.1,1418.5,M,-23.2,M,19.8,0000*48
$GPGSA,A,3,16,15,26,22,18,29,21,,,,,,2.1,1.1,1.8*3E
$GPRMC,214518.000,A,3759.2928,N,11954.3364,W,3.59,0.60,291013,,*18
$GPGGA,214519.000,3759.2936,N,11954.3362,W,1,07,1.1,1418.3,M,-23.2,M,19.8,0000*46
$GPGSA,A,3,16,15,26,22,18,29,21,,,,,,2.1,1.1,1.8*3E
$GPGSV,3,1,11,21,63,318,22,18,56,222,25,29,54,135,21,15,38,111,29*73
$GPGSV,3,2,11,26,25,064,26,16,21,308,25,22,19,225,24,06,11,315,*7F
$GPGSV,3,3,11,05,09,046,,25,07,187,,27,00,315,*4B
$GPRMC,214519.000,A,3759.2936,N,11954.3362,W,3.41,358.96,291013,,*1E
$GPGGA,214520.000,3759.2944,N,11954.3363,W,1,06,1.2,1418.2,M,-23.2,M,19.8,0000*4B
$GPGSA,A,3,16,15,26,22,18,06,,,,,,,2.8,1.2,2.6*37
$GPRMC,214520.000,A,3759.2944,N,11954.3363,W,3.60,0.06,291013,,*14
$GPGGA,214521.000,3759.2954,N,11954.3362,W,1,07,1.0,1418.4,M,-23.2,M,19.8,0000*4F
$GPGSA,A,3,16,15,26,22,18,21,06,,,,,,2.0,1.0,1.7*3C
$GPRMC,214521.000,A,3759.2954,N,11954.3362,W,3.77,359.91,291013,,*12
$GPGGA,214522.000,3759.2961,N,11954.3361,W,1,07,1.0,1417.4,M,-23.2,M,19.8,0000*46
$GPGSA,A,3,16,15,26,22,18,21,06,,,,,,2.0,1.0,1.7*3C
$GPRMC,214522.000,A,3759.2961,N,11954.3361,W,3.85,0.45,291013,,*1F
$GPGGA,214523.000,3759.2974,N,11954.3362,W,1,07,1.0,1418.7,M,-23.2,M,19.8,0000*4C
$GPGSA,A,3,16,15,26,22,18,21,06,,,,,,2.0,1.0,1.7*3C
$GPRMC,214523.000,A,3759.2974,N,11954.3362,W,3.93,356.65,291013,,*1C
$GPGGA,214524.000,3759.2987,N,11954.3362,W,1,07,1.0,1419.1,M,-23.2,M,19.8,0000*40
$GPGSA,A,3,16,15,26,22,18,21,06,,,,,,2.0,1.0,1.7*3C
$GPGSV,3,1,11,21,63,318,24,18,56,222,25,29,54,135,,15,38,111,30*7E
$GPGSV,3,2,11,26,25,064,25,16,21,308,26,22,19,225,24,06,11,315,16*78
$GPGSV,3,3,11,05,09,046,,25,07,187,,27,00,315,*4B
$GPRMC,214524.000,A,3759.2987,N,11954.3362,W,3.87,357.39,291013,,*1A
$GPGGA,214525.000,3759.2996,N,11954.3362,W,1,08,1.0,1419.3,M,-23.2,M,19.8,0000*4C
$GPGSA,A,3,16,15,26,22,18,21,06,29,,,,,1.9,1.0,1.6*3C
$GPRMC,214525.000,A,3759.2996,N,11954.3362,W,3.21,355.85,291013,,*12
$GPGGA,214526.000,3759.3004,N,11954.3363,W,1,08,1.0,1419.1,M,-23.2,M,19.8,0000*4F
$GPGSA,A,3,16,15,26,22,18,21,06,29,,,,,1.9,1.0,1.6*3C
$GPRMC,214526.000,A,3759.3004,N,11954.3363,W,3.10,356.67,291013,,*1E
$GPGGA,214527.000,3759.3013,N,11954.3364,W,1,08,1.0,1419.7,M,-23.2,M,19.8,0000*49
$GPGSA,A,3,16,15,26,22,18,21,06,29,,,,,1.9,1.0,1.6*3C
$GPRMC,214527.000,A,3759.3013,N,11954.3364,W,3.14,358.13,291013,,*17
$GPGGA,214528.000,3759.3021,N,11954.3364,W,1,08,1.0,1420.0,M,-23.2,M,19.8,0000*4A
$GPGSA,A,3,16,15,26,22,18,21,06,29,,,,,1.9,1.0,1.6*3C
$GPRMC,214528.000,A,3759.3021,N,11954.3364,W,3.31,359.43,291013,,*1A
$GPGGA,214529.000,3759.3031,N,11954.3364,W,1,08,1.0,1419.7,M,-23.2,M,19.8,0000*47
$GPGSA,A,3,16,15,26,22,18,21,06,29,,,,,1.9,1.0,1.6*3C
$GPGSV,3,1,11,21,63,318,24,18,56,222,25,29,54,135,19,15,38,111,30*76
$GPGSV,3,2,11,26,25,064,24,16,21,308,26,22,19,225,24,06,11,315,15*7A
$GPGSV,3,3,11,05,09,046,,25,07,187,,27,00,315,*4B
$GPRMC,214529.000,A,3759.3031,N,11954.3364,W,3.31,358.53,291013,,*1A
$GPGGA,214530.000,3759.3041,N,11954.3363,W,1,08,1.0,1419.2,M,-23.2,M,19.8,0000*4A
$GPGSA,A,3,16,15,26,22,18,21,06,29,,,,,1.9,1.0,1.6*3C
$GPRMC,214530.000,A,3759.3041,N,11954.3363,W,3.31,359.43,291013,,*12
$GPGGA,214531.000,3759.3050,N,11954.3364,W,1,08,1.0,1419.1,M,-23.2,M,19.8,0000*4F
$GPGSA,A,3,16,15,26,22,18,21,06,29,,,,,1.9,1.0,1.6*3C
$GPRMC,214531.000,A,3759.3050,N,11954.3364,W,2.96,358.17,291013,,*18
$GPGGA,214532.000,3759.3058,N,11954.3364,W,1,08,1.0,1418.8,M,-23.2,M,19.8,0000*4C
$GPGSA,A,3,16,15,26,22,18,21,06,29,,,,,1.9,1.0,1.6*3C
$GPRMC,214532.000,A,3759.3058,N,11954.3364,W,3.04,356.98,291013,,*10
$GPGGA,214533.000,3759.3065,N,11954.3364,W,1,08,1.0,1418.8,M,-23.2,M,19.8,0000*43
$GPGSA,A,3,16,15,26,22,18,21,06,29,,,,,1.9,1.0,1.6*3C
$GPRMC,214533.000,A,3759.3065,N,11954.3364,W,2.75,354.59,291013,,*17
$GPGGA,214534.000,3759.3072,N,11954.3365,W,1,08,1.0,1418.8,M,-23.2,M,19.8,0000*43
$GPGSA,A,3,16,15,26,22,18,21,06,29,,,,,1.9,1.0,1.6*3C
$GPGSV,3,1,11,21,63,318,24,18,56,222,25,29,54,135,22,15,38,111,30*7E
$GPGSV,3,2,11,26,25,064,25,16,21,308,26,22,19,225,25,06,11,315,23*7F
$GPGSV,3,3,11,05,09,046,,25,07,187,,27,00,315,*4B
$GPRMC,214534.000,A,3759.3072,N,11954.3365,W,2.35,356.09,291013,,*14
$GPGGA,214535.000,3759.3074,N,11954.3365,W,1,08,1.0,1417.5,M,-23.2,M,19.8,0000*46
$GPGSA,A,3,16,15,26,22,18,21,06,29,,,,,1.9,1.0,1.6*3C
$GPRMC,214535.000,A,3759.3074,N,11954.3365,W,1.82,356.15,291013,,*11
$GPGGA,214536.000,3759.3072,N,11954.3363,W,1,09,0.9,1416.0,M,-23.2,M,19.8,0000*48
$GPGSA,A,3,16,15,26,22,18,21,06,05,29,,,,1.7,0.9,1.5*3C
$GPRMC,214536.000,A,3759.3072,N,11954.3363,W,1.76,352.76,291013,,*18
$GPGGA,214537.000,3759.3076,N,11954.3366,W,1,10,0.8,1416.6,M,-23.2,M,19.8,0000*47
$GPGSA,A,3,16,15,26,22,18,21,06,05,29,25,,,1.4,0.8,1.2*3E
$GPRMC,214537.000,A,3759.3076,N,11954.3366,W,1.61,348.15,291013,,*10
$GPGGA,214538.000,3759.3080,N,11954.3369,W,1,10,0.8,1416.4,M,-23.2,M,19.8,0000*4C
$GPGSA,A,3,16,15,26,22,18,21,06,05,29,25,,,1.4,0.8,1.2*3E
$GPRMC,214538.000,A,3759.3080,N,11954.3369,W,1.68,342.72,291013,,*1B
$GPGGA,214539.000,3759.3085,N,11954.3373,W,1,10,0.8,1416.8,M,-23.2,M,19.8,0000*4F
$GPGSA,A,3,16,15,26,22,18,21,06,05,29,25,,,1.4,0.8,1.2*3E
$GPGSV,3,1,11,21,63,318,24,18,56,222,31,29,54,135,33,15,38,111,37*7C
$GPGSV,3,2,11,26,25,064,26,16,21,308,31,22,19,225,27,06,11,315,28*73
$GPGSV,3,3,11,05,09,046,29,25,07,187,33,27,00,315,*40
$GPRMC,214539.000,A,3759.3085,N,11954.3373,W,1.47,342.74,291013,,*1F
$GPGGA,214540.000,3759.3088,N,11954.3374,W,1,10,0.8,1417.0,M,-23.2,M,19.8,0000*42
$GPGSA,A,3,16,15,26,22,18,21,06,05,29,25,,,1.4,0.8,1.2*3E
$GPRMC,214540.000,A,3759.3088,N,11954.3374,W,1.21,337.99,291013,,*1A
$GPGGA,214541.000,3759.3091,N,11954.3375,W,1,10,0.8,1417.6,M,-23.2,M,19.8,0000*4C
$GPGSA,A,3,16,15,26,22,18,21,06,05,29,25,,,1.4,0.8,1.2*3E
$GPRMC,214541.000,A,3759.3091,N,11954.3375,W,1.00,345.84,291013,,*18
$GPGGA,214542.000,3759.3093,N,11954.3376,W,1,10,0.8,1417.8,M,-23.2,M,19.8,0000*40
$GPGSA,A,3,16,15,26,22,18,21,06,05,29,25,,,1.4,0.8,1.2*3E
$GPRMC,214542.000,A,3759.3093,N,11954.3376,W,1.11,335.19,291013,,*19
$GPGGA,214543.000,3759.3095,N,11954.3377,W,1,10,0.8,1418.4,M,-23.2,M,19.8,0000*45
$GPGSA,A,3,16,15,26,22,18,21,06,05,29,25,,,1.4,0.8,1.2*3E
$GPRMC,214543.000,A,3759.3095,N,11954.3377,W,1.28,343.05,291013,,*19
$GPGGA,214544.000,3759.3100,N,11954.3380,W,1,10,0.8,1418.5,M,-23.2,M,19.8,0000*46
$GPGSA,A,3,16,15,26,22,18,21,06,05,29,25,,,1.4,0.8,1.2*3E
$GPGSV,3,1,11,21,63,318,25,18,56,222,34,29,54,135,33,15,38,111,33*7C
$GPGSV,3,2,11,26,25,064,28,16,21,308,26,22,19,225,27,06,11,315,28*7B
$GPGSV,3,3,11,05,09,046,30,25,07,187,33,27,00,315,*48
$GPRMC,214544.000,A,3759.3100,N,11954.3380,W,1.51,333.45,291013,,*16
$GPGGA,214545.000,3759.3104,N,11954.3382,W,1,10,0.8,1418.3,M,-23.2,M,19.8,0000*47
$GPGSA,A,3,16,15,26,22,18,21,06,05,29,25,,,1.4,0.8,1.2*3E
$GPRMC,214545.000,A,3759.3104,N,11954.3382,W,1.56,337.70,291013,,*14
$GPGGA,214546.000,3759.3105,N,11954.3384,W,1,10,0.8,1417.3,M,-23.2,M,19.8,0000*4C
$GPGSA,A,3,16,15,26,22,18,21,06,05,29,25,,,1.4,0.8,1.2*3E
$GPRMC,214546.000,A,3759.3105,N,11954.3384,W,1.78,340.60,291013,,*1D
$GPGGA,214547.000,3759.3108,N,11954.3386,W,1,10,0.8,1416.9,M,-23.2,M,19.8,0000*49
$GPGSA,A,3,16,15,26,22,18,21,06,05,29,25,,,1.4,0.8,1.2*3E
$GPRMC,214547.000,A,3759.3108,N,11954.3386,W,1.51,353.60,291013,,*1A
$GPGGA,214548.000,3759.3111,N,11954.3386,W,1,10,0.8,1416.6,M,-23.2,M,19.8,0000*41
$GPGSA,A,3,16,15,26,22,18,21,06,05,29,25,,,1.4,0.8,1.2*3E
$GPRMC,214548.000,A,3759.3111,N,11954.3386,W,1.55,354.85,291013,,*15
$GPGGA,214549.000,3759.3115,N,11954.3387,W,1,10,0.8,1416.7,M,-23.2,M,19.8,0000*44
$GPGSA,A,3,16,15,26,22,18,21,06,05,29,25,,,1.4,0.8,1.2*3E
$GPGSV,3,1,12,21,63,318,23,18,56,222,35,29,54,135,37,15,38,111,25*7B
$GPGSV,3,2,12,26,25,064,22,16,21,308,32,22,19,225,28,06,11,315,32*73
$GPGSV,3,3,12,05,09,046,24,25,07,187,25,27,00,315,,51,44,160,32*7B
$GPRMC,214549.000,A,3759.3115,N,11954.3387,W,1.45,355.97,291013,,*12
$GPGGA,214550.000,3759.3118,N,11954.3390,W,1,10,0.8,1416.9,M,-23.2,M,19.8,0000*49
$GPGSA,A,3,16,15,26,22,18,21,06,05,29,25,,,1.4,0.8,1.2*3E
$GPRMC,214550.000,A,3759.3118,N,11954.3390,W,1.42,8.95,291013,,*1F
$GPGGA,214551.000,3759.3121,N,11954.3390,W,1,10,0.8,1417.2,M,-23.2,M,19.8,0000*48
$GPGSA,A,3,16,15,26,22,18,21,06,05,29,25,,,1.4,0.8,1.2*3E
$GPRMC,214551.000,A,3759.3121,N,11954.3390,W,1.62,16.77,291013,,*25
$GPGGA,214552.000,3759.3125,N,11954.3389,W,1,09,0.8,1417.5,M,-23.2,M,19.8,0000*48
$GPGSA,A,3,16,15,26,22,18,06,05,29,25,,,,1.6,0.8,1.4*39
$GPRMC,214552.000,A,3759.3125,N,11954.3389,W,1.71,16.24,291013,,*2E
$GPGGA,214553.000,3759.3130,N,11954.3389,W,2,09,0.8,1417.8,M,-23.2,M,,0000*5D
$GPGSA,A,3,16,15,26,22,18,06,05,29,25,,,,1.6,0.8,1.4*39
$GPRMC,214553.000,A,3759.3130,N,11954.3389,W,1.87,22.56,291013,,*20
$GPGGA,214554.000,3759.3135,N,11954.3388,W,2,09,0.8,1418.1,M,-23.2,M,,0000*58
$GPGSA,A,3,16,15,26,22,18,06,05,29,25,,,,1.6,0.8,1.4*39
$GPGSV,3,1,12,21,63,318,,18,56,223,36,29,53,136,39,15,38,110,33*74
$GPGSV,3,2,12,26,25,064,23,16,22,308,23,22,20,225,23,06,11,315,34*76
$GPGSV,3,3,12,05,08,046,26,25,07,187,33,27,01,315,,51,44,160,34*78
$GPRMC,214554.000,A,3759.3135,N,11954.3388,W,1.88,24.81,291013,,*20
$GPGGA,214555.000,3759.3139,N,11954.3386,W,2,09,0.8,1418.4,M,-23.2,M,,0000*5E
$GPGSA,A,3,16,15,26,22,18,06,05,29,25,,,,1.6,0.8,1.4*39
$GPRMC,214555.000,A,3759.3139,N,11954.3386,W,1.75,26.90,291013,,*23
$GPGGA,214556.000,3759.3144,N,11954.3384,W,2,09,0.8,1418.6,M,-23.2,M,1.8,0000*70
$GPGSA,A,3,16,15,26,22,18,06,05,29,25,,,,1.6,0.8,1.4*39
$GPRMC,214556.000,A,3759.3144,N,11954.3384,W,1.97,30.05,291013,,*2F
$GPGGA,214557.000,3759.3148,N,11954.3381,W,2,10,0.8,1418.8,M,-23.2,M,2.8,0000*7D
$GPGSA,A,3,16,15,26,22,18,21,06,05,29,25,,,1.4,0.8,1.2*3E
$GPRMC,214557.000,A,3759.3148,N,11954.3381,W,1.80,37.20,291013,,*21
$GPGGA,214558.000,3759.3152,N,11954.3378,W,2,10,0.8,1418.9,M,-23.2,M,3.8,0000*7F
$GPGSA,A,3,16,15,26,22,18,21,06,05,29,25,,,1.4,0.8,1.2*3E
$GPRMC,214558.000,A,3759.3152,N,11954.3378,W,1.79,38.26,291013,,*2C
$GPGGA,214559.000,3759.3156,N,11954.3375,W,2,10,0.8,1419.0,M,-23.2,M,,0000*5A
$GPGSA,A,3,16,15,26,22,18,21,06,05,29,25,,,1.4,0.8,1.2*3E
$GPGSV,3,1,12,21,63,318,22,18,56,223,35,29,53,136,39,15,38,110,37*73
$GPGSV,3,2,12,26,25,064,30,16,22,308,18,22,20,225,24,06,11,315,34*7B
$GPGSV,3,3,12,05,08,046,25,25,07,187,32,27,01,315,,51,44,160,32*7C
$GPRMC,214559.000,A,3759.3156,N,11954.3375,W,2.03,37.96,291013,,*2E
$GPGGA,214600.000,3759.3160,N,11954.3371,W,2,10,0.8,1419.2,M,-23.2,M,,0000*56
$GPGSA,A,3,16,15,26,22,18,21,06,05,29,25,,,1.4,0.8,1.2*3E
$GPRMC,214600.000,A,3759.3160,N,11954.3371,W,1.82,42.00,291013,,*27
$GPGGA,214601.000,3759.3164,N,11954.3367,W,2,09,0.9,1419.3,M,-23.2,M,,0000*5C
$GPGSA,A,3,16,15,26,22,18,21,06,29,25,,,,1.6,0.9,1.3*39
$GPRMC,214601.000,A,3759.3164,N,11954.3367,W,1.88,44.30,291013,,*2A
$GPGGA,214602.000,3759.3168,N,11954.3363,W,2,09,0.9,1419.4,M,-23.2,M,1.8,0000*77
$GPGSA,A,3,16,15,26,22,18,21,06,29,25,,,,1.6,0.9,1.3*39
$GPRMC,214602.000,A,3759.3168,N,11954.3363,W,1.98,42.60,291013,,*23
$GPGGA,214603.000,3759.3172,N,11954.3359,W,2,09,0.9,1419.2,M,-23.2,M,2.8,0000*71
$GPGSA,A,3,16,15,26,22,18,21,06,29,25,,,,1.6,0.9,1.3*39
$GPRMC,214603.000,A,3759.3172,N,11954.3359,W,2.04,41.70,291013,,*24
$GPGGA,214604.000,3759.3177,N,11954.3355,W,2,09,0.9,1419.4,M,-23.2,M,3.8,0000*78
$GPGSA,A,3,16,15,26,22,18,21,06,29,25,,,,1.6,0.9,1.3*39
$GPGSV,3,1,12,21,63,318,20,18,56,223,35,29,53,136,39,15,38,110,38*7E
$GPGSV,3,2,12,26,25,064,24,16,22,308,16,22,20,225,25,06,11,315,34*71
$GPGSV,3,3,12,05,08,046,,25,07,187,33,27,01,315,,51,44,160,34*7C
$GPRMC,214604.000,A,3759.3177,N,11954.3355,W,2.07,42.18,291013,,*24
$GPGGA,214605.000,3759.3181,N,11954.3350,W,2,10,0.8,1419.4,M,-23.2,M,,0000*59
$GPGSA,A,3,16,15,26,22,18,05,21,06,29,25,,,1.4,0.8,1.2*3E
$GPRMC,214605.000,A,3759.3181,N,11954.3350,W,2.20,39.07,291013,,*2E
$GPGGA,214606.000,3759.3187,N,11954.3345,W,2,10,0.8,1419.6,M,-23.2,M,,0000*5A
$GPGSA,A,3,16,15,26,22,18,05,21,06,29,25,,,1.4,0.8,1.2*3E
$GPRMC,214606.000,A,3759.3187,N,11954.3345,W,2.37,39.46,291013,,*2C
$GPGGA,214607.000,3759.3190,N,11954.3339,W,2,10,0.8,1419.7,M,-23.2,M,,0000*57
$GPGSA,A,3,16,15,26,22,18,05,21,06,29,25,,,1.4,0.8,1.2*3E
$GPRMC,214607.000,A,3759.3190,N,11954.3339,W,2.37,38.73,291013,,*27
$GPGGA,214608.000,3759.3194,N,11954.3333,W,2,10,0.8,1420.0,M,-23.2,M,,0000*5B
$GPGSA,A,3,16,15,26,22,18,05,21,06,29,25,,,1.4,0.8,1.2*3E
