GPGSA,A,3,21,26,18,22,06,15,29,,,,,,2.1,1.1,1.8*3F
$GPRMC,220206.000,A,3759.8809,N,11954.2623,W,2.42,355.79,291013,,*18
$GPGGA,220207.000,3759.8817,N,11954.2624,W,1,07,1.1,1422.9,M,-23.2,M,,0000*5A
$GPGSA,A,3,21,26,18,22,06,15,29,,,,,,2.1,1.1,1.8*3F
$GPRMC,220207.000,A,3759.8817,N,11954.2624,W,2.42,355.65,291013,,*1C
$GPGGA,220208.000,3759.8824,N,11954.2625,W,1,08,1.0,1422.7,M,-23.2,M,,0000*54
$GPGSA,A,3,21,26,18,22,06,15,16,29,,,,,2.0,1.0,1.8*38
$GPRMC,220208.000,A,3759.8824,N,11954.2625,W,2.44,358.51,291013,,*1E
$GPGGA,220209.000,3759.8832,N,11954.2626,W,1,08,1.0,1422.8,M,-23.2,M,,0000*5E
$GPGSA,A,3,21,26,18,22,06,15,16,29,,,,,2.0,1.0,1.8*38
$GPRMC,220209.000,A,3759.8832,N,11954.2626,W,2.56,356.85,291013,,*1F
$GPGGA,220210.000,3759.8840,N,11954.2626,W,1,08,1.0,1422.8,M,-23.2,M,,0000*53
$GPGSA,A,3,21,26,18,22,06,15,16,29,,,,,2.0,1.0,1.8*38
$GPGSV,3,1,11,21,66,333,19,18,63,229,26,29,46,141,30,15,42,101,27*7B
$GPGSV,3,2,11,22,26,229,32,16,24,301,23,26,23,056,33,06,17,315,32*76
$GPGSV,3,3,11,27,07,316,,05,02,048,,25,01,184,*4F
$GPRMC,220210.000,A,3759.8840,N,11954.2626,W,2.56,357.00,291013,,*1E
$GPGGA,220211.000,3759.8847,N,11954.2627,W,1,08,1.0,1422.7,M,-23.2,M,,0000*5B
$GPGSA,A,3,21,26,18,22,06,15,16,29,,,,,2.0,1.0,1.8*38
$GPRMC,220211.000,A,3759.8847,N,11954.2627,W,2.68,354.88,291013,,*17
$GPGGA,220212.000,3759.8853,N,11954.2627,W,1,08,1.0,1422.6,M,-23.2,M,,0000*5C
$GPGSA,A,3,21,26,18,22,06,15,16,29,,,,,2.0,1.0,1.8*38
$GPRMC,220212.000,A,3759.8853,N,11954.2627,W,2.55,357.06,291013,,*1A
$GPGGA,220213.000,3759.8860,N,11954.2627,W,1,08,1.0,1422.1,M,-23.2,M,,0000*5A
$GPGSA,A,3,21,26,18,22,06,15,16,29,,,,,2.0,1.0,1.8*38
$GPRMC,220213.000,A,3759.8860,N,11954.2627,W,2.63,357.48,291013,,*14
$GPGGA,220214.000,3759.8866,N,11954.2627,W,1,08,1.0,1421.3,M,-23.2,M,,0000*5A
$GPGSA,A,3,21,26,18,22,06,15,16,29,,,,,2.0,1.0,1.8*38
$GPRMC,220214.000,A,3759.8866,N,11954.2627,W,2.46,357.02,291013,,*1C
$GPGGA,220215.000,3759.8872,N,11954.2628,W,1,08,1.0,1420.8,M,-23.2,M,,0000*5B
$GPGSA,A,3,21,26,18,22,06,15,16,29,,,,,2.0,1.0,1.8*38
$GPGSV,3,1,11,21,66,333,18,18,63,230,25,29,46,141,30,15,42,100,27*70
$GPGSV,3,2,11,22,26,229,31,16,24,301,28,26,23,056,32,06,17,315,33*7E
$GPGSV,3,3,11,27,07,316,,05,02,048,,25,01,184,*4F
$GPRMC,220215.000,A,3759.8872,N,11954.2628,W,2.49,356.67,291013,,*1A
$GPGGA,220216.000,3759.8879,N,11954.2629,W,1,08,1.0,1420.1,M,-23.2,M,,0000*5B
$GPGSA,A,3,21,26,18,22,06,15,16,29,,,,,2.0,1.0,1.8*38
$GPRMC,220216.000,A,3759.8879,N,11954.2629,W,2.48,357.62,291013,,*16
$GPGGA,220217.000,3759.8887,N,11954.2630,W,1,08,1.0,1419.8,M,-23.2,M,,0000*50
$GPGSA,A,3,21,26,18,22,06,15,16,29,,,,,2.0,1.0,1.8*38
$GPRMC,220217.000,A,3759.8887,N,11954.2630,W,2.59,356.56,291013,,*18
$GPGGA,220218.000,3759.8894,N,11954.2631,W,1,08,1.0,1419.3,M,-23.2,M,,0000*57
$GPGSA,A,3,21,26,18,22,06,15,16,29,,,,,2.0,1.0,1.8*38
$GPRMC,220218.000,A,3759.8894,N,11954.2631,W,2.52,357.68,291013,,*13
$GPGGA,220219.000,3759.8902,N,11954.2632,W,1,08,1.0,1418.7,M,-23.2,M,,0000*5E
$GPGSA,A,3,21,26,18,22,06,15,16,29,,,,,2.0,1.0,1.8*38
$GPRMC,220219.000,A,3759.8902,N,11954.2632,W,2.57,358.95,291013,,*17
$GPGGA,220220.000,3759.8909,N,11954.2633,W,1,08,1.0,1418.2,M,-23.2,M,,0000*5B
$GPGSA,A,3,21,26,18,22,06,15,16,29,,,,,2.0,1.0,1.8*38
$GPGSV,3,1,11,21,66,333,21,18,63,230,25,29,46,141,29,15,42,100,27*72
$GPGSV,3,2,11,22,26,229,31,16,24,301,28,26,23,056,31,06,17,315,34*7A
$GPGSV,3,3,11,27,07,316,,05,02,048,,25,01,184,17*49
$GPRMC,220220.000,A,3759.8909,N,11954.2633,W,2.64,359.85,291013,,*17
$GPGGA,220221.000,3759.8917,N,11954.2633,W,1,08,1.0,1417.5,M,-23.2,M,,0000*5D
$GPGSA,A,3,21,26,18,22,06,15,16,29,,,,,2.0,1.0,1.8*38
$GPRMC,220221.000,A,3759.8917,N,11954.2633,W,2.55,0.72,291013,,*1C
$GPGGA,220222.000,3759.8924,N,11954.2633,W,1,08,1.0,1417.0,M,-23.2,M,,0000*5B
$GPGSA,A,3,21,26,18,22,06,15,16,29,,,,,2.0,1.0,1.8*38
$GPRMC,220222.000,A,3759.8924,N,11954.2633,W,2.55,1.92,291013,,*10
$GPGGA,220223.000,3759.8932,N,11954.2633,W,1,08,1.0,1416.8,M,-23.2,M,,0000*54
$GPGSA,A,3,21,26,18,22,06,15,16,29,,,,,2.0,1.0,1.8*38
$GPRMC,220223.000,A,3759.8932,N,11954.2633,W,2.59,1.05,291013,,*14
$GPGGA,220224.000,3759.8939,N,11954.2633,W,1,07,1.1,1416.3,M,-23.2,M,,0000*5D
$GPGSA,A,3,21,26,22,06,15,16,29,,,,,,2.3,1.1,2.1*39
$GPRMC,220224.000,A,3759.8939,N,11954.2633,W,2.47,1.83,291013,,*19
$GPGGA,220225.000,3759.8947,N,11954.2632,W,1,08,1.0,1416.1,M,-23.2,M,,0000*58
$GPGSA,A,3,21,26,18,22,06,15,16,29,,,,,2.0,1.0,1.8*38
$GPGSV,3,1,11,21,66,333,21,18,63,230,14,29,46,141,29,15,42,100,30*76
$GPGSV,3,2,11,22,26,229,32,16,24,301,28,26,23,056,31,06,17,315,34*79
$GPGSV,3,3,11,27,07,316,,05,02,048,,25,01,184,25*48
$GPRMC,220225.000,A,3759.8947,N,11954.2632,W,2.56,0.22,291013,,*1A
$GPGGA,220226.000,3759.8954,N,11954.2634,W,1,08,1.0,1417.3,M,-23.2,M,,0000*5C
$GPGSA,A,3,21,26,18,22,06,15,16,29,,,,,2.0,1.0,1.8*38
$GPRMC,220226.000,A,3759.8954,N,11954.2634,W,2.48,0.30,291013,,*11
$GPGGA,220227.000,3759.8962,N,11954.2636,W,1,08,1.0,1418.7,M,-23.2,M,,0000*51
$GPGSA,A,3,21,26,18,22,06,15,16,29,,,,,2.0,1.0,1.8*38
$GPRMC,220227.000,A,3759.8962,N,11954.2636,W,2.46,358.91,291013,,*1C
$GPGGA,220228.000,3759.8969,N,11954.2638,W,1,08,1.0,1419.6,M,-23.2,M,,0000*5B
$GPGSA,A,3,21,26,18,22,06,15,16,29,,,,,2.0,1.0,1.8*38
$GPRMC,220228.000,A,3759.8969,N,11954.2638,W,2.47,359.68,291013,,*10
$GPGGA,220229.000,3759.8976,N,11954.2638,W,1,08,1.0,1420.2,M,-23.2,M,,0000*5A
$GPGSA,A,3,21,26,18,22,06,15,16,29,,,,,2.0,1.0,1.8*38
$GPRMC,220229.000,A,3759.8976,N,11954.2638,W,2.44,358.74,291013,,*10
$GPGGA,220230.000,3759.8983,N,11954.2640,W,1,08,1.0,1420.9,M,-23.2,M,,0000*5C
$GPGSA,A,3,21,26,18,22,06,15,16,29,,,,,2.0,1.0,1.8*38
$GPGSV,3,1,11,21,66,333,21,18,63,230,30,29,46,141,30,15,42,100,29*70
$GPGSV,3,2,11,22,26,229,32,16,24,301,29,26,23,056,31,06,17,315,35*79
$GPGSV,3,3,11,27,07,316,,05,02,048,,25,01,184,19*47
$GPRMC,220230.000,A,3759.8983,N,11954.2640,W,2.58,356.52,291013,,*1A
$GPGGA,220231.000,3759.8990,N,11954.2641,W,1,08,1.0,1421.4,M,-23.2,M,,0000*52
$GPGSA,A,3,21,26,18,22,06,15,16,29,,,,,2.0,1.0,1.8*38
$GPRMC,220231.000,A,3759.8990,N,11954.2641,W,2.56,356.27,291013,,*14
$GPGGA,220232.000,3759.8998,N,11954.2643,W,1,08,1.0,1421.9,M,-23.2,M,,0000*56
$GPGSA,A,3,21,26,18,22,06,15,16,29,,,,,2.0,1.0,1.8*38
$GPRMC,220232.000,A,3759.8998,N,11954.2643,W,2.58,357.10,291013,,*16
$GPGGA,220233.000,3759.9007,N,11954.2645,W,1,08,1.0,1422.4,M,-23.2,M,,0000*51
$GPGSA,A,3,21,26,18,22,06,15,16,29,,,,,2.0,1.0,1.8*38
$GPRMC,220233.000,A,3759.9007,N,11954.2645,W,2.61,358.32,291013,,*1A
$GPGGA,220234.000,3759.9014,N,11954.2646,W,1,08,1.0,1422.1,M,-23.2,M,,0000*52
$GPGSA,A,3,21,26,18,22,06,15,16,29,,,,,2.0,1.0,1.8*38
$GPRMC,220234.000,A,3759.9014,N,11954.2646,W,2.50,356.93,291013,,*1B
$GPGGA,220235.000,3759.9021,N,11954.2647,W,1,08,1.0,1421.8,M,-23.2,M,,0000*5E
$GPGSA,A,3,21,26,18,22,06,15,16,29,,,,,2.0,1.0,1.8*38
$GPGSV,3,1,12,21,66,333,20,18,63,230,29,29,46,141,31,15,42,100,29*7B
$GPGSV,3,2,12,22,26,229,31,16,24,301,24,26,23,056,30,06,17,315,34*74
$GPGSV,3,3,12,27,07,316,,05,02,048,,25,01,184,16,51,44,160,29*73
$GPRMC,220235.000,A,3759.9021,N,11954.2647,W,2.51,355.81,291013,,*1C
$GPGGA,220236.000,3759.9028,N,11954.2649,W,1,07,1.1,1421.6,M,-23.2,M,,0000*5A
$GPGSA,A,3,21,26,18,22,06,16,29,,,,,,2.1,1.1,1.8*3C
$GPRMC,220236.000,A,3759.9028,N,11954.2649,W,2.42,356.15,291013,,*14
$GPGGA,220237.000,3759.9035,N,11954.2650,W,1,08,1.0,1421.6,M,-23.2,M,,0000*51
$GPGSA,A,3,21,26,18,22,06,15,16,29,,,,,2.0,1.0,1.8*38
$GPRMC,220237.000,A,3759.9035,N,11954.2650,W,2.48,353.98,291013,,*1B
$GPGGA,220238.000,3759.9043,N,11954.2652,W,1,08,1.0,1421.6,M,-23.2,M,,0000*5D
$GPGSA,A,3,21,26,18,22,06,15,16,29,,,,,2.0,1.0,1.8*38
$GPRMC,220238.000,A,3759.9043,N,11954.2652,W,2.51,352.65,291013,,*1C
$GPGGA,220239.000,3759.9050,N,11954.2655,W,1,08,1.0,1421.7,M,-23.2,M,,0000*58
$GPGSA,A,3,21,26,18,22,06,15,16,29,,,,,2.0,1.0,1.8*38
$GPRMC,220239.000,A,3759.9050,N,11954.2655,W,2.63,351.08,291013,,*11
$GPGGA,220240.000,3759.9058,N,11954.2657,W,1,08,1.0,1421.8,M,-23.2,M,,0000*53
$GPGSA,A,3,21,26,18,22,06,15,16,29,,,,,2.0,1.0,1.8*38
$GPGSV,3,1,12,21,66,333,19,18,63,230,29,29,46,141,31,15,42,100,33*7A
$GPGSV,3,2,12,22,26,229,31,16,24,301,21,26,23,056,31,06,17,315,28*7D
$GPGSV,3,3,12,27,07,316,,05,02,048,,25,01,184,17,51,44,160,23*78
$GPRMC,220240.000,A,3759.9058,N,11954.2657,W,2.60,349.45,291013,,*16
$GPGGA,220241.000,3759.9067,N,11954.2661,W,1,07,1.2,1421.6,M,-23.2,M,,0000*58
$GPGSA,A,3,26,18,22,06,15,16,29,,,,,,3.0,1.2,2.7*34
$GPRMC,220241.000,A,3759.9067,N,11954.2661,W,2.65,347.65,291013,,*17
$GPGGA,220242.000,3759.9076,N,11954.2665,W,1,07,1.2,1423.1,M,-23.2,M,,0000*5A
$GPGSA,A,3,26,18,22,06,15,16,29,,,,,,3.0,1.2,2.7*34
$GPRMC,220242.000,A,3759.9076,N,11954.2665,W,2.68,345.70,291013,,*1B
$GPGGA,220243.000,3759.9083,N,11954.2668,W,1,08,1.0,1422.9,M,-23.2,M,,0000*58
$GPGSA,A,3,21,26,18,22,06,15,16,29,,,,,2.0,1.0,1.8*38
$GPRMC,220243.000,A,3759.9083,N,11954.2668,W,2.53,348.23,291013,,*1E
$GPGGA,220244.000,3759.9089,N,11954.2668,W,1,08,1.0,1421.5,M,-23.2,M,,0000*5A
$GPGSA,A,3,21,26,18,22,06,15,16,29,,,,,2.0,1.0,1.8*38
$GPRMC,220244.000,A,3759.9089,N,11954.2668,W,2.47,350.31,291013,,*1C
$GPGGA,220245.000,3759.9096,N,11954.2668,W,1,08,1.0,1421.2,M,-23.2,M,,0000*52
$GPGSA,A,3,21,26,18,22,06,15,16,29,,,,,2.0,1.0,1.8*38
$GPGSV,3,1,12,21,66,333,13,18,63,230,25,29,46,141,31,15,42,100,34*7B
$GPGSV,3,2,12,22,26,229,32,16,24,301,24,26,23,056,21,06,17,315,27*75
$GPGSV,3,3,12,27,07,316,,05,02,048,,25,01,184,23,51,44,160,27*7B
$GPRMC,220245.000,A,3759.9096,N,11954.2668,W,2.44,353.90,291013,,*18
$GPGGA,220246.000,3759.9102,N,11954.2670,W,1,08,1.0,1421.4,M,-23.2,M,,0000*52
$GPGSA,A,3,21,26,18,22,06,15,16,29,,,,,2.0,1.0,1.8*38
$GPRMC,220246.000,A,3759.9102,N,11954.2670,W,2.46,346.11,291013,,*11
$GPGGA,220247.000,3759.9110,N,11954.2675,W,1,08,1.0,1421.8,M,-23.2,M,,0000*59
$GPGSA,A,3,21,26,18,22,06,15,16,29,,,,,2.0,1.0,1.8*38
$GPRMC,220247.000,A,3759.9110,N,11954.2675,W,2.49,338.99,291013,,*10
$GPGGA,220248.000,3759.9116,N,11954.2678,W,1,08,1.0,1422.5,M,-23.2,M,,0000*53
$GPGSA,A,3,21,26,18,22,06,15,16,29,,,,,2.0,1.0,1.8*38
$GPRMC,220248.000,A,3759.9116,N,11954.2678,W,2.33,341.90,291013,,*1E
$GPGGA,220249.000,3759.9122,N,11954.2680,W,1,08,1.0,1422.4,M,-23.2,M,,0000*53
$GPGSA,A,3,21,26,18,22,06,15,16,29,,,,,2.0,1.0,1.8*38
$GPRMC,220249.000,A,3759.9122,N,11954.2680,W,2.30,347.41,291013,,*16
$GPGGA,220250.000,3759.9128,N,11954.2679,W,1,07,1.2,1421.5,M,-23.2,M,,0000*58
$GPGSA,A,3,21,18,22,06,15,16,29,,,,,,2.3,1.2,2.0*36
$GPGSV,3,1,12,21,66,333,16,18,63,230,28,29,46,141,29,15,42,100,34*7A
$GPGSV,3,2,12,22,26,229,31,16,24,301,19,26,23,056,15,06,17,315,27*7F
$GPGSV,3,3,12,27,07,316,,05,02,048,23,25,01,184,22,48,43,200,28*7E
$GPRMC,220250.000,A,3759.9128,N,11954.2679,W,2.38,346.27,291013,,*1B
$GPGGA,220251.000,3759.9134,N,11954.2679,W,1,07,1.2,1420.4,M,-23.2,M,,0000*54
$GPGSA,A,3,21,18,22,06,15,16,29,,,,,,2.3,1.2,2.0*36
$GPRMC,220251.000,A,3759.9134,N,11954.2679,W,2.32,346.76,291013,,*19
$GPGGA,220252.000,3759.9140,N,11954.2679,W,1,08,1.0,1419.6,M,-23.2,M,,0000*51
$GPGSA,A,3,21,26,18,22,06,15,16,29,,,,,2.0,1.0,1.8*38
$GPRMC,220252.000,A,3759.9140,N,11954.2679,W,2.41,350.68,291013,,*15
$GPGGA,220253.000,3759.9147,N,11954.2679,W,1,08,1.0,1418.8,M,-23.2,M,,0000*58
$GPGSA,A,3,21,26,18,22,06,15,16,29,,,,,2.1,1.0,1.8*39
$GPRMC,220253.000,A,3759.9147,N,11954.2679,W,2.53,352.13,291013,,*1E
$GPGGA,220254.000,3759.9154,N,11954.2679,W,1,08,1.0,1418.0,M,-23.2,M,,0000*55
$GPGSA,A,3,21,26,18,22,06,15,16,29,,,,,2.1,1.0,1.8*39
$GPRMC,220254.000,A,3759.9154,N,11954.2679,W,2.30,349.33,291013,,*16
$GPGGA,220255.000,3759.9161,N,11954.2679,W,1,08,1.0,1416.9,M,-23.2,M,,0000*55
$GPGSA,A,3,21,26,18,22,06,15,16,29,,,,,2.1,1.0,1.8*39
$GPGSV,3,1,12,21,66,333,23,18,63,230,26,29,46,141,31,15,42,100,34*7B
$GPGSV,3,2,12,22,26,229,31,16,24,301,18,26,23,056,22,06,17,315,26*7B
$GPGSV,3,3,12,27,07,316,,05,02,048,,25,01,184,22,48,43,200,26*71
$GPRMC,220255.000,A,3759.9161,N,11954.2679,W,2.50,350.58,291013,,*12
$GPGGA,220256.000,3759.9167,N,11954.2678,W,1,08,1.0,1414.9,M,-23.2,M,,0000*53
$GPGSA,A,3,21,26,18,22,06,15,16,29,,,,,2.1,1.0,1.8*39
$GPRMC,220256.000,A,3759.9167,N,11954.2678,W,2.43,348.26,291013,,*14
$GPGGA,220257.000,3759.9174,N,11954.2678,W,1,08,1.0,1413.3,M,-23.2,M,,0000*5D
$GPGSA,A,3,21,26,18,22,06,15,16,29,,,,,2.1,1.0,1.8*39
$GPRMC,220257.000,A,3759.9174,N,11954.2678,W,2.61,348.65,291013,,*10
$GPGGA,220258.000,3759.9181,N,11954.2679,W,1,08,1.0,1411.9,M,-23.2,M,,0000*51
$GPGSA,A,3,21,26,18,22,06,15,16,29,,,,,2.1,1.0,1.8*39
$GPRMC,220258.000,A,3759.9181,N,11954.2679,W,2.84,350.72,291013,,*10
$GPGGA,220259.000,3759.9188,N,11954.2679,W,1,08,1.0,1410.5,M,-23.2,M,,0000*54
$GPGSA,A,3,21,26,18,22,06,15,16,29,,,,,2.1,1.0,1.8*39
$GPRMC,220259.000,A,3759.9188,N,11954.2679,W,2.83,350.74,291013,,*19
$GPGGA,220300.000,3759.9196,N,11954.2680,W,1,08,1.0,1409.2,M,-23.2,M,,0000*5F
$GPGSA,A,3,21,26,18,22,06,15,16,29,,,,,2.1,1.0,1.8*39
$GPGSV,3,1,12,21,66,333,23,18,63,230,25,29,46,141,31,15,42,100,35*79
$GPGSV,3,2,12,22,26,229,31,16,24,301,16,26,23,056,17,06,17,315,26*73
$GPGSV,3,3,12,27,07,316,,05,02,048,,25,01,184,21,48,43,200,25*71
$GPRMC,220300.000,A,3759.9196,N,11954.2680,W,2.93,351.21,291013,,*1D
$GPGGA,220301.000,3759.9203,N,11954.2681,W,1,08,1.0,1408.0,M,-23.2,M,,0000*53
$GPGSA,A,3,21,26,18,22,06,15,16,29,,,,,2.1,1.0,1.8*39
$GPRMC,220301.000,A,3759.9203,N,11954.2681,W,2.70,345.10,291013,,*18
$GPGGA,220302.000,3759.9210,N,11954.2683,W,1,08,1.0,1407.3,M,-23.2,M,,0000*5C
$GPGSA,A,3,21,26,18,22,06,15,16,29,,,,,2.1,1.0,1.8*39
$GPRMC,220302.000,A,3759.9210,N,11954.2683,W,2.11,342.40,291013,,*1E
$GPGGA,220303.000,3759.9215,N,11954.2686,W,1,08,1.0,1406.8,M,-23.2,M,,0000*57
$GPGSA,A,3,21,26,18,22,06,15,16,29,,,,,2.1,1.0,1.8*39
$GPRMC,220303.000,A,3759.9215,N,11954.2686,W,2.07,338.96,291013,,*1E
$GPGGA,220304.000,3759.9221,N,11954.2689,W,1,08,1.0,1406.4,M,-23.2,M,,0000*54
$GPGSA,A,3,21,26,18,22,06,15,16,29,,,,,2.1,1.0,1.8*39
$GPRMC,220304.000,A,3759.9221,N,11954.2689,W,2.40,341.68,291013,,*1D
$GPGGA,220305.000,3759.9228,N,11954.2692,W,1,08,1.0,1405.9,M,-23.2,M,,0000*58
$GPGSA,A,3,21,26,18,22,06,15,16,29,,,,,2.1,1.0,1.8*39
$GPGSV,3,1,12,21,66,333,23,18,63,230,25,29,46,141,31,15,42,100,35*79
$GPGSV,3,2,12,22,26,229,31,16,24,301,16,26,23,056,18,06,17,315,26*7C
$GPGSV,3,3,12,27,07,316,,05,02,048,,25,01,184,20,48,43,200,26*73
$GPRMC,220305.000,A,3759.9228,N,11954.2692,W,2.51,343.06,291013,,*15
$GPGGA,220306.000,3759.9235,N,11954.2694,W,1,08,1.0,1405.3,M,-23.2,M,,0000*5B
$GPGSA,A,3,21,26,18,22,06,15,16,29,,,,,2.1,1.0,1.8*39
$GPRMC,220306.000,A,3759.9235,N,11954.2694,W,2.40,346.79,291013,,*11
$GPGGA,220307.000,3759.9241,N,11954.2695,W,1,08,1.0,1404.7,M,-23.2,M,,0000*5D
$GPGSA,A,3,21,26,18,22,06,15,16,29,,,,,2.1,1.0,1.8*39
$GPRMC,220307.000,A,3759.9241,N,11954.2695,W,2.13,344.95,291013,,*14
$GPGGA,220308.000,3759.9247,N,11954.2697,W,1,08,1.0,1404.2,M,-23.2,M,,0000*53
$GPGSA,A,3,21,26,18,22,06,15,16,29,,,,,2.1,1.0,1.8*39
$GPRMC,220308.000,A,3759.9247,N,11954.2697,W,2.05,342.34,291013,,*15
$GPGGA,220309.000,3759.9252,N,11954.2699,W,1,08,1.0,1403.8,M,-23.2,M,,0000*55
$GPGSA,A,3,21,26,18,22,06,15,16,29,,,,,2.1,1.0,1.8*39
$GPRMC,220309.000,A,3759.9252,N,11954.2699,W,1.97,340.28,291013,,*19
$GPGGA,220310.000,3759.9258,N,11954.2701,W,1,08,1.0,1403.2,M,-23.2,M,,0000*5D
$GPGSA,A,3,21,26,18,22,06,15,16,29,,,,,2.1,1.0,1.8*39
$GPGSV,3,1,11,21,66,333,22,18,63,230,26,29,46,141,30,15,42,100,35*79
$GPGSV,3,2,11,22,26,229,31,16,24,301,15,26,23,056,20,06,17,315,26*77
$GPGSV,3,3,11,27,07,316,,05,02,048,,25,01,184,20*4D
$GPRMC,220310.000,A,3759.9258,N,11954.2701,W,2.08,348.59,291013,,*10
$GPGGA,220311.000,3759.9265,N,11954.2703,W,1,08,1.0,1402.8,M,-23.2,M,,0000*5B
$GPGSA,A,3,21,26,18,22,06,15,16,29,,,,,2.1,1.0,1.8*39
$GPRMC,220311.000,A,3759.9265,N,11954.2703,W,2.35,351.01,291013,,*16
$GPGGA,220312.000,3759.9270,N,11954.2706,W,1,08,1.0,1403.1,M,-23.2,M,,0000*51
$GPGSA,A,3,21,26,18,22,06,15,16,29,,,,,2.1,1.0,1.8*39
$GPRMC,220312.000,A,3759.9270,N,11954.2706,W,2.48,346.84,291013,,*15
$GPGGA,220313.000,3759.9275,N,11954.2710,W,1,08,1.0,1403.5,M,-23.2,M,,0000*56
$GPGSA,A,3,21,26,18,22,06,15,16,29,,,,,2.1,1.0,1.8*39
$GPRMC,220313.000,A,3759.9275,N,11954.2710,W,2.39,346.48,291013,,*10
$GPGGA,220314.000,3759.9281,N,11954.2714,W,1,08,1.0,1404.0,M,-23.2,M,,0000*5C
$GPGSA,A,3,21,26,18,22,06,15,16,29,,,,,2.1,1.0,1.8*39
$GPRMC,220314.000,A,3759.9281,N,11954.2714,W,2.36,348.18,291013,,*1C
$GPGGA,220315.000,3759.9287,N,11954.2717,W,1,08,1.0,1404.3,M,-23.2,M,,0000*5B
$GPGSA,A,3,21,26,18,22,06,15,16,29,,,,,2.1,1.0,1.8*39
$GPGSV,3,1,11,21,66,333,23,18,63,230,27,29,46,141,32,15,42,100,35*7B
$GPGSV,3,2,11,22,26,229,32,16,24,301,17,26,23,056,30,06,17,315,30*70
$GPGSV,3,3,11,27,07,316,,05,02,048,,25,01,184,07*48
$GPRMC,220315.000,A,3759.9287,N,11954.2717,W,2.38,349.62,291013,,*1A
$GPGGA,220316.000,3759.9294,N,11954.2719,W,1,08,1.0,1404.5,M,-23.2,M,,0000*52
$GPGSA,A,3,21,26,18,22,06,15,16,29,,,,,2.1,1.0,1.8*39
$GPRMC,220316.000,A,3759.9294,N,11954.2719,W,2.47,349.38,291013,,*12
$GPGGA,220317.000,3759.9300,N,11954.2722,W,1,08,1.0,1404.8,M,-23.2,M,,0000*5A
$GPGSA,A,3,21,26,18,22,06,15,16,29,,,,,2.1,1.0,1.8*39
$GPRMC,220317.000,A,3759.9300,N,11954.2722,W,2.56,349.79,291013,,*12
$GPGGA,220318.000,3759.9307,N,11954.2724,W,1,08,1.0,1405.1,M,-23.2,M,,0000*5C
$GPGSA,A,3,21,26,18,22,06,15,16,29,,,,,2.1,1.0,1.8*39
$GPRMC,220318.000,A,3759.9307,N,11954.2724,W,2.64,350.21,291013,,*18
$GPGGA,220319.000,3759.9320,N,11954.2729,W,1,08,1.0,1408.1,M,-23.2,M,,0000*58
$GPGSA,A,3,21,26,18,22,06,15,16,29,,,,,2.1,1.0,1.8*39
$GPRMC,220319.000,A,3759.9320,N,11954.2729,W,2.63,352.73,291013,,*13
$GPGGA,220320.000,3759.9331,N,11954.2733,W,1,08,1.0,1410.6,M,-23.2,M,,0000*57
$GPGSA,A,3,21,26,18,22,06,15,16,29,,,,,2.1,1.0,1.8*39
$GPGSV,3,1,11,21,66,333,26,18,63,230,20,29,46,141,33,15,42,100,28*74
$GPGSV,3,2,11,22,26,229,32,16,24,301,24,26,23,056,32,06,17,315,34*76
$GPGSV,3,3,11,27,07,316,,05,02,048,,25,01,184,*4F
$GPRMC,220320.000,A,3759.9331,N,11954.2733,W,2.62,356.11,291013,,*13
$GPGGA,220321.000,3759.9340,N,11954.2736,W,1,08,1.0,1412.3,M,-23.2,M,,0000*52
$GPGSA,A,3,21,26,18,22,06,15,16,29,,,,,2.1,1.0,1.8*39
$GPRMC,220321.000,A,3759.9340,N,11954.2736,W,2.73,355.79,291013,,*1C
$GPGGA,220322.000,3759.9349,N,11954.2739,W,1,08,1.0,1413.8,M,-23.2,M,,0000*5D
$GPGSA,A,3,21,26,18,22,06,15,16,29,,,,,2.1,1.0,1.8*39
$GPRMC,220322.000,A,3759.9349,N,11954.2739,W,2.67,355.91,291013,,*1A
$GPGGA,220323.000,3759.9358,N,11954.2741,W,1,08,1.0,1415.2,M,-23.2,M,,0000*5F
$GPGSA,A,3,21,26,18,22,06,15,16,29,,,,,2.1,1.0,1.8*39
$GPRMC,220323.000,A,3759.9358,N,11954.2741,W,2.61,356.40,291013,,*1D
$GPGGA,220324.000,3759.9366,N,11954.2743,W,1,08,1.0,1416.4,M,-23.2,M,,0000*52
$GPGSA,A,3,21,26,18,22,06,15,16,29,,,,,2.1,1.0,1.8*39
$GPRMC,220324.000,A,3759.9366,N,11954.2743,W,2.67,357.07,291013,,*11
$GPGGA,220325.000,3759.9374,N,11954.2746,W,1,08,1.0,1417.6,M,-23.2,M,,0000*56
$GPGSA,A,3,21,26,18,22,06,15,16,29,,,,,2.1,1.0,1.8*39
$GPGSV,3,1,11,21,67,334,28,18,64,230,23,29,45,142,33,15,42,100,29*79
$GPGSV,3,2,11,22,26,229,32,16,24,300,25,26,23,055,32,06,18,315,34*7A
$GPGSV,3,3,11,27,07,316,,05,02,048,,25,00,184,*4E
$GPRMC,220325.000,A,3759.9374,N,11954.2746,W,2.69,355.99,291013,,*1D
$GPGGA,220326.000,3759.9382,N,11954.2748,W,1,08,1.0,1418.7,M,-23.2,M,,0000*5C
$GPGSA,A,3,21,26,18,22,06,15,16,29,,,,,2.1,1.0,1.8*39
$GPRMC,220326.000,A,3759.9382,N,11954.2748,W,2.71,355.83,291013,,*1B
$GPGGA,220327.000,3759.9390,N,11954.2750,W,1,08,1.0,1419.8,M,-23.2,M,,0000*59
$GPGSA,A,3,21,26,18,22,06,15,16,29,,,,,2.1,1.0,1.8*39
$GPRMC,220327.000,A,3759.9390,N,11954.2750,W,2.63,356.74,291013,,*18
$GPGGA,220328.000,3759.9397,N,11954.2750,W,1,08,1.0,1419.6,M,-23.2,M,,0000*5F
$GPGSA,A,3,21,26,18,22,06,15,16,29,,,,,2.1,1.0,1.8*39
$GPRMC,220328.000,A,3759.9397,N,11954.2750,W,2.72,353.44,291013,,*16
$GPGGA,220329.000,3759.9404,N,11954.2751,W,1,08,1.0,1419.6,M,-23.2,M,,0000*52
$GPGSA,A,3,21,26,18,22,06,15,16,29,,,,,2.1,1.0,1.8*39
$GPRMC,220329.000,A,3759.9404,N,11954.2751,W,2.77,355.71,291013,,*1E
$GPGGA,220330.000,3759.9411,N,11954.2754,W,1,08,1.0,1420.7,M,-23.2,M,,0000*50
$GPGSA,A,3,21,26,18,22,06,15,16,29,,,,,2.1,1.0,1.8*39
$GPGSV,3,1,11,21,67,334,20,18,64,230,23,29,45,142,34,15,42,100,30*7E
$GPGSV,3,2,11,22,26,229,33,16,24,300,20,26,23,055,33,06,18,315,33*78
$GPGSV,3,3,11,27,07,316,,05,02,048,,25,00,184,*4E
$GPRMC,220330.000,A,3759.9411,N,11954.2754,W,2.93,357.69,291013,,*16
$GPGGA,220331.000,3759.9420,N,11954.2755,W,1,08,1.0,1421.1,M,-23.2,M,,0000*55
$GPGSA,A,3,21,26,18,22,06,15,16,29,,,,,2.1,1.0,1.8*39
$GPRMC,220331.000,A,3759.9420,N,11954.2755,W,3.16,358.31,291013,,*1A
$GPGGA,220332.000,3759.9429,N,11954.2757,W,1,08,1.0,1422.4,M,-23.2,M,,0000*5B
$GPGSA,A,3,21,26,18,22,06,15,16,29,,,,,2.1,1.0,1.8*39
$GPRMC,220332.000,A,3759.9429,N,11954.2757,W,3.18,3.54,291013,,*12
$GPGGA,220333.000,3759.9438,N,11954.2758,W,1,08,1.0,1423.4,M,-23.2,M,,0000*54
$GPGSA,A,3,21,26,18,22,06,15,16,29,,,,,2.1,1.0,1.8*39
$GPRMC,220333.000,A,3759.9438,N,11954.2758,W,3.24,7.64,291013,,*14
$GPGGA,220334.000,3759.9446,N,11954.2757,W,1,07,1.1,1424.2,M,-23.2,M,,0000*5A
$GPGSA,A,3,21,26,18,22,06,15,29,,,,,,2.1,1.1,1.8*3F
$GPRMC,220334.000,A,3759.9446,N,11954.2757,W,2.84,16.62,291013,,*28
$GPGGA,220335.000,3759.9454,N,11954.2755,W,1,07,1.1,1424.9,M,-23.2,M,,0000*51
$GPGSA,A,3,21,26,18,22,06,15,29,,,,,,2.1,1.1,1.8*3F
$GPGSV,3,1,11,21,67,334,21,18,64,230,29,29,45,142,35,15,42,100,31*75
$GPGSV,3,2,11,22,26,229,34,16,24,300,,26,23,055,27,06,18,315,22*78
$GPGSV,3,3,11,27,07,316,,05,02,048,,25,00,184,*4E
$GPRMC,220335.000,A,3759.9454,N,11954.2755,W,2.97,15.41,291013,,*28
$GPGGA,220336.000,3759.9462,N,11954.2753,W,1,08,1.0,1425.3,M,-23.2,M,,0000*54
$GPGSA,A,3,21,26,18,22,06,15,16,29,,,,,2.1,1.0,1.8*39
$GPRMC,220336.000,A,3759.9462,N,11954.2753,W,2.99,17.47,291013,,*22
$GPGGA,220337.000,3759.9470,N,11954.2752,W,1,07,1.1,1425.6,M,-23.2,M,,0000*5C
$GPGSA,A,3,21,26,18,22,06,15,29,,,,,,2.1,1.1,1.8*3F
$GPRMC,220337.000,A,3759.9470,N,11954.2752,W,3.16,13.29,291013,,*2B
$GPGGA,220338.000,3759.9478,N,11954.2750,W,1,07,1.1,1426.0,M,-23.2,M,,0000*5C
$GPGSA,A,3,21,26,18,22,06,15,29,,,,,,2.1,1.1,1.8*3F
$GPRMC,220338.000,A,3759.9478,N,11954.2750,W,3.02,17.22,291013,,*24
$GPGGA,220339.000,3759.9487,N,11954.2748,W,1,07,1.1,1426.2,M,-23.2,M,,0000*56
$GPGSA,A,3,21,26,18,22,06,15,29,,,,,,2.1,1.1,1.8*3F
$GPRMC,220339.000,A,3759.9487,N,11954.2748,W,3.22,13.09,291013,,*23
$GPGGA,220340.000,3759.9497,N,11954.2747,W,1,08,1.0,1426.6,M,-23.2,M,,0000*5C
$GPGSA,A,3,21,26,18,22,06,15,16,29,,,,,2.1,1.0,1.8*39
$GPGSV,3,1,11,21,67,334,22,18,64,230,29,29,45,142,36,15,42,100,31*75
$GPGSV,3,2,11,22,26,229,33,16,24,300,24,26,23,055,29,06,18,315,22*77
$GPGSV,3,3,11,27,07,316,,05,02,048,,25,00,184,*4E
$GPRMC,220340.000,A,3759.9497,N,11954.2747,W,3.74,6.44,291013,,*1D
$GPGGA,220341.000,3759.9507,N,11954.2746,W,1,08,1.0,1426.9,M,-23.2,M,,0000*5B
$GPGSA,A,3,21,26,18,22,06,15,16,29,,,,,2.1,1.0,1.8*39
$GPRMC,220341.000,A,3759.9507,N,11954.2746,W,3.62,7.34,291013,,*14
$GPGGA,220342.000,3759.9517,N,11954.2745,W,1,08,1.0,1427.1,M,-23.2,M,,0000*53
$GPGSA,A,3,21,26,18,22,06,15,16,29,,,,,2.1,1.0,1.8*39
$GPRMC,220342.000,A,3759.9517,N,11954.2745,W,3.58,7.67,291013,,*1A
$GPGGA,220343.000,3759.9527,N,11954.2744,W,1,08,1.0,1427.3,M,-23.2,M,,0000*52
$GPGSA,A,3,21,26,18,22,06,15,16,29,,,,,2.1,1.0,1.8*39
$GPRMC,220343.000,A,3759.9527,N,11954.2744,W,3.35,8.58,291013,,*11
$GPGGA,220344.000,3759.9537,N,11954.2744,W,1,08,1.0,1427.7,M,-23.2,M,,0000*50
$GPGSA,A,3,21,26,18,22,06,15,16,29,,,,,2.1,1.0,1.8*39
$GPRMC,220344.000,A,3759.9537,N,11954.2744,W,3.57,5.15,291013,,*17
$GPGGA,220345.000,3759.9547,N,11954.2743,W,1,08,1.0,1428.0,M,-23.2,M,,0000*59
$GPGSA,A,3,21,26,18,22,06,15,16,29,,,,,2.1,1.0,1.8*39
$GPGSV,3,1,11,21,67,334,23,18,64,230,29,29,45,142,35,15,42,100,31*77
$GPGSV,3,2,11,22,27,230,32,16,24,300,24,26,23,055,31,06,18,315,29*7D
$GPGSV,3,3,11,27,07,316,,05,02,048,,25,00,184,*4E
$GPRMC,220345.000,A,3759.9547,N,11954.2743,W,3.45,6.84,291013,,*1E
$GPGGA,220346.000,3759.9557,N,11954.2743,W,1,08,1.0,1428.3,M,-23.2,M,,0000*58
$GPGSA,A,3,21,26,18,22,06,15,16,29,,,,,2.1,1.0,1.8*39
$GPRMC,220346.000,A,3759.9557,N,11954.2743,W,3.48,4.38,291013,,*14
$GPGGA,220347.000,3759.9566,N,11954.2742,W,1,08,1.0,1428.6,M,-23.2,M,,0000*5F
$GPGSA,A,3,21,26,18,22,06,15,16,29,,,,,2.1,1.0,1.8*39
$GPRMC,220347.000,A,3759.9566,N,11954.2742,W,3.48,4.18,291013,,*14
$GPGGA,220348.000,3759.9575,N,11954.2741,W,1,08,1.0,1428.8,M,-23.2,M,,0000*5F
$GPGSA,A,3,21,26,18,22,06,15,16,29,,,,,2.1,1.0,1.8*39
$GPRMC,220348.000,A,3759.9575,N,11954.2741,W,3.46,3.18,291013,,*13
$GPGGA,220349.000,3759.9584,N,11954.2741,W,1,08,1.0,1429.1,M,-23.2,M,,0000*58
$GPGSA,A,3,21,26,18,22,06,15,16,29,,,,,2.1,1.0,1.8*39
$GPRMC,220349.000,A,3759.9584,N,11954.2741,W,3.45,3.94,291013,,*1B
$GPGGA,220350.000,3759.9592,N,11954.2740,W,1,08,1.0,1428.5,M,-23.2,M,,0000*53
$GPGSA,A,3,21,26,18,22,06,15,16,29,,,,,2.1,1.0,1.8*39
$GPGSV,3,1,11,21,67,334,23,18,64,230,29,29,45,142,35,15,42,100,32*74
$GPGSV,3,2,11,22,27,230,32,16,24,300,25,26,23,055,32,06,18,315,30*77
$GPGSV,3,3,11,27,07,316,,05,02,048,,25,00,184,*4E
$GPRMC,220350.000,A,3759.9592,N,11954.2740,W,3.42,4.20,291013,,*1A
$GPGGA,220351.000,3759.9600,N,11954.2738,W,1,07,1.2,1428.3,M,-23.2,M,,0000*5E
$GPGSA,A,3,26,18,22,06,15,16,29,,,,,,3.0,1.2,2.7*34
$GPRMC,220351.000,A,3759.9600,N,11954.2738,W,3.41,2.59,291013,,*17
$GPGGA,220352.000,3759.9609,N,11954.2738,W,1,07,1.2,1428.1,M,-23.2,M,,0000*56
$GPGSA,A,3,26,18,22,06,15,16,29,,,,,,3.0,1.2,2.7*34
$GPRMC,220352.000,A,3759.9609,N,11954.2738,W,3.33,0.63,291013,,*13
$GPGGA,220353.000,3759.9619,N,11954.2739,W,1,08,1.0,1428.1,M,-23.2,M,,0000*5A
$GPGSA,A,3,21,26,18,22,06,15,16,29,,,,,2.1,1.0,1.8*39
$GPRMC,220353.000,A,3759.9619,N,11954.2739,W,3.38,359.77,291013,,*13
$GPGGA,220354.000,3759.9628,N,11954.2739,W,1,08,1.0,1428.1,M,-23.2,M,,0000*5F
$GPGSA,A,3,21,26,18,22,06,15,16,29,,,,,2.1,1.0,1.8*39
$GPRMC,220354.000,A,3759.9628,N,11954.2739,W,3.39,359.14,291013,,*12
$GPGGA,220355.000,3759.9637,N,11954.2740,W,1,08,1.0,1428.1,M,-23.2,M,,0000*5E
$GPGSA,A,3,21,26,18,22,06,15,16,29,,,,,2.1,1.0,1.8*39
$GPGSV,3,1,11,21,67,334,15,18,64,230,15,29,45,142,35,15,42,100,32*7E
$GPGSV,3,2,11,22,27,230,33,16,24,300,30,26,23,055,33,06,18,315,30*73
$GPGSV,3,3,11,27,07,316,,05,02,048,,25,00,184,*4E
$GPRMC,220355.000,A,3759.9637,N,11954.2740,W,3.38,359.50,291013,,*12
$GPGGA,220356.000,3759.9646,N,11954.2740,W,1,08,1.0,1428.1,M,-23.2,M,,0000*5B
$GPGSA,A,3,21,26,18,22,06,15,16,29,,,,,2.1,1.0,1.8*39
$GPRMC,220356.000,A,3759.9646,N,11954.2740,W,3.39,359.96,291013,,*1C
$GPGGA,220357.000,3759.9655,N,11954.2740,W,1,08,1.0,1428.2,M,-23.2,M,,0000*5B
$GPGSA,A,3,21,26,18,22,06,15,16,29,,,,,2.1,1.0,1.8*39
$GPRMC,220357.000,A,3759.9655,N,11954.2740,W,3.39,0.34,291013,,*18
$GPGGA,220358.000,3759.9665,N,11954.2740,W,1,07,1.0,1428.2,M,-23.2,M,,0000*58
$GPGSA,A,3,21,26,22,06,15,16,29,,,,,,2.3,1.0,2.1*38
$GPRMC,220358.000,A,3759.9665,N,11954.2740,W,3.40,0.05,291013,,*18
$GPGGA,220359.000,3759.9674,N,11954.2741,W,1,07,1.0,1428.4,M,-23.2,M,,0000*5E
$GPGSA,A,3,21,26,22,06,15,16,29,,,,,,2.3,1.0,2.1*38
$GPRMC,220359.000,A,3759.9674,N,11954.2741,W,3.41,359.60,291013,,*15
$GPGGA,220400.000,3759.9683,N,11954.2741,W,1,07,1.0,1428.8,M,-23.2,M,,0000*51
$GPGSA,A,3,21,26,22,06,15,16,29,,,,,,2.3,1.0,2.1*38
$GPGSV,3,1,11,21,67,334,16,18,64,230,,29,45,142,34,15,42,100,32*78
$GPGSV,3,2,11,22,27,230,33,16,24,300,29,26,23,055,33,06,18,315,31*7A
$GPGSV,3,3,11,27,07,316,18,05,02,048,,25,00,184,*47
$GPRMC,220400.000,A,3759.9683,N,11954.2741,W,3.46,358.97,291013,,*18
$GPGGA,220401.000,3759.9693,N,11954.2742,W,1,08,1.0,1428.9,M,-23.2,M,,0000*5C
$GPGSA,A,3,21,26,18,22,06,15,16,29,,,,,2.1,1.0,1.8*39
$GPRMC,220401.000,A,3759.9693,N,11954.2742,W,3.42,357.64,291013,,*1C
$GPGGA,220402.000,3759.9702,N,11954.2742,W,1,08,1.0,1428.7,M,-23.2,M,,0000*58
$GPGSA,A,3,21,26,18,22,06,15,16,29,,,,,2.1,1.0,1.8*39
$GPRMC,220402.000,A,3759.9702,N,11954.2742,W,3.45,357.71,291013,,*15
$GPGGA,220403.000,3759.9711,N,11954.2743,W,1,08,1.0,1428.4,M,-23.2,M,,0000*59
$GPGSA,A,3,21,26,18,22,06,15,16,29,,,,,2.1,1.0,1.8*39
$GPRMC,220403.000,A,3759.9711,N,11954.2743,W,3.50,357.62,291013,,*11
$GPGGA,220404.000,3759.9720,N,11954.2743,W,1,08,1.0,1428.1,M,-23.2,M,,0000*59
$GPGSA,A,3,21,26,18,22,06,15,16,29,,,,,2.1,1.0,1.8*39
$GPRMC,220404.000,A,3759.9720,N,11954.2743,W,3.49,356.85,291013,,*14
$GPGGA,220405.000,3759.9729,N,11954.2744,W,1,08,1.0,1427.9,M,-23.2,M,,0000*51
$GPGSA,A,3,21,26,18,22,06,15,16,29,,,,,2.1,1.0,1.8*39
$GPGSV,3,1,11,21,67,334,25,18,64,230,24,29,45,142,35,15,42,100,32*7F
$GPGSV,3,2,11,22,27,230,35,16,24,300,29,26,23,055,32,06,18,315,32*7E
$GPGSV,3,3,11,27,07,316,,05,02,048,,25,00,184,*4E
$GPRMC,220405.000,A,3759.9729,N,11954.2744,W,3.46,356.26,291013,,*1D
$GPGGA,220406.000,3759.9738,N,11954.2745,W,1,08,1.0,1427.8,M,-23.2,M,,0000*52
$GPGSA,A,3,21,26,18,22,06,15,16,29,,,,,2.1,1.0,1.8*39
$GPRMC,220406.000,A,3759.9738,N,11954.2745,W,3.40,355.33,291013,,*1E
$GPGGA,220407.000,3759.9747,N,11954.2746,W,1,08,1.0,1427.6,M,-23.2,M,,0000*56
$GPGSA,A,3,21,26,18,22,06,15,16,29,,,,,2.1,1.0,1.8*39
$GPRMC,220407.000,A,3759.9747,N,11954.2746,W,3.41,355.23,291013,,*14
$GPGGA,220408.000,3759.9755,N,11954.2745,W,1,08,1.0,1425.4,M,-23.2,M,,0000*59
$GPGSA,A,3,21,26,18,22,06,15,16,29,,,,,2.1,1.0,1.8*39
$GPRMC,220408.000,A,3759.9755,N,11954.2745,W,3.40,354.90,291013,,*13
$GPGGA,220409.000,3759.9763,N,11954.2746,W,1,08,1.0,1424.7,M,-23.2,M,,0000*5C
$GPGSA,A,3,21,26,18,22,06,15,16,29,,,,,2.1,1.0,1.8*39
$GPRMC,220409.000,A,3759.9763,N,11954.2746,W,3.39,354.42,291013,,*15
$GPGGA,220410.000,3759.9772,N,11954.2747,W,1,08,1.0,1423.5,M,-23.2,M,,0000*50
$GPGSA,A,3,21,26,18,22,06,15,16,29,,,,,2.1,1.0,1.8*39
$GPGSV,3,1,11,21,67,335,24,18,64,231,30,29,45,142,35,15,42,099,32*7A
$GPGSV,3,2,11,22,27,230,36,16,24,300,28,26,23,055,32,06,18,315,32*7C
$GPGSV,3,3,11,27,08,316,,05,02,048,,25,00,184,*41
$GPRMC,220410.000,A,3759.9772,N,11954.2747,W,3.31,353.57,291013,,*17
$GPGGA,220411.000,3759.9780,N,11954.2749,W,1,08,1.0,1423.4,M,-23.2,M,,0000*53
$GPGSA,A,3,21,26,18,22,06,15,16,29,,,,,2.1,1.0,1.8*39
$GPRMC,220411.000,A,3759.9780,N,11954.2749,W,3.29,353.06,291013,,*18
$GPGGA,220412.000,3759.9789,N,11954.2751,W,1,08,1.0,1423.0,M,-23.2,M,,0000*54
$GPGSA,A,3,21,26,18,22,06,15,16,29,,,,,2.1,1.0,1.8*39
$GPRMC,220412.000,A,3759.9789,N,11954.2751,W,3.38,352.46,291013,,*1E
$GPGGA,220413.000,3759.9799,N,11954.2753,W,1,08,1.0,1422.8,M,-23.2,M,,0000*5F
$GPGSA,A,3,21,26,18,22,06,15,16,29,,,,,2.1,1.0,1.8*39
$GPRMC,220413.000,A,3759.9799,N,11954.2753,W,3.40,352.43,291013,,*16
$GPGGA,220414.000,3759.9808,N,11954.2755,W,1,08,1.0,1422.8,M,-23.2,M,,0000*59
$GPGSA,A,3,21,26,18,22,06,15,16,29,,,,,2.1,1.0,1.8*39
$GPRMC,220414.000,A,3759.9808,N,11954.2755,W,3.43,352.62,291013,,*10
$GPGGA,220415.000,3759.9818,N,11954.2758,W,1,08,1.0,1422.8,M,-23.2,M,,0000*54
$GPGSA,A,3,21,26,18,22,06,15,16,29,,,,,2.1,1.0,1.8*39
$GPGSV,3,1,11,21,67,335,18,18,64,231,34,29,45,142,34,15,42,099,32*70
$GPGSV,3,2,11,22,27,230,37,16,24,300,28,26,23,055,32,06,18,315,33*7C
$GPGSV,3,3,11,27,08,316,,05,02,048,,25,00,184,*41
$GPRMC,220415.000,A,3759.9818,N,11954.2758,W,3.46,352.59,291013,,*10
$GPGGA,220416.000,3759.9827,N,11954.2760,W,1,08,1.0,1422.8,M,-23.2,M,,0000*50
$GPGSA,A,3,21,26,18,22,06,15,16,29,,,,,2.1,1.0,1.8*39
$GPRMC,220416.000,A,3759.9827,N,11954.2760,W,3.48,353.91,291013,,*1F
$GPGGA,220417.000,3759.9837,N,11954.2761,W,1,08,1.0,1422.7,M,-23.2,M,,0000*5E
$GPGSA,A,3,21,26,18,22,06,15,16,29,,,,,2.1,1.0,1.8*39
$GPRMC,220417.000,A,3759.9837,N,11954.2761,W,3.48,354.23,291013,,*10
$GPGGA,220418.000,3759.9846,N,11954.2763,W,1,08,1.0,1422.5,M,-23.2,M,,0000*57
$GPGSA,A,3,21,26,18,22,06,15,16,29,,,,,2.1,1.0,1.8*39
$GPRMC,220418.000,A,3759.9846,N,11954.2763,W,3.47,355.27,291013,,*11
$GPGGA,220419.000,3759.9856,N,11954.2765,W,1,08,1.0,1422.4,M,-23.2,M,,0000*50
$GPGSA,A,3,21,26,18,22,06,15,16,29,,,,,2.1,1.0,1.8*39
$GPRMC,220419.000,A,3759.9856,N,11954.2765,W,3.49,355.86,291013,,*12
$GPGGA,220420.000,3759.9865,N,11954.2766,W,1,08,1.0,1422.4,M,-23.2,M,,0000*59
$GPGSA,A,3,21,26,18,22,06,15,16,29,,,,,2.1,1.0,1.8*39
$GPGSV,3,1,11,21,67,335,20,18,64,231,33,29,45,142,34,15,42,099,31*7F
$GPGSV,3,2,11,22,27,230,37,16,24,300,28,26,23,055,31,06,18,315,34*78
$GPGSV,3,3,11,27,08,316,,05,02,048,,25,00,184,*41
$GPRMC,220420.000,A,3759.9865,N,11954.2766,W,3.52,355.93,291013,,*15
$GPGGA,220421.000,3759.9875,N,11954.2767,W,1,08,1.0,1422.1,M,-23.2,M,,0000*5D
$GPGSA,A,3,21,26,18,22,06,15,16,29,,,,,2.1,1.0,1.8*39
$GPRMC,220421.000,A,3759.9875,N,11954.2767,W,3.39,356.22,291013,,*10
$GPGGA,220422.000,3759.9884,N,11954.2768,W,1,08,1.0,1421.8,M,-23.2,M,,0000*55
$GPGSA,A,3,21,26,18,22,06,15,16,29,,,,,2.1,1.0,1.8*39
$GPRMC,220422.000,A,3759.9884,N,11954.2768,W,3.37,355.69,291013,,*10
$GPGGA,220423.000,3759.9893,N,11954.2770,W,1,08,1.0,1421.5,M,-23.2,M,,0000*56
$GPGSA,A,3,21,26,18,22,06,15,16,29,,,,,2.1,1.0,1.8*39
$GPRMC,220423.000,A,3759.9893,N,11954.2770,W,3.36,355.62,291013,,*14
$GPGGA,220424.000,3759.9902,N,11954.2771,W,1,08,1.0,1421.2,M,-23.2,M,,0000*5E
$GPGSA,A,3,21,26,18,22,06,15,16,29,,,,,2.1,1.0,1.8*39
$GPRMC,220424.000,A,3759.9902,N,11954.2771,W,3.36,355.20,291013,,*1D
$GPGGA,220425.000,3759.9911,N,11954.2772,W,1,08,1.0,1420.9,M,-23.2,M,,0000*54
$GPGSA,A,3,21,26,18,22,06,15,16,29,,,,,2.1,1.0,1.8*39
$GPGSV,3,1,11,21,67,335,21,18,64,231,32,29,45,142,34,15,42,099,31*7F
$GPGSV,3,2,11,22,27,230,38,16,24,300,29,26,23,055,31,06,18,315,34*76
$GPGSV,3,3,11,27,08,316,,05,02,048,,25,00,184,*41
$GPRMC,220425.000,A,3759.9911,N,11954.2772,W,3.38,355.14,291013,,*14
$GPGGA,220426.000,3759.9920,N,11954.2774,W,1,08,1.0,1420.8,M,-23.2,M,,0000*52
$GPGSA,A,3,21,26,18,22,06,15,16,29,,,,,2.1,1.0,1.8*39
$GPRMC,220426.000,A,3759.9920,N,11954.2774,W,3.48,355.03,291013,,*12
$GPGGA,220427.000,3759.9930,N,11954.2775,W,1,08,1.0,1420.7,M,-23.2,M,,0000*5C
$GPGSA,A,3,21,26,18,22,06,15,16,29,,,,,2.1,1.0,1.8*39
$GPRMC,220427.000,A,3759.9930,N,11954.2775,W,3.50,355.44,291013,,*19
$GPGGA,220428.000,3759.9940,N,11954.2776,W,1,08,1.0,1420.7,M,-23.2,M,,0000*57
$GPGSA,A,3,21,26,18,22,06,15,16,29,,,,,2.1,1.0,1.8*39
$GPRMC,220428.000,A,3759.9940,N,11954.2776,W,3.55,356.11,291013,,*14
$GPGGA,220429.000,3759.9950,N,11954.2777,W,1,08,1.0,1420.9,M,-23.2,M,,0000*58
$GPGSA,A,3,21,26,18,22,06,15,16,29,,,,,2.1,1.0,1.8*39
$GPRMC,220429.000,A,3759.9950,N,11954.2777,W,3.53,357.00,291013,,*12
$GPGGA,220430.000,3759.9959,N,11954.2777,W,1,08,1.0,1420.8,M,-23.2,M,,0000*58
$GPGSA,A,3,21,26,18,22,06,15,16,29,,,,,2.1,1.0,1.8*39
$GPGSV,3,1,11,21,67,335,20,18,64,231,27,29,45,142,35,15,42,099,31*7B
$GPGSV,3,2,11,22,27,230,38,16,24,300,29,26,23,055,31,06,18,315,35*77
$GPGSV,3,3,11,27,08,316,,05,01,048,,25,00,184,*42
$GPRMC,220430.000,A,3759.9959,N,11954.2777,W,3.44,357.71,291013,,*13
$GPGGA,220431.000,3759.9969,N,11954.2777,W,1,08,1.0,1420.7,M,-23.2,M,,0000*55
$GPGSA,A,3,21,26,18,22,06,15,16,29,,,,,2.1,1.0,1.8*39
$GPRMC,220431.000,A,3759.9969,N,11954.2777,W,3.41,358.59,291013,,*11
$GPGGA,220432.000,3759.9978,N,11954.2777,W,1,08,1.0,1420.7,M,-23.2,M,,0000*56
$GPGSA,A,3,21,26,18,22,06,15,16,29,,,,,2.1,1.0,1.8*39
$GPRMC,220432.000,A,3759.9978,N,11954.2777,W,3.48,358.62,291013,,*13
$GPGGA,220433.000,3759.9988,N,11954.2778,W,1,08,1.0,1420.9,M,-23.2,M,,0000*59
$GPGSA,A,3,21,26,18,22,06,15,16,29,,,,,2.1,1.0,1.8*39
$GPRMC,220433.000,A,3759.9988,N,11954.2778,W,3.51,358.87,291013,,*11
$GPGGA,220434.000,3759.9998,N,11954.2778,W,1,08,1.0,1421.0,M,-23.2,M,,0000*57
$GPGSA,A,3,21,26,18,22,06,15,16,29,,,,,2.1,1.0,1.8*39
$GPRMC,220434.000,A,3759.9998,N,11954.2778,W,3.51,358.47,291013,,*1B
$GPGGA,220435.000,3800.0007,N,11954.2778,W,1,08,1.0,1420.9,M,-23.2,M,,0000*5B
$GPGSA,A,3,21,26,18,22,06,15,16,29,,,,,2.1,1.0,1.8*39
$GPGSV,3,1,11,21,67,335,19,18,64,231,27,29,45,142,35,15,42,099,31*71
$GPGSV,3,2,11,22,27,230,38,16,24,300,29,26,23,055,32,06,18,315,35*74
$GPGSV,3,3,11,27,08,316,,05,01,048,20,25,00,184,*40
$GPRMC,220435.000,A,3800.0007,N,11954.2778,W,3.43,358.36,291013,,*1A
$GPGGA,220436.000,3800.0017,N,11954.2779,W,1,08,1.0,1420.9,M,-23.2,M,,0000*58
$GPGSA,A,3,21,26,18,22,06,15,16,29,,,,,2.1,1.0,1.8*39
$GPRMC,220436.000,A,3800.0017,N,11954.2779,W,3.45,358.10,291013,,*1B
$GPGGA,220437.000,3800.0026,N,11954.2779,W,1,08,1.0,1420.8,M,-23.2,M,,0000*5A
$GPGSA,A,3,21,26,18,22,06,15,16,29,,,,,2.1,1.0,1.8*39
$GPRMC,220437.000,A,3800.0026,N,11954.2779,W,3.39,357.86,291013,,*13
$GPGGA,220438.000,3800.0035,N,11954.2780,W,1,08,1.0,1420.7,M,-23.2,M,,0000*5E
$GPGSA,A,3,21,26,18,22,06,15,16,29,,,,,2.1,1.0,1.8*39
$GPRMC,220438.000,A,3800.0035,N,11954.2780,W,3.37,357.67,291013,,*19
$GPGGA,220439.000,3800.0045,N,11954.2780,W,1,08,1.0,1420.6,M,-23.2,M,,0000*59
$GPGSA,A,3,21,26,18,22,06,15,16,29,,,,,2.1,1.0,1.8*39
$GPRMC,220439.000,A,3800.0045,N,11954.2780,W,3.37,357.23,291013,,*1F
$GPGGA,220440.000,3800.0054,N,11954.2781,W,1,08,1.0,1420.5,M,-23.2,M,,0000*55
$GPGSA,A,3,21,26,18,22,06,15,16,29,,,,,2.1,1.0,1.8*39
$GPGSV,3,1,11,21,67,335,19,18,64,231,28,29,45,142,35,15,42,099,31*7E
$GPGSV,3,2,11,22,27,230,38,16,24,300,29,26,23,055,32,06,18,315,35*74
$GPGSV,3,3,11,27,08,316,,05,01,048,,25,00,184,*42
$GPRMC,220440.000,A,3800.0054,N,11954.2781,W,3.38,356.35,291013,,*19
$GPGGA,220441.000,3800.0063,N,11954.2782,W,1,08,1.0,1420.4,M,-23.2,M,,0000*52
$GPGSA,A,3,21,26,18,22,06,15,16,29,,,,,2.1,1.0,1.8*39
$GPRMC,220441.000,A,3800.0063,N,11954.2782,W,3.38,355.71,291013,,*1C
$GPGGA,220442.000,3800.0072,N,11954.2783,W,1,08,1.0,1420.3,M,-23.2,M,,0000*57
$GPGSA,A,3,21,26,18,22,06,15,16,29,,,,,2.1,1.0,1.8*39
$GPRMC,220442.000,A,3800.0072,N,11954.2783,W,3.36,354.98,291013,,*16
$GPGGA,220443.000,3800.0082,N,11954.2784,W,1,08,1.0,1420.4,M,-23.2,M,,0000*59
$GPGSA,A,3,21,26,18,22,06,15,16,29,,,,,2.1,1.0,1.8*39
$GPRMC,220443.000,A,3800.0082,N,11954.2784,W,3.42,354.47,291013,,*1E
$GPGGA,220444.000,3800.0091,N,11954.2786,W,1,08,1.0,1420.3,M,-23.2,M,,0000*59
$GPGSA,A,3,21,26,18,22,06,15,16,29,,,,,2.1,1.0,1.8*39
$GPRMC,220444.000,A,3800.0091,N,11954.2786,W,3.36,354.15,291013,,*1D
$GPGGA,220445.000,3800.0100,N,11954.2787,W,1,08,1.0,1420.2,M,-23.2,M,,0000*51
$GPGSA,A,3,21,26,18,22,06,15,16,29,,,,,2.1,1.0,1.8*39
$GPGSV,3,1,11,21,67,335,19,18,64,231,29,29,45,142,34,15,42,099,31*7E
$GPGSV,3,2,11,22,27,230,38,16,24,300,29,26,23,055,31,06,18,315,35*77
$GPGSV,3,3,11,27,08,316,,05,01,048,,25,00,184,*42
$GPRMC,220445.000,A,3800.0100,N,11954.2787,W,3.36,354.07,291013,,*17
$GPGGA,220446.000,3800.0110,N,11954.2789,W,1,08,1.0,1420.1,M,-23.2,M,,0000*5E
$GPGSA,A,3,21,26,18,22,06,15,16,29,,,,,2.1,1.0,1.8*39
$GPRMC,220446.000,A,3800.0110,N,11954.2789,W,3.42,353.56,291013,,*1B
$GPGGA,220447.000,3800.0119,N,11954.2790,W,1,08,1.0,1420.1,M,-23.2,M,,0000*5E
$GPGSA,A,3,21,26,18,22,06,15,16,29,,,,,2.1,1.0,1.8*39
$GPRMC,220447.000,A,3800.0119,N,11954.2790,W,3.41,353.01,291013,,*1A
$GPGGA,220448.000,3800.0129,N,11954.2792,W,1,08,1.0,1420.1,M,-23.2,M,,0000*50
$GPGSA,A,3,21,26,18,22,06,15,16,29,,,,,2.1,1.0,1.8*39
$GPRMC,220448.000,A,3800.0129,N,11954.2792,W,3.43,352.11,291013,,*16
$GPGGA,220449.000,3800.0138,N,11954.2794,W,1,08,1.0,1420.2,M,-23.2,M,,0000*54
$GPGSA,A,3,21,26,18,22,06,15,16,29,,,,,2.1,1.0,1.8*39
$GPRMC,220449.000,A,3800.0138,N,11954.2794,W,3.45,351.64,291013,,*16
$GPGGA,220450.000,3800.0148,N,11954.2796,W,1,08,1.0,1420.3,M,-23.2,M,,0000*58
$GPGSA,A,3,21,26,18,22,06,15,16,29,,,,,2.1,1.0,1.8*39
$GPGSV,3,1,11,21,67,335,18,18,64,231,31,29,45,142,34,15,42,099,32*75
$GPGSV,3,2,11,22,27,230,39,16,24,300,29,26,23,055,31,06,18,315,34*77
$GPGSV,3,3,11,27,08,316,23,05,01,048,,25,00,184,*43
$GPRMC,220450.000,A,3800.0148,N,11954.2796,W,3.53,350.96,291013,,*10
$GPGGA,220451.000,3800.0158,N,11954.2799,W,1,08,1.0,1420.3,M,-23.2,M,,0000*57
$GPGSA,A,3,21,26,18,22,06,15,16,29,,,,,2.1,1.0,1.8*39
$GPRMC,220451.000,A,3800.0158,N,11954.2799,W,3.45,350.36,291013,,*12
$GPGGA,220452.000,3800.0167,N,11954.2801,W,1,08,1.0,1420.3,M,-23.2,M,,0000*56
$GPGSA,A,3,21,26,18,22,06,15,16,29,,,,,2.1,1.0,1.8*39
$GPRMC,220452.000,A,3800.0167,N,11954.2801,W,3.41,350.66,291013,,*12
$GPGGA,220453.000,3800.0177,N,11954.2803,W,1,08,1.0,1420.3,M,-23.2,M,,0000*54
$GPGSA,A,3,21,26,18,22,06,15,16,29,,,,,2.1,1.0,1.8*39
$GPRMC,220453.000,A,3800.0177,N,11954.2803,W,3.42,351.25,291013,,*15
$GPGGA,220454.000,3800.0186,N,11954.2805,W,1,08,1.0,1420.3,M,-23.2,M,,0000*5B
$GPGSA,A,3,21,26,18,22,06,15,16,29,,,,,2.1,1.0,1.8*39
$GPRMC,220454.000,A,3800.0186,N,11954.2805,W,3.46,351.53,291013,,*1F
$GPGGA,220455.000,3800.0196,N,11954.2807,W,1,08,1.0,1420.2,M,-23.2,M,,0000*58
$GPGSA,A,3,21,26,18,22,06,15,16,29,,,,,2.1,1.0,1.8*39
$GPGSV,3,1,11,21,67,335,23,18,64,231,31,29,45,142,34,15,42,099,32*7D
$GPGSV,3,2,11,22,27,230,38,16,24,300,28,26,23,055,31,06,18,315,34*77
$GPGSV,3,3,11,27,08,316,29,05,01,048,,25,00,184,*49
$GPRMC,220455.000,A,3800.0196,N,11954.2807,W,3.46,352.62,291013,,*1C
$GPGGA,220456.000,3800.0205,N,11954.2809,W,1,08,1.0,1420.4,M,-23.2,M,,0000*5A
$GPGSA,A,3,21,26,18,22,06,15,16,29,,,,,2.1,1.0,1.8*39
$GPRMC,220456.000,A,3800.0205,N,11954.2809,W,3.51,353.04,291013,,*1F
$GPGGA,220457.000,3800.0215,N,11954.2810,W,1,08,1.0,1420.5,M,-23.2,M,,0000*53
$GPGSA,A,3,21,26,18,22,06,15,16,29,,,,,2.1,1.0,1.8*39
$GPRMC,220457.000,A,3800.0215,N,11954.2810,W,3.49,354.90,291013,,*14
$GPGGA,220458.000,3800.0225,N,11954.2811,W,1,08,1.0,1420.6,M,-23.2,M,,0000*5D
$GPGSA,A,3,21,26,18,22,06,15,16,29,,,,,2.1,1.0,1.8*39
$GPRMC,220458.000,A,3800.0225,N,11954.2811,W,3.47,356.17,291013,,*1A
$GPGGA,220459.000,3800.0234,N,11954.2812,W,1,08,1.0,1420.5,M,-23.2,M,,0000*5C
$GPGSA,A,3,21,26,18,22,06,15,16,29,,,,,2.1,1.0,1.8*39
$GPRMC,220459.000,A,3800.0234,N,11954.2812,W,3.30,358.78,291013,,*1F
$GPGGA,220500.000,3800.0243,N,11954.2813,W,1,08,1.0,1420.5,M,-23.2,M,,0000*50
$GPGSA,A,3,21,26,18,22,06,15,16,29,,,,,2.1,1.0,1.8*39
$GPGSV,3,1,11,21,67,335,23,18,64,231,27,29,45,142,35,15,42,099,31*78
$GPGSV,3,2,11,22,27,230,37,16,24,300,23,26,23,055,32,06,18,315,33*77
$GPGSV,3,3,11,27,08,316,29,05,01,048,,25,00,184,*49
$GPRMC,220500.000,A,3800.0243,N,11954.2813,W,3.28,0.00,291013,,*1B
$GPGGA,220501.000,3800.0253,N,11954.2813,W,1,08,1.0,1420.6,M,-23.2,M,,0000*53
$GPGSA,A,3,21,26,18,22,06,15,16,29,,,,,2.1,1.0,1.8*39
$GPRMC,220501.000,A,3800.0253,N,11954.2813,W,3.44,358.40,291013,,*1B
$GPGGA,220502.000,3800.0263,N,11954.2814,W,1,08,1.0,1420.7,M,-23.2,M,,0000*55
$GPGSA,A,3,21,26,18,22,06,15,16,29,,,,,2.1,1.0,1.8*39
$GPRMC,220502.000,A,3800.0263,N,11954.2814,W,3.49,357.91,291013,,*12
$GPGGA,220503.000,3800.0272,N,11954.2815,W,1,08,1.0,1420.6,M,-23.2,M,,0000*54
$GPGSA,A,3,21,26,18,22,06,15,16,29,,,,,2.1,1.0,1.8*39
$GPRMC,220503.000,A,3800.0272,N,11954.2815,W,3.38,357.66,291013,,*1C
$GPGGA,220504.000,3800.0282,N,11954.2816,W,1,08,1.0,1420.7,M,-23.2,M,,0000*5E
$GPGSA,A,3,21,26,18,22,06,15,16,29,,,,,2.1,1.0,1.8*39
$GPRMC,220504.000,A,3800.0282,N,11954.2816,W,3.38,356.42,291013,,*10
$GPGGA,220505.000,3800.0291,N,11954.2817,W,1,08,1.0,1420.9,M,-23.2,M,,0000*52
$GPGSA,A,3,21,26,18,22,06,15,16,29,,,,,2.1,1.0,1.8*39
$GPGSV,3,1,11,21,67,336,22,18,65,231,29,29,45,142,35,15,42,099,31*75
$GPGSV,3,2,11,22,27,230,37,16,24,299,26,26,23,055,31,06,18,315,33*70
$GPGSV,3,3,11,27,08,316,29,05,01,048,,25,00,184,*49
$GPRMC,220505.000,A,3800.0291,N,11954.2817,W,3.52,354.77,291013,,*1A
$GPGGA,220506.000,3800.0303,N,11954.2820,W,1,08,1.0,1420.9,M,-23.2,M,,0000*5F
$GPGSA,A,3,21,26,18,22,06,15,16,29,,,,,2.1,1.0,1.8*39
$GPRMC,220506.000,A,3800.0303,N,11954.2820,W,3.57,353.49,291013,,*18
$GPGGA,220507.000,3800.0313,N,11954.2822,W,1,08,1.0,1420.7,M,-23.2,M,,0000*53
$GPGSA,A,3,21,26,18,22,06,15,16,29,,,,,2.1,1.0,1.8*39
$GPRMC,220507.000,A,3800.0313,N,11954.2822,W,3.42,352.75,291013,,*10
$GPGGA,220508.000,3800.0323,N,11954.2824,W,1,08,1.0,1420.5,M,-23.2,M,,0000*5B
$GPGSA,A,3,21,26,18,22,06,15,16,29,,,,,2.1,1.0,1.8*39
$GPRMC,220508.000,A,3800.0323,N,11954.2824,W,3.36,352.80,291013,,*13
$GPGGA,220509.000,3800.0333,N,11954.2825,W,1,08,1.0,1420.3,M,-23.2,M,,0000*5C
$GPGSA,A,3,21,26,18,22,06,15,16,29,,,,,2.1,1.0,1.8*39
$GPRMC,220509.000,A,3800.0333,N,11954.2825,W,3.35,353.81,291013,,*11
$GPGGA,220510.000,3800.0343,N,11954.2827,W,1,08,1.0,1420.3,M,-23.2,M,,0000*51
$GPGSA,A,3,21,26,18,22,06,15,16,29,,,,,2.1,1.0,1.8*39
$GPGSV,3,1,11,21,67,336,21,18,65,231,24,29,45,142,35,15,42,099,31*7B
$GPGSV,3,2,11,22,27,230,37,16,24,299,30,26,23,055,33,06,18,315,33*75
$GPGSV,3,3,11,27,08,316,29,05,01,048,,25,00,184,*49
$GPRMC,220510.000,A,3800.0343,N,11954.2827,W,3.33,355.11,291013,,*15
$GPGGA,220511.000,3800.0353,N,11954.2829,W,1,08,1.0,1420.5,M,-23.2,M,,0000*59
$GPGSA,A,3,21,26,18,22,06,15,16,29,,,,,2.1,1.0,1.8*39
$GPRMC,220511.000,A,3800.0353,N,11954.2829,W,3.48,356.35,291013,,*12
$GPGGA,220512.000,3800.0362,N,11954.2830,W,1,08,1.0,1420.7,M,-23.2,M,,0000*52
$GPGSA,A,3,21,26,18,22,06,15,16,29,,,,,2.1,1.0,1.8*39
$GPRMC,220512.000,A,3800.0362,N,11954.2830,W,3.42,357.71,291013,,*10
$GPGGA,220513.000,3800.0374,N,11954.2832,W,1,08,1.0,1422.5,M,-23.2,M,,0000*56
$GPGSA,A,3,21,26,18,22,06,15,16,29,,,,,2.1,1.0,1.8*39
$GPRMC,220513.000,A,3800.0374,N,11954.2832,W,3.43,359.58,291013,,*10
$GPGGA,220514.000,3800.0384,N,11954.2833,W,1,07,1.2,1423.0,M,-23.2,M,,0000*56
$GPGSA,A,3,26,18,22,06,15,16,29,,,,,,3.0,1.2,2.7*34
$GPRMC,220514.000,A,3800.0384,N,11954.2833,W,3.41,0.49,291013,,*14
$GPGGA,220515.000,3800.0394,N,11954.2834,W,1,08,1.0,1424.2,M,-23.2,M,,0000*59
$GPGSA,A,3,21,26,18,22,06,15,16,29,,,,,2.1,1.0,1.8*39
$GPGSV,3,1,12,21,67,336,12,18,65,231,22,29,44,142,35,15,42,099,31*7F
$GPGSV,3,2,12,22,27,230,37,16,24,299,16,26,23,054,34,06,18,315,33*74
$GPGSV,3,3,12,27,08,316,30,05,01,048,,25,00,184,19,51,44,160,33*79
$GPRMC,220515.000,A,3800.0394,N,11954.2834,W,3.57,359.69,291013,,*19
$GPGGA,220516.000,3800.0404,N,11954.2835,W,1,07,1.2,1424.9,M,-23.2,M,,0000*53
$GPGSA,A,3,26,18,22,06,15,16,29,,,,,,3.0,1.2,2.7*34
$GPRMC,220516.000,A,3800.0404,N,11954.2835,W,3.63,0.13,291013,,*10
$GPGGA,220517.000,3800.0416,N,11954.2837,W,1,08,1.0,1426.8,M,-23.2,M,,0000*5D
$GPGSA,A,3,21,26,18,22,06,15,16,29,,,,,2.1,1.0,1.8*39
$GPRMC,220517.000,A,3800.0416,N,11954.2837,W,3.65,1.32,291013,,*14
$GPGGA,220518.000,3800.0426,N,11954.2837,W,1,08,1.0,1427.7,M,-23.2,M,,0000*5F
$GPGSA,A,3,21,26,18,22,06,15,16,29,,,,,2.1,1.0,1.8*39
$GPRMC,220518.000,A,3800.0426,N,11954.2837,W,3.72,2.52,291013,,*1B
$GPGGA,220519.000,3800.0436,N,11954.2836,W,1,08,1.0,1427.6,M,-23.2,M,,0000*5F
$GPGSA,A,3,21,26,18,22,06,15,16,29,,,,,2.1,1.0,1.8*39
$GPRMC,220519.000,A,3800.0436,N,11954.2836,W,3.65,3.31,291013,,*18
$GPGGA,220520.000,3800.0445,N,11954.2834,W,1,08,1.0,1427.7,M,-23.2,M,,0000*52
$GPGSA,A,3,21,26,18,22,06,15,16,29,,,,,2.1,1.0,1.8*39
$GPGSV,3,1,12,21,67,336,19,18,65,231,28,29,44,142,35,15,42,099,32*7D
$GPGSV,3,2,12,22,27,230,37,16,24,299,23,26,23,054,33,06,18,315,33*75
$GPGSV,3,3,12,27,08,316,31,05,01,048,,25,00,184,,51,44,160,35*76
$GPRMC,220520.000,A,3800.0445,N,11954.2834,W,3.50,6.00,291013,,*15
$GPGGA,220521.000,3800.0455,N,11954.2833,W,1,08,1.0,1427.9,M,-23.2,M,,0000*5B
$GPGSA,A,3,21,26,18,22,06,15,16,29,,,,,2.1,1.0,1.8*39
$GPRMC,220521.000,A,3800.0455,N,11954.2833,W,3.54,6.16,291013,,*11
$GPGGA,220522.000,3800.0464,N,11954.2832,W,1,08,1.0,1427.9,M,-23.2,M,,0000*5B
$GPGSA,A,3,21,26,18,22,06,15,16,29,,,,,2.1,1.0,1.8*39
$GPRMC,220522.000,A,3800.0464,N,11954.2832,W,3.56,3.63,291013,,*14
$GPGGA,220523.000,3800.0473,N,11954.2830,W,1,08,1.0,1427.8,M,-23.2,M,,0000*5F
$GPGSA,A,3,21,26,18,22,06,15,16,29,,,,,2.1,1.0,1.8*39
$GPRMC,220523.000,A,3800.0473,N,11954.2830,W,3.61,1.57,291013,,*10
$GPGGA,220524.000,3800.0483,N,11954.2829,W,1,08,1.0,1428.1,M,-23.2,M,,0000*59
$GPGSA,A,3,21,26,18,22,06,15,16,29,,,,,2.1,1.0,1.8*39
$GPRMC,220524.000,A,3800.0483,N,11954.2829,W,3.60,0.33,291013,,*12
$GPGGA,220525.000,3800.0492,N,11954.2830,W,1,08,1.0,1428.1,M,-23.2,M,,0000*50
$GPGSA,A,3,21,26,18,22,06,15,16,29,,,,,2.1,1.0,1.8*39
$GPGSV,3,1,11,21,67,336,19,18,65,231,28,29,44,142,35,15,42,099,32*7E
$GPGSV,3,2,11,22,27,230,37,16,24,299,30,26,23,054,33,06,18,315,33*74
$GPGSV,3,3,11,27,08,316,30,05,01,048,,25,00,184,*41
$GPRMC,220525.000,A,3800.0492,N,11954.2830,W,3.60,358.38,291013,,*1E
$GPGGA,220526.000,3800.0501,N,11954.2829,W,1,08,1.0,1426.8,M,-23.2,M,,0000*57
$GPGSA,A,3,21,26,18,22,06,15,16,29,,,,,2.1,1.0,1.8*39
$GPRMC,220526.000,A,3800.0501,N,11954.2829,W,3.40,355.49,291013,,*17
$GPGGA,220527.000,3800.0509,N,11954.2830,W,1,08,1.0,1425.9,M,-23.2,M,,0000*54
$GPGSA,A,3,21,26,18,22,06,15,16,29,,,,,2.1,1.0,1.8*39
$GPRMC,220527.000,A,3800.0509,N,11954.2830,W,3.38,353.72,291013,,*17
$GPGGA,220528.000,3800.0518,N,11954.2830,W,1,08,1.0,1425.0,M,-23.2,M,,0000*52
$GPGSA,A,3,21,26,18,22,06,15,16,29,,,,,2.1,1.0,1.8*39
$GPRMC,220528.000,A,3800.0518,N,11954.2830,W,3.37,352.95,291013,,*1F
$GPGGA,220529.000,3800.0527,N,11954.2832,W,1,08,1.0,1424.8,M,-23.2,M,,0000*54
$GPGSA,A,3,21,26,18,22,06,15,16,29,,,,,2.1,1.0,1.8*39
$GPRMC,220529.000,A,3800.0527,N,11954.2832,W,3.45,353.61,291013,,*1F
$GPGGA,220530.000,3800.0537,N,11954.2833,W,1,08,1.0,1424.7,M,-23.2,M,,0000*53
$GPGSA,A,3,21,26,18,22,06,15,16,29,,,,,2.1,1.0,1.8*39
$GPGSV,3,1,12,21,67,336,19,18,65,231,23,29,44,142,35,15,42,099,32*76
$GPGSV,3,2,12,22,27,230,38,16,24,299,31,26,23,054,32,06,18,315,33*78
$GPGSV,3,3,12,27,08,316,29,05,01,048,,25,00,184,,51,44,160,33*79
$GPRMC,220530.000,A,3800.0537,N,11954.2833,W,3.72,356.37,291013,,*15
$GPGGA,220531.000,3800.0547,N,11954.2834,W,1,08,1.0,1424.6,M,-23.2,M,,0000*53
$GPGSA,A,3,21,26,18,22,06,15,16,29,,,,,2.1,1.0,1.8*39
$GPRMC,220531.000,A,3800.0547,N,11954.2834,W,3.76,358.09,291013,,*13
$GPGGA,220532.000,3800.0557,N,11954.2834,W,1,08,1.0,1424.4,M,-23.2,M,,0000*53
$GPGSA,A,3,21,26,18,22,06,15,16,29,,,,,2.1,1.0,1.8*39
$GPRMC,220532.000,A,3800.0557,N,11954.2834,W,3.77,358.91,291013,,*11
$GPGGA,220533.000,3800.0567,N,11954.2835,W,1,08,1.0,1424.3,M,-23.2,M,,0000*57
$GPGSA,A,3,21,26,18,22,06,15,16,29,,,,,2.1,1.0,1.8*39
$GPRMC,220533.000,A,3800.0567,N,11954.2835,W,3.89,359.22,291013,,*1A
$GPGGA,220534.000,3800.0578,N,11954.2836,W,1,08,1.0,1424.3,M,-23.2,M,,0000*5D
$GPGSA,A,3,21,26,18,22,06,15,16,29,,,,,2.1,1.0,1.8*39
$GPRMC,220534.000,A,3800.0578,N,11954.2836,W,3.91,357.86,291013,,*19
$GPGGA,220535.000,3800.0589,N,11954.2837,W,1,08,1.0,1424.2,M,-23.2,M,,0000*52
$GPGSA,A,3,21,26,18,22,06,15,16,29,,,,,2.1,1.0,1.8*39
$GPGSV,3,1,11,21,67,336,20,18,65,231,31,29,44,142,35,15,42,099,31*7F
$GPGSV,3,2,11,22,27,230,39,16,24,299,32,26,23,054,33,06,18,315,34*7F
$GPGSV,3,3,11,27,08,316,28,05,01,048,,25,00,184,*48
$GPRMC,220535.000,A,3800.0589,N,11954.2837,W,3.91,356.20,291013,,*1A
$GPGGA,220536.000,3800.0599,N,11954.2838,W,1,08,1.0,1424.1,M,-23.2,M,,0000*5C
$GPGSA,A,3,21,26,18,22,06,15,16,29,,,,,2.1,1.0,1.8*39
$GPRMC,220536.000,A,3800.0599,N,11954.2838,W,3.89,355.68,291013,,*11
$GPGGA,220537.000,3800.0610,N,11954.2840,W,1,08,1.0,1423.9,M,-23.2,M,,0000*5F
$GPGSA,A,3,21,26,18,22,06,15,16,29,,,,,2.1,1.0,1.8*39
$GPRMC,220537.000,A,3800.0610,N,11954.2840,W,3.89,355.64,291013,,*11
$GPGGA,220538.000,3800.0620,N,11954.2841,W,1,08,1.0,1423.6,M,-23.2,M,,0000*5D
$GPGSA,A,3,21,26,18,22,06,15,16,29,,,,,2.1,1.0,1.8*39
$GPRMC,220538.000,A,3800.0620,N,11954.2841,W,3.80,357.68,291013,,*1B
$GPGGA,220539.000,3800.0632,N,11954.2842,W,1,08,1.0,1423.5,M,-23.2,M,,0000*5F
$GPGSA,A,3,21,26,18,22,06,15,16,29,,,,,2.1,1.0,1.8*39
$GPRMC,220539.000,A,3800.0632,N,11954.2842,W,3.98,358.13,291013,,*10
$GPGGA,220540.000,3800.0641,N,11954.2841,W,1,08,1.0,1423.3,M,-23.2,M,,0000*50
$GPGSA,A,3,21,26,18,22,06,15,16,29,,,,,2.1,1.0,1.8*39
$GPGSV,3,1,12,21,67,336,20,18,65,231,21,29,44,142,35,15,42,099,31*7D
$GPGSV,3,2,12,22,27,230,38,16,24,299,23,26,23,054,33,06,18,315,34*7D
$GPGSV,3,3,12,27,08,316,28,05,01,048,,25,00,184,,51,44,160,30*7B
$GPRMC,220540.000,A,3800.0641,N,11954.2841,W,3.92,359.84,291013,,*1C
$GPGGA,220541.000,3800.0652,N,11954.2842,W,1,08,1.0,1423.3,M,-23.2,M,,0000*50
$GPGSA,A,3,21,26,18,22,06,15,16,29,,,,,2.1,1.0,1.8*39
$GPRMC,220541.000,A,3800.0652,N,11954.2842,W,3.96,358.84,291013,,*19
$GPGGA,220542.000,3800.0662,N,11954.2842,W,1,08,1.0,1423.2,M,-23.2,M,,0000*51
$GPGSA,A,3,21,26,18,22,06,15,16,29,,,,,2.1,1.0,1.8*39
$GPRMC,220542.000,A,3800.0662,N,11954.2842,W,3.88,359.76,291013,,*1A
$GPGGA,220543.000,3800.0673,N,11954.2842,W,1,08,1.0,1423.0,M,-23.2,M,,0000*52
$GPGSA,A,3,21,26,18,22,06,15,16,29,,,,,2.1,1.0,1.8*39
$GPRMC,220543.000,A,3800.0673,N,11954.2842,W,3.76,358.63,291013,,*1F
$GPGGA,220544.000,3800.0683,N,11954.2843,W,1,08,1.0,1423.0,M,-23.2,M,,0000*5B
$GPGSA,A,3,21,26,18,22,06,15,16,29,,,,,2.1,1.0,1.8*39
$GPRMC,220544.000,A,3800.0683,N,11954.2843,W,3.86,356.54,291013,,*13
$GPGGA,220545.000,3800.0694,N,11954.2843,W,1,08,1.0,1422.8,M,-23.2,M,,0000*55
$GPGSA,A,3,21,26,18,22,06,15,16,29,,,,,2.1,1.0,1.8*39
$GPGSV,3,1,11,21,67,336,22,18,65,231,20,29,44,142,35,15,42,099,30*7C
$GPGSV,3,2,11,22,27,230,38,16,24,299,25,26,23,054,32,06,18,315,33*7E
$GPGSV,3,3,11,27,08,316,29,05,01,048,,25,00,184,*49
$GPRMC,220545.000,A,3800.0694,N,11954.2843,W,3.90,356.74,291013,,*11
$GPGGA,220546.000,3800.0704,N,11954.2844,W,1,08,1.0,1422.6,M,-23.2,M,,0000*57
$GPGSA,A,3,21,26,18,22,06,15,16,29,,,,,2.1,1.0,1.8*39
$GPRMC,220546.000,A,3800.0704,N,11954.2844,W,3.78,356.32,291013,,*19
$GPGGA,220547.000,3800.0714,N,11954.2845,W,1,08,1.0,1422.5,M,-23.2,M,,0000*55
$GPGSA,A,3,21,26,18,22,06,15,16,29,,,,,2.1,1.0,1.8*39
$GPRMC,220547.000,A,3800.0714,N,11954.2845,W,3.85,356.38,291013,,*10
$GPGGA,220548.000,3800.0725,N,11954.2846,W,1,08,1.0,1422.2,M,-23.2,M,,0000*5C
$GPGSA,A,3,21,26,18,22,06,15,16,29,,,,,2.1,1.0,1.8*39
$GPRMC,220548.000,A,3800.0725,N,11954.2846,W,3.80,357.00,291013,,*11
$GPGGA,220549.000,3800.0735,N,11954.2847,W,1,08,1.0,1421.7,M,-23.2,M,,0000*5B
$GPGSA,A,3,21,26,18,22,06,15,16,29,,,,,2.1,1.0,1.8*39
$GPRMC,220549.000,A,3800.0735,N,11954.2847,W,3.82,357.69,291013,,*1D
$GPGGA,220550.000,3800.0745,N,11954.2847,W,1,08,1.0,1421.2,M,-23.2,M,,0000*51
$GPGSA,A,3,21,26,18,22,06,15,16,29,,,,,2.1,1.0,1.8*39
$GPGSV,3,1,11,21,67,336,23,18,65,231,16,29,44,142,36,15,42,099,30*7B
$GPGSV,3,2,11,22,27,230,38,16,24,299,26,26,23,054,32,06,18,315,33*7D
$GPGSV,3,3,11,27,08,316,29,05,01,048,,25,00,184,*49
$GPRMC,220550.000,A,3800.0745,N,11954.2847,W,3.80,357.17,291013,,*19
$GPGGA,220551.000,3800.0756,N,11954.2848,W,1,08,1.0,1420.7,M,-23.2,M,,0000*59
$GPGSA,A,3,21,26,18,22,06,15,16,29,,,,,2.1,1.0,1.8*39
$GPRMC,220551.000,A,3800.0756,N,11954.2848,W,3.82,356.65,291013,,*13
$GPGGA,220552.000,3800.0767,N,11954.2850,W,1,08,1.0,1420.6,M,-23.2,M,,0000*50
$GPGSA,A,3,21,26,18,22,06,15,16,29,,,,,2.1,1.0,1.8*39
$GPRMC,220552.000,A,3800.0767,N,11954.2850,W,3.91,355.87,291013,,*16
$GPGGA,220553.000,3800.0778,N,11954.2851,W,1,08,1.0,1420.4,M,-23.2,M,,0000*5C
$GPGSA,A,3,21,26,18,22,06,15,16,29,,,,,2.1,1.0,1.8*39
$GPRMC,220553.000,A,3800.0778,N,11954.2851,W,3.93,354.29,291013,,*1F
$GPGGA,220554.000,3800.0789,N,11954.2854,W,1,08,1.0,1420.5,M,-23.2,M,,0000*51
$GPGSA,A,3,21,26,18,22,06,15,16,29,,,,,2.1,1.0,1.8*39
$GPRMC,220554.000,A,3800.0789,N,11954.2854,W,3.95,352.96,291013,,*17
$GPGGA,220555.000,3800.0800,N,11954.2856,W,1,08,1.0,1420.3,M,-23.2,M,,0000*5A
$GPGSA,A,3,21,26,18,22,06,15,16,29,,,,,2.1,1.0,1.8*39
$GPGSV,3,1,11,21,67,336,23,18,65,231,25,29,44,142,36,15,42,099,31*7A
$GPGSV,3,2,11,22,27,230,38,16,24,299,28,26,23,054,31,06,18,315,33*70
$GPGSV,3,3,11,27,08,316,29,05,01,048,,25,00,184,*49
$GPRMC,220555.000,A,3800.0800,N,11954.2856,W,3.85,352.12,291013,,*17
$GPGGA,220556.000,3800.0810,N,11954.2858,W,1,09,1.0,1420.1,M,-23.2,M,,0000*55
$GPGSA,A,3,21,26,18,27,22,06,15,16,29,,,,1.9,1.0,1.6*39
$GPRMC,220556.000,A,3800.0810,N,11954.2858,W,3.85,352.62,291013,,*1C
$GPGGA,220557.000,3800.0821,N,11954.2860,W,1,09,1.0,1420.1,M,-23.2,M,,0000*5D
$GPGSA,A,3,21,26,18,27,22,06,15,16,29,,,,1.9,1.0,1.6*39
$GPRMC,220557.000,A,3800.0821,N,11954.2860,W,3.87,353.03,291013,,*10
$GPGGA,220558.000,3800.0832,N,11954.2863,W,1,09,1.0,1420.2,M,-23.2,M,,0000*50
$GPGSA,A,3,21,26,18,27,22,06,15,16,29,,,,1.9,1.0,1.6*39
$GPRMC,220558.000,A,3800.0832,N,11954.2863,W,3.89,353.79,291013,,*1D
$GPGGA,220559.000,3800.0843,N,11954.2864,W,1,09,1.0,1419.8,M,-23.2,M,,0000*50
$GPGSA,A,3,21,26,18,27,22,06,15,16,29,,,,1.9,1.0,1.6*39
$GPRMC,220559.000,A,3800.0843,N,11954.2864,W,3.85,353.23,291013,,*1E
$GPGGA,220600.000,3800.0854,N,11954.2866,W,1,09,1.0,1419.7,M,-23.2,M,,0000*54
$GPGSA,A,3,21,26,18,27,22,06,15,16,29,,,,1.9,1.0,1.6*39
$GPGSV,3,1,11,21,67,336,24,18,65,232,30,29,44,142,36,15,42,098,31*7B
$GPGSV,3,2,11,22,27,230,39,16,24,299,28,26,23,054,31,06,19,315,33*70
$GPGSV,3,3,11,27,08,316,29,05,01,049,,25,00,184,*48
$GPRMC,220600.000,A,3800.0854,N,11954.2866,W,3.90,352.59,291013,,*1D
$GPGGA,220601.000,3800.0864,N,11954.2868,W,1,09,1.0,1419.4,M,-23.2,M,,0000*5B
$GPGSA,A,3,21,26,18,27,22,06,15,16,29,,,,1.9,1.0,1.6*39
$GPRMC,220601.000,A,3800.0864,N,11954.2868,W,3.85,352.14,291013,,*1C
$GPGGA,220602.000,3800.0875,N,11954.2871,W,1,09,1.0,1419.4,M,-23.2,M,,0000*50
$GPGSA,A,3,21,26,18,27,22,06,15,16,29,,,,1.9,1.0,1.6*39
$GPRMC,220602.000,A,3800.0875,N,11954.2871,W,3.88,352.39,291013,,*15
$GPGGA,220603.000,3800.0886,N,11954.2873,W,1,09,1.0,1419.3,M,-23.2,M,,0000*58
$GPGSA,A,3,21,26,18,27,22,06,15,16,29,,,,1.9,1.0,1.6*39
$GPRMC,220603.000,A,3800.0886,N,11954.2873,W,3.91,352.78,291013,,*17
$GPGGA,220604.000,3800.0897,N,11954.2875,W,1,09,1.0,1419.3,M,-23.2,M,,0000*59
$GPGSA,A,3,21,26,18,27,22,06,15,16,29,,,,1.9,1.0,1.6*39
$GPRMC,220604.000,A,3800.0897,N,11954.2875,W,3.97,353.74,291013,,*1D
$GPGGA,220605.000,3800.0908,N,11954.2877,W,1,09,1.0,1420.0,M,-23.2,M,,0000*54
$GPGSA,A,3,21,26,18,27,22,06,15,16,29,,,,1.9,1.0,1.6*39
$GPGSV,3,1,11,21,67,336,25,18,65,232,17,29,44,142,35,15,42,098,32*7F
$GPGSV,3,2,11,22,27,230,38,16,24,299,18,26,23,054,32,06,19,315,33*71
$GPGSV,3,3,11,27,08,316,20,05,01,049,,25,00,184,*41
$GPRMC,220605.000,A,3800.0908,N,11954.2877,W,4.05,353.94,291013,,*1B
$GPGGA,220606.000,3800.0920,N,11954.2880,W,1,09,1.0,1420.4,M,-23.2,M,,0000*51
$GPGSA,A,3,21,26,18,27,22,06,15,16,29,,,,1.9,1.0,1.6*39
$GPRMC,220606.000,A,3800.0920,N,11954.2880,W,4.11,352.57,291013,,*11
$GPGGA,220607.000,3800.0932,N,11954.2882,W,1,09,1.0,1420.9,M,-23.2,M,,0000*5C
$GPGSA,A,3,21,26,18,27,22,06,15,16,29,,,,1.9,1.0,1.6*39
$GPRMC,220607.000,A,3800.0932,N,11954.2882,W,4.14,355.50,291013,,*14
$GPGGA,220608.000,3800.0944,N,11954.2884,W,1,09,1.0,1421.3,M,-23.2,M,,0000*5F
$GPGSA,A,3,21,26,18,27,22,06,15,16,29,,,,1.9,1.0,1.6*39
$GPRMC,220608.000,A,3800.0944,N,11954.2884,W,3.99,357.84,291013,,*15
$GPGGA,220609.000,3800.0956,N,11954.2885,W,1,09,1.0,1421.9,M,-23.2,M,,0000*56
$GPGSA,A,3,21,26,18,27,22,06,15,16,29,,,,1.9,1.0,1.6*39
$GPRMC,220609.000,A,3800.0956,N,11954.2885,W,3.96,356.66,291013,,*14
$GPGGA,220610.000,3800.0968,N,11954.2887,W,1,09,1.0,1422.3,M,-23.2,M,,0000*58
$GPGSA,A,3,21,26,18,27,22,06,15,16,29,,,,1.9,1.0,1.6*39
$GPGSV,3,1,11,21,67,336,25,18,65,232,21,29,44,142,35,15,42,098,32*7A
$GPGSV,3,2,11,22,27,230,33,16,24,299,19,26,23,054,33,06,19,315,33*7A
$GPGSV,3,3,11,27,08,316,20,05,01,049,20,25,00,184,*43
$GPRMC,220610.000,A,3800.0968,N,11954.2887,W,3.99,359.11,291013,,*13
$GPGGA,220611.000,3800.0979,N,11954.2888,W,1,09,1.0,1422.5,M,-23.2,M,,0000*50
$GPGSA,A,3,21,26,18,27,22,06,15,16,29,,,,1.9,1.0,1.6*39
$GPRMC,220611.000,A,3800.0979,N,11954.2888,W,4.08,356.98,291013,,*1C
$GPGGA,220612.000,3800.0991,N,11954.2890,W,1,09,1.0,1422.9,M,-23.2,M,,0000*50
$GPGSA,A,3,21,26,18,27,22,06,15,16,29,,,,1.9,1.0,1.6*39
$GPRMC,220612.000,A,3800.0991,N,11954.2890,W,4.08,355.00,291013,,*12
$GPGGA,220613.000,3800.1002,N,11954.2891,W,1,09,1.0,1423.2,M,-23.2,M,,0000*58
$GPGSA,A,3,21,26,18,27,22,06,15,16,29,,,,1.9,1.0,1.6*39
$GPRMC,220613.000,A,3800.1002,N,11954.2891,W,3.98,356.23,291013,,*1C
